<?xml version="1.0" encoding="UTF-8" standalone="yes"?>
<response xmlns:xsi="http://www.w3.org/2001/XMLSchema-instance">
	<body>
		<items>
			<item>
				<dutyName>(의)가산의료재단 광동한방병원</dutyName>
				<dutyTel1>02-2222-4888</dutyTel1>
				<dutyTime1c>1800</dutyTime1c>
				<dutyTime1s>900</dutyTime1s>
				<wgs84Lat>37.5142796856122</wgs84Lat>
				<wgs84Lon>127.062147795216</wgs84Lon>
			</item>
			<item>
				<dutyName>(의)미래의료재단리드림의원</dutyName>
				<dutyTel1>02-540-0001</dutyTel1>
				<dutyTime1c>1700</dutyTime1c>
				<dutyTime1s>730</dutyTime1s>
				<wgs84Lat>37.5080247811</wgs84Lat>
				<wgs84Lon>127.0588898041</wgs84Lon>
			</item>
			<item>
				<dutyName>(의)미래의료재단미래치과의원</dutyName>
				<dutyTel1>02-540-0001</dutyTel1>
				<dutyTime1c>1800</dutyTime1c>
				<dutyTime1s>1000</dutyTime1s>
				<wgs84Lat>37.5080247811</wgs84Lat>
				<wgs84Lon>127.0588898041</wgs84Lon>
			</item>
			<item>
				<dutyName>(의)성광의료재단 차움한의원</dutyName>
				<dutyTel1>02-545-4134</dutyTel1>
				<dutyTime1c>1730</dutyTime1c>
				<dutyTime1s>830</dutyTime1s>
				<wgs84Lat>37.5233410604581</wgs84Lat>
				<wgs84Lon>127.044159412734</wgs84Lon>
			</item>
			<item>
				<dutyName>(의)성광의료재단차움건진의원</dutyName>
				<dutyTel1>02-1800-7750</dutyTel1>
				<dutyTime1c>1630</dutyTime1c>
				<dutyTime1s>730</dutyTime1s>
				<wgs84Lat>37.5077800464371</wgs84Lat>
				<wgs84Lon>127.05820647979</wgs84Lon>
			</item>
			<item>
				<dutyName>(의)성광의료재단차움의원</dutyName>
				<dutyTel1>02-3015-5000</dutyTel1>
				<dutyTime1c>1730</dutyTime1c>
				<dutyTime1s>900</dutyTime1s>
				<wgs84Lat>37.5234331427089</wgs84Lat>
				<wgs84Lon>127.043707835168</wgs84Lon>
			</item>
			<item>
				<dutyName>(의)열린의료재단강남열린의원</dutyName>
				<dutyTel1>02-3454-0601</dutyTel1>
				<dutyTime1c>1700</dutyTime1c>
				<dutyTime1s>900</dutyTime1s>
				<wgs84Lat>37.4975677491436</wgs84Lat>
				<wgs84Lon>127.068819583495</wgs84Lon>
			</item>
			<item>
				<dutyName>(재)능인불교선양원 동양한의원</dutyName>
				<dutyTel1>02-577-2040</dutyTel1>
				<dutyTime1c>1800</dutyTime1c>
				<dutyTime1s>1000</dutyTime1s>
				<wgs84Lat>37.4728239999</wgs84Lat>
				<wgs84Lon>127.0516587155</wgs84Lon>
			</item>
			<item>
				<dutyName>111의원</dutyName>
				<dutyTel1>02-540-8111</dutyTel1>
				<dutyTime1c>2000</dutyTime1c>
				<dutyTime1s>1100</dutyTime1s>
				<wgs84Lat>37.516961194007</wgs84Lat>
				<wgs84Lon>127.02069103447</wgs84Lon>
			</item>
			<item>
				<dutyName>123의원</dutyName>
				<dutyTel1>02-567-9123</dutyTel1>
				<dutyTime1c>1830</dutyTime1c>
				<dutyTime1s>1030</dutyTime1s>
				<wgs84Lat>37.4953238680438</wgs84Lat>
				<wgs84Lon>127.063960773355</wgs84Lon>
			</item>
			<item>
				<dutyName>2060오스킨성형외과의원</dutyName>
				<dutyTel1>02-555-2324</dutyTel1>
				<dutyTime1c>2100</dutyTime1c>
				<dutyTime1s>1030</dutyTime1s>
				<wgs84Lat>37.5086340085</wgs84Lat>
				<wgs84Lon>127.0585916918</wgs84Lon>
			</item>
			<item>
				<dutyName>247외과의원</dutyName>
				<dutyTel1>02-562-0247</dutyTel1>
				<dutyTime1c>1900</dutyTime1c>
				<dutyTime1s>1000</dutyTime1s>
				<wgs84Lat>37.5045335804</wgs84Lat>
				<wgs84Lon>127.0255914666</wgs84Lon>
			</item>
			<item>
				<dutyName>309성형외과의원</dutyName>
				<dutyTel1>02-512-5178</dutyTel1>
				<dutyTime1c>1900</dutyTime1c>
				<dutyTime1s>1000</dutyTime1s>
				<wgs84Lat>37.5223493678</wgs84Lat>
				<wgs84Lon>127.035185885</wgs84Lon>
			</item>
			<item>
				<dutyName>365엠씨의원</dutyName>
				<dutyTel1>02-516-3650</dutyTel1>
				<dutyTime1c>2000</dutyTime1c>
				<dutyTime1s>1100</dutyTime1s>
				<wgs84Lat>37.5166041956</wgs84Lat>
				<wgs84Lon>127.0218085089</wgs84Lon>
			</item>
			<item>
				<dutyName>365열린가정의학과의원</dutyName>
				<dutyTel1>02-565-7119</dutyTel1>
				<dutyTime1c>2000</dutyTime1c>
				<dutyTime1s>900</dutyTime1s>
				<wgs84Lat>37.4973697151</wgs84Lat>
				<wgs84Lon>127.0546701268</wgs84Lon>
			</item>
			<item>
				<dutyName>4월31일성형외과의원</dutyName>
				<dutyTel1>02-540-6777</dutyTel1>
				<dutyTime1c>1900</dutyTime1c>
				<dutyTime1s>900</dutyTime1s>
				<wgs84Lat>37.5110359761</wgs84Lat>
				<wgs84Lon>127.0218883252</wgs84Lon>
			</item>
			<item>
				<dutyName>4월31일치과의원</dutyName>
				<dutyTel1>02-562-2875</dutyTel1>
				<dutyTime1c>1830</dutyTime1c>
				<dutyTime1s>1000</dutyTime1s>
				<wgs84Lat>37.5110267939421</wgs84Lat>
				<wgs84Lon>127.021907714092</wgs84Lon>
			</item>
			<item>
				<dutyName>BLS(비엘에스)의원</dutyName>
				<dutyTel1>02-3446-4842</dutyTel1>
				<dutyTime1c>2100</dutyTime1c>
				<dutyTime1s>1000</dutyTime1s>
				<wgs84Lat>37.5249341234</wgs84Lat>
				<wgs84Lon>127.0439159969</wgs84Lon>
			</item>
			<item>
				<dutyName>D&amp;A(디앤에이)성형외과의원</dutyName>
				<dutyTel1>02-3444-1666</dutyTel1>
				<dutyTime1c>1830</dutyTime1c>
				<dutyTime1s>1000</dutyTime1s>
				<wgs84Lat>37.5278736968556</wgs84Lat>
				<wgs84Lon>127.030188945997</wgs84Lon>
			</item>
			<item>
				<dutyName>MVP(엠브이피)성형외과의원</dutyName>
				<dutyTel1>02-3442-6669</dutyTel1>
				<dutyTime1c>1900</dutyTime1c>
				<dutyTime1s>930</dutyTime1s>
				<wgs84Lat>37.5216305178</wgs84Lat>
				<wgs84Lon>127.0278733248</wgs84Lon>
			</item>
			<item>
				<dutyName>OLE(올래)성형외과의원</dutyName>
				<dutyTel1>02-516-0005</dutyTel1>
				<dutyTime1c>1900</dutyTime1c>
				<dutyTime1s>1000</dutyTime1s>
				<wgs84Lat>37.5258900635896</wgs84Lat>
				<wgs84Lon>127.029494912334</wgs84Lon>
			</item>
			<item>
				<dutyName>SKY(스카이)치과의원</dutyName>
				<dutyTel1>02-3452-2828</dutyTel1>
				<dutyTime1c>1900</dutyTime1c>
				<dutyTime1s>1000</dutyTime1s>
				<wgs84Lat>37.4996330482</wgs84Lat>
				<wgs84Lon>127.0358401868</wgs84Lon>
			</item>
			<item>
				<dutyName>WE(더블유이)의원</dutyName>
				<dutyTel1>02-518-0045</dutyTel1>
				<dutyTime1c>1830</dutyTime1c>
				<dutyTime1s>1000</dutyTime1s>
				<wgs84Lat>37.5232333281388</wgs84Lat>
				<wgs84Lon>127.022829600417</wgs84Lon>
			</item>
			<item>
				<dutyName>YK(와이케이)안과의원</dutyName>
				<dutyTel1>02-512-5975</dutyTel1>
				<dutyTime1c>1800</dutyTime1c>
				<dutyTime1s>930</dutyTime1s>
				<wgs84Lat>37.5174023576162</wgs84Lat>
				<wgs84Lon>127.051322934353</wgs84Lon>
			</item>
			<item>
				<dutyName>가나가와치과의원</dutyName>
				<dutyTel1>02-578-2759</dutyTel1>
				<dutyTime1c>1900</dutyTime1c>
				<dutyTime1s>1000</dutyTime1s>
				<wgs84Lat>37.4855185990475</wgs84Lat>
				<wgs84Lon>127.034021549267</wgs84Lon>
			</item>
			<item>
				<dutyName>가로수길5쾌한의원</dutyName>
				<dutyTel1>02-541-7588</dutyTel1>
				<dutyTime1c>1900</dutyTime1c>
				<dutyTime1s>900</dutyTime1s>
				<wgs84Lat>37.5227235453791</wgs84Lat>
				<wgs84Lon>127.023190401599</wgs84Lon>
			</item>
			<item>
				<dutyName>가로수성형외과의원</dutyName>
				<dutyTel1>1544-0007</dutyTel1>
				<dutyTime1c>1900</dutyTime1c>
				<dutyTime1s>930</dutyTime1s>
				<wgs84Lat>37.5161935453329</wgs84Lat>
				<wgs84Lon>127.020654626029</wgs84Lon>
			</item>
			<item>
				<dutyName>가미성형외과의원</dutyName>
				<dutyTel1>02-567-0082</dutyTel1>
				<dutyTime1c>1900</dutyTime1c>
				<dutyTime1s>930</dutyTime1s>
				<wgs84Lat>37.498636725</wgs84Lat>
				<wgs84Lon>127.0285297307</wgs84Lon>
			</item>
			<item>
				<dutyName>가슴편한내과의원</dutyName>
				<dutyTel1>02-545-8114</dutyTel1>
				<dutyTime1c>1800</dutyTime1c>
				<dutyTime1s>900</dutyTime1s>
				<wgs84Lat>37.5101869626133</wgs84Lat>
				<wgs84Lon>127.042654152296</wgs84Lon>
			</item>
			<item>
				<dutyName>가암성형외과의원</dutyName>
				<dutyTel1>02-548-7575</dutyTel1>
				<dutyTime1c>1800</dutyTime1c>
				<dutyTime1s>1000</dutyTime1s>
				<wgs84Lat>37.5244201263853</wgs84Lat>
				<wgs84Lon>127.027426381774</wgs84Lon>
			</item>
			<item>
				<dutyName>가온경희한의원</dutyName>
				<dutyTel1>02-3443-6789</dutyTel1>
				<dutyTime1c>1900</dutyTime1c>
				<dutyTime1s>1000</dutyTime1s>
				<wgs84Lat>37.5150741122</wgs84Lat>
				<wgs84Lon>127.042367366</wgs84Lon>
			</item>
			<item>
				<dutyName>가온자리한의원</dutyName>
				<dutyTel1>02-6207-0270</dutyTel1>
				<dutyTime1c>1800</dutyTime1c>
				<dutyTime1s>1000</dutyTime1s>
				<wgs84Lat>37.4822510652</wgs84Lat>
				<wgs84Lon>127.0614790605</wgs84Lon>
			</item>
			<item>
				<dutyName>가원한의원</dutyName>
				<dutyTel1>02-541-2500</dutyTel1>
				<dutyTime1c>2100</dutyTime1c>
				<dutyTime1s>930</dutyTime1s>
				<wgs84Lat>37.5167343354588</wgs84Lat>
				<wgs84Lon>127.040817395728</wgs84Lon>
			</item>
			<item>
				<dutyName>가인성형외과의원</dutyName>
				<dutyTel1>02-518-1800</dutyTel1>
				<dutyTime1c>1900</dutyTime1c>
				<dutyTime1s>930</dutyTime1s>
				<wgs84Lat>37.5226158758784</wgs84Lat>
				<wgs84Lon>127.028553440275</wgs84Lon>
			</item>
			<item>
				<dutyName>가톨릭정형외과의원</dutyName>
				<dutyTel1>02-554-7575</dutyTel1>
				<dutyTime1c>1800</dutyTime1c>
				<dutyTime1s>900</dutyTime1s>
				<wgs84Lat>37.508862343</wgs84Lat>
				<wgs84Lon>127.0377809221</wgs84Lon>
			</item>
			<item>
				<dutyName>갑산한의원</dutyName>
				<dutyTel1>02-3486-0351</dutyTel1>
				<dutyTime1c>1830</dutyTime1c>
				<dutyTime1s>930</dutyTime1s>
				<wgs84Lat>37.4858656853</wgs84Lat>
				<wgs84Lon>127.0989664195</wgs84Lon>
			</item>
			<item>
				<dutyName>강남12의원</dutyName>
				<dutyTel1>02-567-3000</dutyTel1>
				<dutyTime1c>2030</dutyTime1c>
				<dutyTime1s>1100</dutyTime1s>
				<wgs84Lat>37.4988816149532</wgs84Lat>
				<wgs84Lon>127.029280727735</wgs84Lon>
			</item>
			<item>
				<dutyName>강남365치과의원</dutyName>
				<dutyTel1>02-451-2804</dutyTel1>
				<dutyTime1c>1900</dutyTime1c>
				<dutyTime1s>1000</dutyTime1s>
				<wgs84Lat>37.4753765941</wgs84Lat>
				<wgs84Lon>127.1047137401</wgs84Lon>
			</item>
			<item>
				<dutyName>강남경희이경섭한의원</dutyName>
				<dutyTel1>02-552-5377</dutyTel1>
				<dutyTime1c>1700</dutyTime1c>
				<dutyTime1s>900</dutyTime1s>
				<wgs84Lat>37.4986565704839</wgs84Lat>
				<wgs84Lon>127.068119439757</wgs84Lon>
			</item>
			<item>
				<dutyName>강남경희한의원</dutyName>
				<dutyTel1>02-538-8080</dutyTel1>
				<dutyTime1c>1830</dutyTime1c>
				<dutyTime1s>930</dutyTime1s>
				<wgs84Lat>37.4944144162203</wgs84Lat>
				<wgs84Lon>127.046223069472</wgs84Lon>
			</item>
			<item>
				<dutyName>강남고운세상피부과의원</dutyName>
				<dutyTel1>02-3477-2020</dutyTel1>
				<dutyTime1c>2000</dutyTime1c>
				<dutyTime1s>1000</dutyTime1s>
				<wgs84Lat>37.4976275497</wgs84Lat>
				<wgs84Lon>127.0287283782</wgs84Lon>
			</item>
			<item>
				<dutyName>강남구보건소</dutyName>
				<dutyTel1>02-3423-7200</dutyTel1>
				<dutyTime1c>1800</dutyTime1c>
				<dutyTime1s>900</dutyTime1s>
				<wgs84Lat>37.5163031133976</wgs84Lat>
				<wgs84Lon>127.042277569398</wgs84Lon>
			</item>
			<item>
				<dutyName>강남권산부인과의원</dutyName>
				<dutyTel1>02-555-7866</dutyTel1>
				<dutyTime1c>1900</dutyTime1c>
				<dutyTime1s>1000</dutyTime1s>
				<wgs84Lat>37.4978402234</wgs84Lat>
				<wgs84Lon>127.0285791857</wgs84Lon>
			</item>
			<item>
				<dutyName>강남논현한의원</dutyName>
				<dutyTel1>02-549-0020</dutyTel1>
				<dutyTime1c>1800</dutyTime1c>
				<dutyTime1s>1000</dutyTime1s>
				<wgs84Lat>37.5120667023175</wgs84Lat>
				<wgs84Lon>127.022010782631</wgs84Lon>
			</item>
			<item>
				<dutyName>강남뉴욕치과의원</dutyName>
				<dutyTel1>02-566-8600</dutyTel1>
				<dutyTime1c>1900</dutyTime1c>
				<dutyTime1s>930</dutyTime1s>
				<wgs84Lat>37.4982790503</wgs84Lat>
				<wgs84Lon>127.0521919224</wgs84Lon>
			</item>
			<item>
				<dutyName>강남담온한의원</dutyName>
				<dutyTel1>02-566-1236</dutyTel1>
				<dutyTime1c>1900</dutyTime1c>
				<dutyTime1s>930</dutyTime1s>
				<wgs84Lat>37.4974177840107</wgs84Lat>
				<wgs84Lon>127.031596151788</wgs84Lon>
			</item>
			<item>
				<dutyName>강남대중한의원</dutyName>
				<dutyTel1>02-555-9377</dutyTel1>
				<dutyTime1c>1800</dutyTime1c>
				<dutyTime1s>900</dutyTime1s>
				<wgs84Lat>37.4959271417</wgs84Lat>
				<wgs84Lon>127.0389007162</wgs84Lon>
			</item>
			<item>
				<dutyName>강남더블유안과의원</dutyName>
				<dutyTel1>02-532-5001</dutyTel1>
				<dutyTime1c>1900</dutyTime1c>
				<dutyTime1s>1000</dutyTime1s>
				<wgs84Lat>37.5041552543229</wgs84Lat>
				<wgs84Lon>127.025143477777</wgs84Lon>
			</item>
			<item>
				<dutyName>강남더슬림의원</dutyName>
				<dutyTel1>02-547-9877</dutyTel1>
				<dutyTime1c>2300</dutyTime1c>
				<dutyTime1s>900</dutyTime1s>
				<wgs84Lat>37.505899785</wgs84Lat>
				<wgs84Lon>127.0242618944</wgs84Lon>
			</item>
			<item>
				<dutyName>강남덴포유치과의원</dutyName>
				<dutyTel1>02-543-2002</dutyTel1>
				<dutyTime1c>1900</dutyTime1c>
				<dutyTime1s>1000</dutyTime1s>
				<wgs84Lat>37.5113637205</wgs84Lat>
				<wgs84Lon>127.0230511584</wgs84Lon>
			</item>
			<item>
				<dutyName>강남동일한의원</dutyName>
				<dutyTel1>02-556-6028</dutyTel1>
				<dutyTime1c>1830</dutyTime1c>
				<dutyTime1s>930</dutyTime1s>
				<wgs84Lat>37.5127279870221</wgs84Lat>
				<wgs84Lon>127.051238295067</wgs84Lon>
			</item>
			<item>
				<dutyName>강남루덴플러스치과의원</dutyName>
				<dutyTel1>02-2051-2875</dutyTel1>
				<dutyTime1c>2100</dutyTime1c>
				<dutyTime1s>1000</dutyTime1s>
				<wgs84Lat>37.4990220338393</wgs84Lat>
				<wgs84Lon>127.029832652699</wgs84Lon>
			</item>
			<item>
				<dutyName>강남리더스미의원</dutyName>
				<dutyTel1>02-569-5757</dutyTel1>
				<dutyTime1c>1900</dutyTime1c>
				<dutyTime1s>1000</dutyTime1s>
				<wgs84Lat>37.503105407</wgs84Lat>
				<wgs84Lon>127.0508879118</wgs84Lon>
			</item>
			<item>
				<dutyName>강남리더스피부과의원</dutyName>
				<dutyTel1>02-575-2300</dutyTel1>
				<dutyTime1c>1930</dutyTime1c>
				<dutyTime1s>1000</dutyTime1s>
				<wgs84Lat>37.4888654078</wgs84Lat>
				<wgs84Lon>127.0520135015</wgs84Lon>
			</item>
			<item>
				<dutyName>강남리즈산부인과의원</dutyName>
				<dutyTel1>02-558-5538</dutyTel1>
				<dutyTime1c>2000</dutyTime1c>
				<dutyTime1s>1000</dutyTime1s>
				<wgs84Lat>37.5009419160235</wgs84Lat>
				<wgs84Lon>127.026627615423</wgs84Lon>
			</item>
			<item>
				<dutyName>강남메이퓨어의원</dutyName>
				<dutyTel1>02-6959-5676</dutyTel1>
				<dutyTime1c>2030</dutyTime1c>
				<dutyTime1s>1030</dutyTime1s>
				<wgs84Lat>37.4944339038492</wgs84Lat>
				<wgs84Lon>127.030631442683</wgs84Lon>
			</item>
			<item>
				<dutyName>강남명인한의원</dutyName>
				<dutyTel1>02-554-5234</dutyTel1>
				<dutyTime1c>1900</dutyTime1c>
				<dutyTime1s>930</dutyTime1s>
				<wgs84Lat>37.4969049708674</wgs84Lat>
				<wgs84Lon>127.061635820224</wgs84Lon>
			</item>
			<item>
				<dutyName>강남물방울치과의원</dutyName>
				<dutyTel1>02-3288-4422</dutyTel1>
				<dutyTime1c>1830</dutyTime1c>
				<dutyTime1s>1000</dutyTime1s>
				<wgs84Lat>37.5106179302247</wgs84Lat>
				<wgs84Lon>127.055032677483</wgs84Lon>
			</item>
			<item>
				<dutyName>강남미라인치과의원</dutyName>
				<dutyTel1>1577-2804</dutyTel1>
				<dutyTime1c>1800</dutyTime1c>
				<dutyTime1s>1000</dutyTime1s>
				<wgs84Lat>37.505916903</wgs84Lat>
				<wgs84Lon>127.0283153517</wgs84Lon>
			</item>
			<item>
				<dutyName>강남미의원</dutyName>
				<dutyTel1>02-564-7327</dutyTel1>
				<dutyTime1c>1900</dutyTime1c>
				<dutyTime1s>1000</dutyTime1s>
				<wgs84Lat>37.4991294255</wgs84Lat>
				<wgs84Lon>127.03259205</wgs84Lon>
			</item>
			<item>
				<dutyName>강남미즈힐산부인과의원</dutyName>
				<dutyTel1>02-577-5488</dutyTel1>
				<dutyTime1c>2000</dutyTime1c>
				<dutyTime1s>1000</dutyTime1s>
				<wgs84Lat>37.4854314292363</wgs84Lat>
				<wgs84Lon>127.034126645304</wgs84Lon>
			</item>
			<item>
				<dutyName>강남미켈란의원</dutyName>
				<dutyTel1>02-540-0808</dutyTel1>
				<dutyTime1c>1800</dutyTime1c>
				<dutyTime1s>930</dutyTime1s>
				<wgs84Lat>37.5248738798</wgs84Lat>
				<wgs84Lon>127.0503777843</wgs84Lon>
			</item>
			<item>
				<dutyName>강남미플러스의원</dutyName>
				<dutyTel1>02-564-7328</dutyTel1>
				<dutyTime1c>1900</dutyTime1c>
				<dutyTime1s>1000</dutyTime1s>
				<wgs84Lat>37.4991385008478</wgs84Lat>
				<wgs84Lon>127.032588979867</wgs84Lon>
			</item>
			<item>
				<dutyName>강남바른정형외과의원</dutyName>
				<dutyTel1>02-522-4222</dutyTel1>
				<dutyTime1c>1930</dutyTime1c>
				<dutyTime1s>930</dutyTime1s>
				<wgs84Lat>37.4980670794785</wgs84Lat>
				<wgs84Lon>127.029384449459</wgs84Lon>
			</item>
			<item>
				<dutyName>강남박치과의원</dutyName>
				<dutyTel1>02-561-4959</dutyTel1>
				<dutyTime1c>1800</dutyTime1c>
				<dutyTime1s>1000</dutyTime1s>
				<wgs84Lat>37.5015791243</wgs84Lat>
				<wgs84Lon>127.0361577746</wgs84Lon>
			</item>
			<item>
				<dutyName>강남발머스한의원</dutyName>
				<dutyTel1>02-3473-7010</dutyTel1>
				<dutyTime1c>2100</dutyTime1c>
				<dutyTime1s>1400</dutyTime1s>
				<wgs84Lat>37.4989960052</wgs84Lat>
				<wgs84Lon>127.0328498329</wgs84Lon>
			</item>
			<item>
				<dutyName>강남밝은안과의원</dutyName>
				<dutyTel1>02-516-6363</dutyTel1>
				<dutyTime1c>1900</dutyTime1c>
				<dutyTime1s>1000</dutyTime1s>
				<wgs84Lat>37.5276998398</wgs84Lat>
				<wgs84Lon>127.0398494124</wgs84Lon>
			</item>
			<item>
				<dutyName>강남베드로병원</dutyName>
				<dutyTel1>02-571-3472</dutyTel1>
				<dutyTime1c>1800</dutyTime1c>
				<dutyTime1s>900</dutyTime1s>
				<wgs84Lat>37.4856121799257</wgs84Lat>
				<wgs84Lon>127.039587342917</wgs84Lon>
			</item>
			<item>
				<dutyName>강남베스트내과의원</dutyName>
				<dutyTel1>02-6181-3855</dutyTel1>
				<dutyTime1c>1830</dutyTime1c>
				<dutyTime1s>900</dutyTime1s>
				<wgs84Lat>37.4881183026</wgs84Lat>
				<wgs84Lon>127.1030671082</wgs84Lon>
			</item>
			<item>
				<dutyName>강남베스트성모안과의원</dutyName>
				<dutyTel1>02-6271-1000</dutyTel1>
				<dutyTime1c>1900</dutyTime1c>
				<dutyTime1s>930</dutyTime1s>
				<wgs84Lat>37.5012835375512</wgs84Lat>
				<wgs84Lon>127.036343102189</wgs84Lon>
			</item>
			<item>
				<dutyName>강남보성한의원</dutyName>
				<dutyTel1>02-588-6600</dutyTel1>
				<dutyTime1c>2000</dutyTime1c>
				<dutyTime1s>1000</dutyTime1s>
				<wgs84Lat>37.5053213498906</wgs84Lat>
				<wgs84Lon>127.048379845929</wgs84Lon>
			</item>
			<item>
				<dutyName>강남보원한의원</dutyName>
				<dutyTel1>02-557-8500</dutyTel1>
				<dutyTime1c>1900</dutyTime1c>
				<dutyTime1s>1000</dutyTime1s>
				<wgs84Lat>37.5078547121328</wgs84Lat>
				<wgs84Lon>127.032749363207</wgs84Lon>
			</item>
			<item>
				<dutyName>강남뷰티의원</dutyName>
				<dutyTel1>02-562-8000</dutyTel1>
				<dutyTime1c>1900</dutyTime1c>
				<dutyTime1s>1000</dutyTime1s>
				<wgs84Lat>37.5051068161</wgs84Lat>
				<wgs84Lon>127.0246687881</wgs84Lon>
			</item>
			<item>
				<dutyName>강남비앤비의원</dutyName>
				<dutyTel1>02-544-6633</dutyTel1>
				<dutyTime1c>2000</dutyTime1c>
				<dutyTime1s>1100</dutyTime1s>
				<wgs84Lat>37.5171413242774</wgs84Lat>
				<wgs84Lon>127.021089250701</wgs84Lon>
			</item>
			<item>
				<dutyName>강남삼성드림이비인후과의원</dutyName>
				<dutyTel1>02-539-0365</dutyTel1>
				<dutyTime1c>1900</dutyTime1c>
				<dutyTime1s>900</dutyTime1s>
				<wgs84Lat>37.4961263990574</wgs84Lat>
				<wgs84Lon>127.029213339137</wgs84Lon>
			</item>
			<item>
				<dutyName>강남삼성라마르의원</dutyName>
				<dutyTel1>02-555-3082</dutyTel1>
				<dutyTime1c>2000</dutyTime1c>
				<dutyTime1s>1000</dutyTime1s>
				<wgs84Lat>37.5050846006392</wgs84Lat>
				<wgs84Lon>127.049509468351</wgs84Lon>
			</item>
			<item>
				<dutyName>강남삼성신경외과의원</dutyName>
				<dutyTel1>02-566-6006</dutyTel1>
				<dutyTime1c>1900</dutyTime1c>
				<dutyTime1s>1000</dutyTime1s>
				<wgs84Lat>37.4940178991572</wgs84Lat>
				<wgs84Lon>127.029891038691</wgs84Lon>
			</item>
			<item>
				<dutyName>강남삼성치과의원</dutyName>
				<dutyTel1>02-517-7528</dutyTel1>
				<dutyTime1c>1800</dutyTime1c>
				<dutyTime1s>900</dutyTime1s>
				<wgs84Lat>37.5205957256</wgs84Lat>
				<wgs84Lon>127.029682871</wgs84Lon>
			</item>
			<item>
				<dutyName>강남샘치과의원</dutyName>
				<dutyTel1>02-3473-8030</dutyTel1>
				<dutyTime1c>1900</dutyTime1c>
				<dutyTime1s>1000</dutyTime1s>
				<wgs84Lat>37.4853724258</wgs84Lat>
				<wgs84Lon>127.0340830875</wgs84Lon>
			</item>
			<item>
				<dutyName>강남서울밝은안과의원</dutyName>
				<dutyTel1>1588-3882</dutyTel1>
				<dutyTime1c>1830</dutyTime1c>
				<dutyTime1s>1000</dutyTime1s>
				<wgs84Lat>37.4976979174597</wgs84Lat>
				<wgs84Lon>127.028453986685</wgs84Lon>
			</item>
			<item>
				<dutyName>강남서울외과의원</dutyName>
				<dutyTel1>02-562-2300</dutyTel1>
				<dutyTime1c>1830</dutyTime1c>
				<dutyTime1s>900</dutyTime1s>
				<wgs84Lat>37.4958540307592</wgs84Lat>
				<wgs84Lon>127.029188230835</wgs84Lon>
			</item>
			<item>
				<dutyName>강남서울치과의원</dutyName>
				<dutyTel1>02-2190-2181</dutyTel1>
				<dutyTime1c>1800</dutyTime1c>
				<dutyTime1s>900</dutyTime1s>
				<wgs84Lat>37.4891100821036</wgs84Lat>
				<wgs84Lon>127.052913733772</wgs84Lon>
			</item>
			<item>
				<dutyName>강남성모내과의원</dutyName>
				<dutyTel1>02-459-0105</dutyTel1>
				<dutyTime1c>1900</dutyTime1c>
				<dutyTime1s>830</dutyTime1s>
				<wgs84Lat>37.4926585332</wgs84Lat>
				<wgs84Lon>127.0755862212</wgs84Lon>
			</item>
			<item>
				<dutyName>강남성모이비인후과의원</dutyName>
				<dutyTel1>02-552-5400</dutyTel1>
				<dutyTime1c>1830</dutyTime1c>
				<dutyTime1s>900</dutyTime1s>
				<wgs84Lat>37.4929666666667</wgs84Lat>
				<wgs84Lon>127.030325</wgs84Lon>
			</item>
			<item>
				<dutyName>강남성심한의원</dutyName>
				<dutyTel1>02-3445-8481</dutyTel1>
				<dutyTime1c>1900</dutyTime1c>
				<dutyTime1s>900</dutyTime1s>
				<wgs84Lat>37.5183883392</wgs84Lat>
				<wgs84Lon>127.0462740509</wgs84Lon>
			</item>
			<item>
				<dutyName>강남성원의원</dutyName>
				<dutyTel1>02-556-7567</dutyTel1>
				<dutyTime1c>1830</dutyTime1c>
				<dutyTime1s>900</dutyTime1s>
				<wgs84Lat>37.4982767208667</wgs84Lat>
				<wgs84Lon>127.054138311456</wgs84Lon>
			</item>
			<item>
				<dutyName>강남송도외과의원</dutyName>
				<dutyTel1>02-543-7175</dutyTel1>
				<dutyTime1c>1900</dutyTime1c>
				<dutyTime1s>900</dutyTime1s>
				<wgs84Lat>37.5166134186</wgs84Lat>
				<wgs84Lon>127.0412597123</wgs84Lon>
			</item>
			<item>
				<dutyName>강남신사한의원</dutyName>
				<dutyTel1>02-3445-0075</dutyTel1>
				<dutyTime1c>1730</dutyTime1c>
				<dutyTime1s>930</dutyTime1s>
				<wgs84Lat>37.5183811040771</wgs84Lat>
				<wgs84Lon>127.021094124301</wgs84Lon>
			</item>
			<item>
				<dutyName>강남심미치과의원</dutyName>
				<dutyTel1>02-546-2804</dutyTel1>
				<dutyTime1c>1830</dutyTime1c>
				<dutyTime1s>930</dutyTime1s>
				<wgs84Lat>37.5058618414743</wgs84Lat>
				<wgs84Lon>127.02428588183</wgs84Lon>
			</item>
			<item>
				<dutyName>강남아름다운유외과의원</dutyName>
				<dutyTel1>02-3453-7575</dutyTel1>
				<dutyTime1c>1900</dutyTime1c>
				<dutyTime1s>1000</dutyTime1s>
				<wgs84Lat>37.5045542914</wgs84Lat>
				<wgs84Lon>127.0507305601</wgs84Lon>
			</item>
			<item>
				<dutyName>강남아미치과의원</dutyName>
				<dutyTel1>02-562-2842</dutyTel1>
				<dutyTime1c>2100</dutyTime1c>
				<dutyTime1s>1000</dutyTime1s>
				<wgs84Lat>37.496654485806</wgs84Lat>
				<wgs84Lon>127.028633014408</wgs84Lon>
			</item>
			<item>
				<dutyName>강남아산재활의학과의원</dutyName>
				<dutyTel1>02-3411-7578</dutyTel1>
				<dutyTime1c>1900</dutyTime1c>
				<dutyTime1s>900</dutyTime1s>
				<wgs84Lat>37.4911694440606</wgs84Lat>
				<wgs84Lon>127.080389428986</wgs84Lon>
			</item>
			<item>
				<dutyName>강남아이리스성형외과의원</dutyName>
				<dutyTel1>02-514-5400</dutyTel1>
				<dutyTime1c>1800</dutyTime1c>
				<dutyTime1s>1000</dutyTime1s>
				<wgs84Lat>37.5049697881</wgs84Lat>
				<wgs84Lon>127.0250261299</wgs84Lon>
			</item>
			<item>
				<dutyName>강남아이메디안과의원</dutyName>
				<dutyTel1>02-561-8885</dutyTel1>
				<dutyTime1c>1900</dutyTime1c>
				<dutyTime1s>1000</dutyTime1s>
				<wgs84Lat>37.4987774492</wgs84Lat>
				<wgs84Lon>127.02782864</wgs84Lon>
			</item>
			<item>
				<dutyName>강남아이비성형외과의원</dutyName>
				<dutyTel1>02-540-5315</dutyTel1>
				<dutyTime1c>1900</dutyTime1c>
				<dutyTime1s>1000</dutyTime1s>
				<wgs84Lat>37.5053406918</wgs84Lat>
				<wgs84Lon>127.0264512844</wgs84Lon>
			</item>
			<item>
				<dutyName>강남약손한의원</dutyName>
				<dutyTel1>02-555-6003</dutyTel1>
				<dutyTime1c>1900</dutyTime1c>
				<dutyTime1s>930</dutyTime1s>
				<wgs84Lat>37.4991834101</wgs84Lat>
				<wgs84Lon>127.0439506707</wgs84Lon>
			</item>
			<item>
				<dutyName>강남에스엠여성의원</dutyName>
				<dutyTel1>02-512-9980</dutyTel1>
				<dutyTime1c>1900</dutyTime1c>
				<dutyTime1s>1000</dutyTime1s>
				<wgs84Lat>37.5075594855098</wgs84Lat>
				<wgs84Lon>127.023417788529</wgs84Lon>
			</item>
			<item>
				<dutyName>강남엠유산부인과의원</dutyName>
				<dutyTel1>02-563-5323</dutyTel1>
				<dutyTime1c>1900</dutyTime1c>
				<dutyTime1s>900</dutyTime1s>
				<wgs84Lat>37.503475805912</wgs84Lat>
				<wgs84Lon>127.04912963626</wgs84Lon>
			</item>
			<item>
				<dutyName>강남연세내과의원</dutyName>
				<dutyTel1>02-573-7475</dutyTel1>
				<dutyTime1c>1900</dutyTime1c>
				<dutyTime1s>900</dutyTime1s>
				<wgs84Lat>37.4930314035182</wgs84Lat>
				<wgs84Lon>127.04377066217</wgs84Lon>
			</item>
			<item>
				<dutyName>강남연세산부인과의원</dutyName>
				<dutyTel1>02-555-3453</dutyTel1>
				<dutyTime1c>1900</dutyTime1c>
				<dutyTime1s>1000</dutyTime1s>
				<wgs84Lat>37.501627859259</wgs84Lat>
				<wgs84Lon>127.036190834012</wgs84Lon>
			</item>
			<item>
				<dutyName>강남연세소아과의원</dutyName>
				<dutyTel1>02-508-2776</dutyTel1>
				<dutyTime1c>1900</dutyTime1c>
				<dutyTime1s>930</dutyTime1s>
				<wgs84Lat>37.4993026709611</wgs84Lat>
				<wgs84Lon>127.048403225647</wgs84Lon>
			</item>
			<item>
				<dutyName>강남연세신통의원</dutyName>
				<dutyTel1>02-567-8275</dutyTel1>
				<dutyTime1c>1900</dutyTime1c>
				<dutyTime1s>930</dutyTime1s>
				<wgs84Lat>37.5006960427356</wgs84Lat>
				<wgs84Lon>127.05174702994</wgs84Lon>
			</item>
			<item>
				<dutyName>강남연세안과의원</dutyName>
				<dutyTel1>02-555-1013</dutyTel1>
				<dutyTime1c>1900</dutyTime1c>
				<dutyTime1s>1000</dutyTime1s>
				<wgs84Lat>37.498606201463</wgs84Lat>
				<wgs84Lon>127.028038939786</wgs84Lon>
			</item>
			<item>
				<dutyName>강남연세우노비뇨기과의원</dutyName>
				<dutyTel1>02-538-8182</dutyTel1>
				<dutyTime1c>1900</dutyTime1c>
				<dutyTime1s>930</dutyTime1s>
				<wgs84Lat>37.5023891093</wgs84Lat>
				<wgs84Lon>127.0259481092</wgs84Lon>
			</item>
			<item>
				<dutyName>강남연세인의원</dutyName>
				<dutyTel1>02-415-8278</dutyTel1>
				<dutyTime1c>1900</dutyTime1c>
				<dutyTime1s>900</dutyTime1s>
				<wgs84Lat>37.4958178806</wgs84Lat>
				<wgs84Lon>127.0305144013</wgs84Lon>
			</item>
			<item>
				<dutyName>강남연세치과의원</dutyName>
				<dutyTel1>02-571-2828</dutyTel1>
				<dutyTime1c>1800</dutyTime1c>
				<dutyTime1s>900</dutyTime1s>
				<wgs84Lat>37.4825143169</wgs84Lat>
				<wgs84Lon>127.0611762667</wgs84Lon>
			</item>
			<item>
				<dutyName>강남연세흉부외과의원</dutyName>
				<dutyTel1>02-556-9388</dutyTel1>
				<dutyTime1c>1700</dutyTime1c>
				<dutyTime1s>930</dutyTime1s>
				<wgs84Lat>37.495861456</wgs84Lat>
				<wgs84Lon>127.0292207452</wgs84Lon>
			</item>
			<item>
				<dutyName>강남연정신건강의학과의원</dutyName>
				<dutyTel1>02-541-5572</dutyTel1>
				<dutyTime1c>1830</dutyTime1c>
				<dutyTime1s>930</dutyTime1s>
				<wgs84Lat>37.5165688365313</wgs84Lat>
				<wgs84Lon>127.039953120247</wgs84Lon>
			</item>
			<item>
				<dutyName>강남영상의학과의원</dutyName>
				<dutyTel1>02-545-0261</dutyTel1>
				<dutyTime1c>1830</dutyTime1c>
				<dutyTime1s>900</dutyTime1s>
				<wgs84Lat>37.5166368871337</wgs84Lat>
				<wgs84Lon>127.041238127988</wgs84Lon>
			</item>
			<item>
				<dutyName>강남영치과의원</dutyName>
				<dutyTel1>02-3453-3637</dutyTel1>
				<dutyTime1c>1800</dutyTime1c>
				<dutyTime1s>1000</dutyTime1s>
				<wgs84Lat>37.4993155921915</wgs84Lat>
				<wgs84Lon>127.030643945186</wgs84Lon>
			</item>
			<item>
				<dutyName>강남예손치과의원</dutyName>
				<dutyTel1>02-562-2085</dutyTel1>
				<dutyTime1c>1830</dutyTime1c>
				<dutyTime1s>1000</dutyTime1s>
				<wgs84Lat>37.4924256613402</wgs84Lat>
				<wgs84Lon>127.05797431105</wgs84Lon>
			</item>
			<item>
				<dutyName>강남예일외과의원</dutyName>
				<dutyTel1>02-549-7510</dutyTel1>
				<dutyTime1c>2100</dutyTime1c>
				<dutyTime1s>930</dutyTime1s>
				<wgs84Lat>37.5151932579912</wgs84Lat>
				<wgs84Lon>127.02037505381</wgs84Lon>
			</item>
			<item>
				<dutyName>강남오즈성형외과의원</dutyName>
				<dutyTel1>02-511-7373</dutyTel1>
				<dutyTime1c>1900</dutyTime1c>
				<dutyTime1s>1000</dutyTime1s>
				<wgs84Lat>37.5121873834921</wgs84Lat>
				<wgs84Lon>127.021288202911</wgs84Lon>
			</item>
			<item>
				<dutyName>강남외과의원</dutyName>
				<dutyTel1>02-557-6321</dutyTel1>
				<dutyTime1c>1800</dutyTime1c>
				<dutyTime1s>930</dutyTime1s>
				<wgs84Lat>37.5129444971252</wgs84Lat>
				<wgs84Lon>127.050614080636</wgs84Lon>
			</item>
			<item>
				<dutyName>강남우리들치과의원</dutyName>
				<dutyTel1>02-574-5143</dutyTel1>
				<dutyTime1c>1800</dutyTime1c>
				<dutyTime1s>930</dutyTime1s>
				<wgs84Lat>37.4783255277411</wgs84Lat>
				<wgs84Lon>127.047452261956</wgs84Lon>
			</item>
			<item>
				<dutyName>강남우리집의원</dutyName>
				<dutyTel1>02-2291-8885</dutyTel1>
				<dutyTime1c>1930</dutyTime1c>
				<dutyTime1s>900</dutyTime1s>
				<wgs84Lat>37.4790011787184</wgs84Lat>
				<wgs84Lon>127.047696914849</wgs84Lon>
			</item>
			<item>
				<dutyName>강남우태하피부과의원</dutyName>
				<dutyTel1>02-567-1675</dutyTel1>
				<dutyTime1c>1900</dutyTime1c>
				<dutyTime1s>1100</dutyTime1s>
				<wgs84Lat>37.495861456027</wgs84Lat>
				<wgs84Lon>127.029220745196</wgs84Lon>
			</item>
			<item>
				<dutyName>강남유앤아이의원</dutyName>
				<dutyTel1>02-6927-6022</dutyTel1>
				<dutyTime1c>2100</dutyTime1c>
				<dutyTime1s>1000</dutyTime1s>
				<wgs84Lat>37.5043462867</wgs84Lat>
				<wgs84Lon>127.0250530649</wgs84Lon>
			</item>
			<item>
				<dutyName>강남이안치과의원</dutyName>
				<dutyTel1>02-514-2835</dutyTel1>
				<dutyTime1c>1800</dutyTime1c>
				<dutyTime1s>1000</dutyTime1s>
				<wgs84Lat>37.5155498551</wgs84Lat>
				<wgs84Lon>127.0423314387</wgs84Lon>
			</item>
			<item>
				<dutyName>강남이조은안과의원</dutyName>
				<dutyTel1>02-553-9533</dutyTel1>
				<dutyTime1c>1900</dutyTime1c>
				<dutyTime1s>1000</dutyTime1s>
				<wgs84Lat>37.500440757414</wgs84Lat>
				<wgs84Lon>127.034469918668</wgs84Lon>
			</item>
			<item>
				<dutyName>강남이플러스치과의원</dutyName>
				<dutyTel1>02-538-2275</dutyTel1>
				<dutyTime1c>1900</dutyTime1c>
				<dutyTime1s>830</dutyTime1s>
				<wgs84Lat>37.5054824538084</wgs84Lat>
				<wgs84Lon>127.05101736803</wgs84Lon>
			</item>
			<item>
				<dutyName>강남인동한의원</dutyName>
				<dutyTel1>02-541-8075</dutyTel1>
				<dutyTime1c>1900</dutyTime1c>
				<dutyTime1s>920</dutyTime1s>
				<wgs84Lat>37.5163038292</wgs84Lat>
				<wgs84Lon>127.0402279403</wgs84Lon>
			</item>
			<item>
				<dutyName>강남인플란트치과의원</dutyName>
				<dutyTel1>02-567-7528</dutyTel1>
				<dutyTime1c>1830</dutyTime1c>
				<dutyTime1s>930</dutyTime1s>
				<wgs84Lat>37.5044223963</wgs84Lat>
				<wgs84Lon>127.0472244862</wgs84Lon>
			</item>
			<item>
				<dutyName>강남인한의원</dutyName>
				<dutyTel1>02-547-8575</dutyTel1>
				<dutyTime1c>2000</dutyTime1c>
				<dutyTime1s>1000</dutyTime1s>
				<wgs84Lat>37.5196711067407</wgs84Lat>
				<wgs84Lon>127.049150335448</wgs84Lon>
			</item>
			<item>
				<dutyName>강남재활의학과의원</dutyName>
				<dutyTel1>02-555-5433</dutyTel1>
				<dutyTime1c>1700</dutyTime1c>
				<dutyTime1s>930</dutyTime1s>
				<wgs84Lat>37.50192341724</wgs84Lat>
				<wgs84Lon>127.036086926399</wgs84Lon>
			</item>
			<item>
				<dutyName>강남정신건강의학과의원</dutyName>
				<dutyTel1>02-555-0710</dutyTel1>
				<dutyTime1c>1800</dutyTime1c>
				<dutyTime1s>1000</dutyTime1s>
				<wgs84Lat>37.4993137502</wgs84Lat>
				<wgs84Lon>127.0306515301</wgs84Lon>
			</item>
			<item>
				<dutyName>강남제이비뇨기과의원</dutyName>
				<dutyTel1>02-3018-7575</dutyTel1>
				<dutyTime1c>1700</dutyTime1c>
				<dutyTime1s>1430</dutyTime1s>
				<wgs84Lat>37.5168892146371</wgs84Lat>
				<wgs84Lon>127.041093475561</wgs84Lon>
			</item>
			<item>
				<dutyName>강남제이에스의원</dutyName>
				<dutyTel1>02-545-5488</dutyTel1>
				<dutyTime1c>1900</dutyTime1c>
				<dutyTime1s>1000</dutyTime1s>
				<wgs84Lat>37.5062501564519</wgs84Lat>
				<wgs84Lon>127.024806034741</wgs84Lon>
			</item>
			<item>
				<dutyName>강남제이피부과의원</dutyName>
				<dutyTel1>02-501-5045</dutyTel1>
				<dutyTime1c>1700</dutyTime1c>
				<dutyTime1s>900</dutyTime1s>
				<wgs84Lat>37.4990476001889</wgs84Lat>
				<wgs84Lon>127.028462034114</wgs84Lon>
			</item>
			<item>
				<dutyName>강남제일의원</dutyName>
				<dutyTel1>02-501-6886</dutyTel1>
				<dutyTime1c>1800</dutyTime1c>
				<dutyTime1s>900</dutyTime1s>
				<wgs84Lat>37.5039561431898</wgs84Lat>
				<wgs84Lon>127.035834531502</wgs84Lon>
			</item>
			<item>
				<dutyName>강남제일한의원</dutyName>
				<dutyTel1>02-567-5687</dutyTel1>
				<dutyTime1c>1900</dutyTime1c>
				<dutyTime1s>900</dutyTime1s>
				<wgs84Lat>37.4939930739</wgs84Lat>
				<wgs84Lon>127.0613348945</wgs84Lon>
			</item>
			<item>
				<dutyName>강남조앤조내과소아과의원</dutyName>
				<dutyTel1>02-552-8275</dutyTel1>
				<dutyTime1c>1830</dutyTime1c>
				<dutyTime1s>900</dutyTime1s>
				<wgs84Lat>37.500132739</wgs84Lat>
				<wgs84Lon>127.0270691794</wgs84Lon>
			</item>
			<item>
				<dutyName>강남조은눈안과의원</dutyName>
				<dutyTel1>02-535-8001</dutyTel1>
				<dutyTime1c>1900</dutyTime1c>
				<dutyTime1s>1000</dutyTime1s>
				<wgs84Lat>37.4986799185</wgs84Lat>
				<wgs84Lon>127.0287559224</wgs84Lon>
			</item>
			<item>
				<dutyName>강남척앤척의원</dutyName>
				<dutyTel1>02-416-0707</dutyTel1>
				<dutyTime1c>1900</dutyTime1c>
				<dutyTime1s>1000</dutyTime1s>
				<wgs84Lat>37.4992172081</wgs84Lat>
				<wgs84Lon>127.0275392968</wgs84Lon>
			</item>
			<item>
				<dutyName>강남청담미의원</dutyName>
				<dutyTel1>02-2051-1388</dutyTel1>
				<dutyTime1c>1900</dutyTime1c>
				<dutyTime1s>1030</dutyTime1s>
				<wgs84Lat>37.5267966858451</wgs84Lat>
				<wgs84Lon>127.040718594711</wgs84Lon>
			</item>
			<item>
				<dutyName>강남청아한의원</dutyName>
				<dutyTel1>02-552-9870</dutyTel1>
				<dutyTime1c>1830</dutyTime1c>
				<dutyTime1s>1000</dutyTime1s>
				<wgs84Lat>37.4939283536822</wgs84Lat>
				<wgs84Lon>127.061040832454</wgs84Lon>
			</item>
			<item>
				<dutyName>강남초이스정형외과병원</dutyName>
				<dutyTel1>02-539-2250</dutyTel1>
				<dutyTime1c>2000</dutyTime1c>
				<dutyTime1s>930</dutyTime1s>
				<wgs84Lat>37.5047967161015</wgs84Lat>
				<wgs84Lon>127.048455215641</wgs84Lon>
			</item>
			<item>
				<dutyName>강남케이뷰티성형외과의원</dutyName>
				<dutyTel1>02-517-5411</dutyTel1>
				<dutyTime1c>1900</dutyTime1c>
				<dutyTime1s>1000</dutyTime1s>
				<wgs84Lat>37.5254616891</wgs84Lat>
				<wgs84Lon>127.0274086626</wgs84Lon>
			</item>
			<item>
				<dutyName>강남코모키이비인후과의원</dutyName>
				<dutyTel1>02-508-0075</dutyTel1>
				<dutyTime1c>1900</dutyTime1c>
				<dutyTime1s>900</dutyTime1s>
				<wgs84Lat>37.4967319559283</wgs84Lat>
				<wgs84Lon>127.028847171306</wgs84Lon>
			</item>
			<item>
				<dutyName>강남클리어치과의원</dutyName>
				<dutyTel1>02-6952-7528</dutyTel1>
				<dutyTime1c>2100</dutyTime1c>
				<dutyTime1s>1000</dutyTime1s>
				<wgs84Lat>37.4989396781</wgs84Lat>
				<wgs84Lon>127.0276251418</wgs84Lon>
			</item>
			<item>
				<dutyName>강남통쾌의원</dutyName>
				<dutyTel1>02-554-7979</dutyTel1>
				<dutyTime1c>1900</dutyTime1c>
				<dutyTime1s>900</dutyTime1s>
				<wgs84Lat>37.4997798339328</wgs84Lat>
				<wgs84Lon>127.038934379756</wgs84Lon>
			</item>
			<item>
				<dutyName>강남파인즈치과의원</dutyName>
				<dutyTel1>02-445-2855</dutyTel1>
				<dutyTime1c>1900</dutyTime1c>
				<dutyTime1s>1000</dutyTime1s>
				<wgs84Lat>37.4668174427</wgs84Lat>
				<wgs84Lon>127.1000400491</wgs84Lon>
			</item>
			<item>
				<dutyName>강남퍼스트안과의원</dutyName>
				<dutyTel1>02-2146-7500</dutyTel1>
				<dutyTime1c>1830</dutyTime1c>
				<dutyTime1s>1000</dutyTime1s>
				<wgs84Lat>37.4990616598</wgs84Lat>
				<wgs84Lon>127.0299050449</wgs84Lon>
			</item>
			<item>
				<dutyName>강남포에버의원</dutyName>
				<dutyTel1>02-1644-8766</dutyTel1>
				<dutyTime1c>2100</dutyTime1c>
				<dutyTime1s>1100</dutyTime1s>
				<wgs84Lat>37.5023891093</wgs84Lat>
				<wgs84Lon>127.0259481092</wgs84Lon>
			</item>
			<item>
				<dutyName>강남푸른정형외과의원</dutyName>
				<dutyTel1>02-563-4450</dutyTel1>
				<dutyTime1c>1900</dutyTime1c>
				<dutyTime1s>900</dutyTime1s>
				<wgs84Lat>37.4988305869</wgs84Lat>
				<wgs84Lon>127.0595565866</wgs84Lon>
			</item>
			<item>
				<dutyName>강남푸른치과의원</dutyName>
				<dutyTel1>02-561-2804</dutyTel1>
				<dutyTime1c>1830</dutyTime1c>
				<dutyTime1s>930</dutyTime1s>
				<wgs84Lat>37.4985277269733</wgs84Lat>
				<wgs84Lon>127.038487318052</wgs84Lon>
			</item>
			<item>
				<dutyName>강남피어리의원</dutyName>
				<dutyTel1>02-515-0202</dutyTel1>
				<dutyTime1c>1900</dutyTime1c>
				<dutyTime1s>1000</dutyTime1s>
				<wgs84Lat>37.5145445368659</wgs84Lat>
				<wgs84Lon>127.020397512722</wgs84Lon>
			</item>
			<item>
				<dutyName>강남피카소의원</dutyName>
				<dutyTel1>02-555-1382</dutyTel1>
				<dutyTime1c>1900</dutyTime1c>
				<dutyTime1s>1000</dutyTime1s>
				<wgs84Lat>37.4994145554</wgs84Lat>
				<wgs84Lon>127.0310632143</wgs84Lon>
			</item>
			<item>
				<dutyName>강남하나로치과의원</dutyName>
				<dutyTel1>02-3453-2101</dutyTel1>
				<dutyTime1c>2000</dutyTime1c>
				<dutyTime1s>1300</dutyTime1s>
				<wgs84Lat>37.503546695</wgs84Lat>
				<wgs84Lon>127.0470339351</wgs84Lon>
			</item>
			<item>
				<dutyName>강남하트스캔의원</dutyName>
				<dutyTel1>02-564-3070</dutyTel1>
				<dutyTime1c>1730</dutyTime1c>
				<dutyTime1s>1000</dutyTime1s>
				<wgs84Lat>37.5081793288175</wgs84Lat>
				<wgs84Lon>127.056692296799</wgs84Lon>
			</item>
			<item>
				<dutyName>강남한의원</dutyName>
				<dutyTel1>02-539-0086</dutyTel1>
				<dutyTime1c>1900</dutyTime1c>
				<dutyTime1s>1000</dutyTime1s>
				<wgs84Lat>37.4989468906762</wgs84Lat>
				<wgs84Lon>127.062027738638</wgs84Lon>
			</item>
			<item>
				<dutyName>강남행복한의원</dutyName>
				<dutyTel1>02-512-6760</dutyTel1>
				<dutyTime1c>1830</dutyTime1c>
				<dutyTime1s>1000</dutyTime1s>
				<wgs84Lat>37.5172837223066</wgs84Lat>
				<wgs84Lon>127.035736567746</wgs84Lon>
			</item>
			<item>
				<dutyName>강남현대치과의원</dutyName>
				<dutyTel1>02-563-7702</dutyTel1>
				<dutyTime1c>1830</dutyTime1c>
				<dutyTime1s>930</dutyTime1s>
				<wgs84Lat>37.5087422521746</wgs84Lat>
				<wgs84Lon>127.058342950264</wgs84Lon>
			</item>
			<item>
				<dutyName>강남힐락의원</dutyName>
				<dutyTel1>02-512-7230</dutyTel1>
				<dutyTime1c>1900</dutyTime1c>
				<dutyTime1s>1000</dutyTime1s>
				<wgs84Lat>37.5168604336393</wgs84Lat>
				<wgs84Lon>127.019804184595</wgs84Lon>
			</item>
			<item>
				<dutyName>강동우성의원</dutyName>
				<dutyTel1>02-548-7900</dutyTel1>
				<dutyTime1c>1900</dutyTime1c>
				<dutyTime1s>1000</dutyTime1s>
				<wgs84Lat>37.5215907191781</wgs84Lat>
				<wgs84Lon>127.028520368935</wgs84Lon>
			</item>
			<item>
				<dutyName>강상욱한의원</dutyName>
				<dutyTel1>02-445-0091</dutyTel1>
				<dutyTime1c>1830</dutyTime1c>
				<dutyTime1s>930</dutyTime1s>
				<wgs84Lat>37.492658533156</wgs84Lat>
				<wgs84Lon>127.075586221184</wgs84Lon>
			</item>
			<item>
				<dutyName>강석일한의원</dutyName>
				<dutyTel1>02-3453-9070</dutyTel1>
				<dutyTime1c>1830</dutyTime1c>
				<dutyTime1s>1000</dutyTime1s>
				<wgs84Lat>37.5096499591</wgs84Lat>
				<wgs84Lon>127.0426674192</wgs84Lon>
			</item>
			<item>
				<dutyName>강성원치과의원</dutyName>
				<dutyTel1>02-545-2546</dutyTel1>
				<dutyTime1c>1800</dutyTime1c>
				<dutyTime1s>1030</dutyTime1s>
				<wgs84Lat>37.5191793663</wgs84Lat>
				<wgs84Lon>127.0507902319</wgs84Lon>
			</item>
			<item>
				<dutyName>강우진치과의원</dutyName>
				<dutyTel1>02-518-7582</dutyTel1>
				<dutyTime1c>1830</dutyTime1c>
				<dutyTime1s>1000</dutyTime1s>
				<wgs84Lat>37.5248083333333</wgs84Lat>
				<wgs84Lon>127.027869444444</wgs84Lon>
			</item>
			<item>
				<dutyName>강이비인후과의원</dutyName>
				<dutyTel1>02-2226-0356</dutyTel1>
				<dutyTime1c>1830</dutyTime1c>
				<dutyTime1s>930</dutyTime1s>
				<wgs84Lat>37.4857143021174</wgs84Lat>
				<wgs84Lon>127.083526212723</wgs84Lon>
			</item>
			<item>
				<dutyName>강창순내과의원</dutyName>
				<dutyTel1>02-569-9777</dutyTel1>
				<dutyTime1c>1800</dutyTime1c>
				<dutyTime1s>900</dutyTime1s>
				<wgs84Lat>37.4942293829182</wgs84Lat>
				<wgs84Lon>127.061784203031</wgs84Lon>
			</item>
			<item>
				<dutyName>강흥석치과의원</dutyName>
				<dutyTel1>02-562-4211</dutyTel1>
				<dutyTime1c>1800</dutyTime1c>
				<dutyTime1s>1000</dutyTime1s>
				<wgs84Lat>37.4991611111111</wgs84Lat>
				<wgs84Lon>127.062886111111</wgs84Lon>
			</item>
			<item>
				<dutyName>개포경희한의원</dutyName>
				<dutyTel1>02-451-7566</dutyTel1>
				<dutyTime1c>1900</dutyTime1c>
				<dutyTime1s>900</dutyTime1s>
				<wgs84Lat>37.4926585332</wgs84Lat>
				<wgs84Lon>127.0755862212</wgs84Lon>
			</item>
			<item>
				<dutyName>개포인치과의원</dutyName>
				<dutyTel1>02-3411-2804</dutyTel1>
				<dutyTime1c>1900</dutyTime1c>
				<dutyTime1s>1000</dutyTime1s>
				<wgs84Lat>37.4889613533735</wgs84Lat>
				<wgs84Lon>127.066655637755</wgs84Lon>
			</item>
			<item>
				<dutyName>갤러리의원</dutyName>
				<dutyTel1>02-553-7975</dutyTel1>
				<dutyTime1c>2000</dutyTime1c>
				<dutyTime1s>1000</dutyTime1s>
				<wgs84Lat>37.5030592223904</wgs84Lat>
				<wgs84Lon>127.049313608851</wgs84Lon>
			</item>
			<item>
				<dutyName>갸름한성형외과의원</dutyName>
				<dutyTel1>02-535-6688</dutyTel1>
				<dutyTime1c>1830</dutyTime1c>
				<dutyTime1s>930</dutyTime1s>
				<wgs84Lat>37.4978402234172</wgs84Lat>
				<wgs84Lon>127.028579185681</wgs84Lon>
			</item>
			<item>
				<dutyName>건강100한의원</dutyName>
				<dutyTel1>02-445-8756</dutyTel1>
				<dutyTime1c>1900</dutyTime1c>
				<dutyTime1s>1000</dutyTime1s>
				<wgs84Lat>37.489232132</wgs84Lat>
				<wgs84Lon>127.067957101</wgs84Lon>
			</item>
			<item>
				<dutyName>건강한세상앞선치과병원</dutyName>
				<dutyTel1>02-555-7528</dutyTel1>
				<dutyTime1c>1900</dutyTime1c>
				<dutyTime1s>1000</dutyTime1s>
				<wgs84Lat>37.5102341897285</wgs84Lat>
				<wgs84Lon>127.058597466778</wgs84Lon>
			</item>
			<item>
				<dutyName>건우한의원</dutyName>
				<dutyTel1>02-546-7533</dutyTel1>
				<dutyTime1c>1900</dutyTime1c>
				<dutyTime1s>930</dutyTime1s>
				<wgs84Lat>37.5128285226</wgs84Lat>
				<wgs84Lon>127.0431623837</wgs84Lon>
			</item>
			<item>
				<dutyName>견의원</dutyName>
				<dutyTel1>02-568-3119</dutyTel1>
				<dutyTime1c>1830</dutyTime1c>
				<dutyTime1s>930</dutyTime1s>
				<wgs84Lat>37.5080952686519</wgs84Lat>
				<wgs84Lon>127.062002421504</wgs84Lon>
			</item>
			<item>
				<dutyName>결뷰티의원</dutyName>
				<dutyTel1>02-1800-1116</dutyTel1>
				<dutyTime1c>1930</dutyTime1c>
				<dutyTime1s>1000</dutyTime1s>
				<wgs84Lat>37.5041552543</wgs84Lat>
				<wgs84Lon>127.0251434778</wgs84Lon>
			</item>
			<item>
				<dutyName>경원치과의원</dutyName>
				<dutyTel1>02-548-0884</dutyTel1>
				<dutyTime1c>1800</dutyTime1c>
				<dutyTime1s>1000</dutyTime1s>
				<wgs84Lat>37.5237138888889</wgs84Lat>
				<wgs84Lon>127.029325</wgs84Lon>
			</item>
			<item>
				<dutyName>경희강남한의원</dutyName>
				<dutyTel1>02-544-1075</dutyTel1>
				<dutyTime1c>1900</dutyTime1c>
				<dutyTime1s>1000</dutyTime1s>
				<wgs84Lat>37.5135222222222</wgs84Lat>
				<wgs84Lon>127.042797222222</wgs84Lon>
			</item>
			<item>
				<dutyName>경희명생당한의원</dutyName>
				<dutyTel1>02-555-0563</dutyTel1>
				<dutyTime1c>1800</dutyTime1c>
				<dutyTime1s>1000</dutyTime1s>
				<wgs84Lat>37.4953238823849</wgs84Lat>
				<wgs84Lon>127.063933633772</wgs84Lon>
			</item>
			<item>
				<dutyName>경희보궁한의원</dutyName>
				<dutyTel1>02-543-0025</dutyTel1>
				<dutyTime1c>2100</dutyTime1c>
				<dutyTime1s>1000</dutyTime1s>
				<wgs84Lat>37.5177065291005</wgs84Lat>
				<wgs84Lon>127.019484288965</wgs84Lon>
			</item>
			<item>
				<dutyName>경희부용한의원</dutyName>
				<dutyTel1>02-541-0330</dutyTel1>
				<dutyTime1c>1800</dutyTime1c>
				<dutyTime1s>1000</dutyTime1s>
				<wgs84Lat>37.5258204996504</wgs84Lat>
				<wgs84Lon>127.025373446459</wgs84Lon>
			</item>
			<item>
				<dutyName>경희비체담한의원</dutyName>
				<dutyTel1>02-577-1804</dutyTel1>
				<dutyTime1c>1800</dutyTime1c>
				<dutyTime1s>1000</dutyTime1s>
				<wgs84Lat>37.4748665417578</wgs84Lat>
				<wgs84Lon>127.050829854864</wgs84Lon>
			</item>
			<item>
				<dutyName>경희사랑채한의원</dutyName>
				<dutyTel1>02-459-8275</dutyTel1>
				<dutyTime1c>2100</dutyTime1c>
				<dutyTime1s>930</dutyTime1s>
				<wgs84Lat>37.4915329380512</wgs84Lat>
				<wgs84Lon>127.087666214837</wgs84Lon>
			</item>
			<item>
				<dutyName>경희샘한의원</dutyName>
				<dutyTel1>02-459-5757</dutyTel1>
				<dutyTime1c>1830</dutyTime1c>
				<dutyTime1s>930</dutyTime1s>
				<wgs84Lat>37.4926934144354</wgs84Lat>
				<wgs84Lon>127.075628199831</wgs84Lon>
			</item>
			<item>
				<dutyName>경희생한의원</dutyName>
				<dutyTel1>02-544-5885</dutyTel1>
				<dutyTime1c>1800</dutyTime1c>
				<dutyTime1s>1000</dutyTime1s>
				<wgs84Lat>37.5236554435427</wgs84Lat>
				<wgs84Lon>127.030027984078</wgs84Lon>
			</item>
			<item>
				<dutyName>경희솔한의원</dutyName>
				<dutyTel1>02-425-1380</dutyTel1>
				<dutyTime1c>1900</dutyTime1c>
				<dutyTime1s>930</dutyTime1s>
				<wgs84Lat>37.4857370529526</wgs84Lat>
				<wgs84Lon>127.083525672712</wgs84Lon>
			</item>
			<item>
				<dutyName>경희시은한의원</dutyName>
				<dutyTel1>02-568-9116</dutyTel1>
				<dutyTime1c>1800</dutyTime1c>
				<dutyTime1s>1000</dutyTime1s>
				<wgs84Lat>37.502584437</wgs84Lat>
				<wgs84Lon>127.0368368205</wgs84Lon>
			</item>
			<item>
				<dutyName>경희신창한의원</dutyName>
				<dutyTel1>02-3447-1077</dutyTel1>
				<dutyTime1c>1900</dutyTime1c>
				<dutyTime1s>1000</dutyTime1s>
				<wgs84Lat>37.5151569085</wgs84Lat>
				<wgs84Lon>127.0426343582</wgs84Lon>
			</item>
			<item>
				<dutyName>경희앞산한의원</dutyName>
				<dutyTel1>02-546-1275</dutyTel1>
				<dutyTime1c>1900</dutyTime1c>
				<dutyTime1s>900</dutyTime1s>
				<wgs84Lat>37.5280845123</wgs84Lat>
				<wgs84Lon>127.031025321</wgs84Lon>
			</item>
			<item>
				<dutyName>경희연한의원</dutyName>
				<dutyTel1>02-567-3576</dutyTel1>
				<dutyTime1c>1900</dutyTime1c>
				<dutyTime1s>930</dutyTime1s>
				<wgs84Lat>37.499227289755</wgs84Lat>
				<wgs84Lon>127.04763418325</wgs84Lon>
			</item>
			<item>
				<dutyName>경희예가한의원</dutyName>
				<dutyTel1>02-549-7778</dutyTel1>
				<dutyTime1c>1900</dutyTime1c>
				<dutyTime1s>900</dutyTime1s>
				<wgs84Lat>37.5287137939174</wgs84Lat>
				<wgs84Lon>127.03602605812</wgs84Lon>
			</item>
			<item>
				<dutyName>경희온정한의원</dutyName>
				<dutyTel1>02-501-8056</dutyTel1>
				<dutyTime1c>1930</dutyTime1c>
				<dutyTime1s>930</dutyTime1s>
				<wgs84Lat>37.5047178259266</wgs84Lat>
				<wgs84Lon>127.055725022146</wgs84Lon>
			</item>
			<item>
				<dutyName>경희일송한의원</dutyName>
				<dutyTel1>02-534-3357</dutyTel1>
				<dutyTime1c>1900</dutyTime1c>
				<dutyTime1s>1000</dutyTime1s>
				<wgs84Lat>37.4721471589</wgs84Lat>
				<wgs84Lon>127.0965019791</wgs84Lon>
			</item>
			<item>
				<dutyName>경희자연한의원</dutyName>
				<dutyTel1>02-511-9537</dutyTel1>
				<dutyTime1c>1900</dutyTime1c>
				<dutyTime1s>900</dutyTime1s>
				<wgs84Lat>37.5224490374691</wgs84Lat>
				<wgs84Lon>127.026081753138</wgs84Lon>
			</item>
			<item>
				<dutyName>경희자인한의원</dutyName>
				<dutyTel1>02-599-9999</dutyTel1>
				<dutyTime1c>1900</dutyTime1c>
				<dutyTime1s>1000</dutyTime1s>
				<wgs84Lat>37.4981072806532</wgs84Lat>
				<wgs84Lon>127.054255801848</wgs84Lon>
			</item>
			<item>
				<dutyName>경희장수한의원</dutyName>
				<dutyTel1>02-2226-6230</dutyTel1>
				<dutyTime1c>1830</dutyTime1c>
				<dutyTime1s>930</dutyTime1s>
				<wgs84Lat>37.4915499860838</wgs84Lat>
				<wgs84Lon>127.087671919932</wgs84Lon>
			</item>
			<item>
				<dutyName>경희장원한의원</dutyName>
				<dutyTel1>02-549-0580</dutyTel1>
				<dutyTime1c>2100</dutyTime1c>
				<dutyTime1s>1000</dutyTime1s>
				<wgs84Lat>37.5244887705</wgs84Lat>
				<wgs84Lon>127.0266933467</wgs84Lon>
			</item>
			<item>
				<dutyName>경희토정한의원</dutyName>
				<dutyTel1>02-3453-1075</dutyTel1>
				<dutyTime1c>1830</dutyTime1c>
				<dutyTime1s>930</dutyTime1s>
				<wgs84Lat>37.4953324016241</wgs84Lat>
				<wgs84Lon>127.063919926464</wgs84Lon>
			</item>
			<item>
				<dutyName>고고성형외과의원</dutyName>
				<dutyTel1>02-546-2500</dutyTel1>
				<dutyTime1c>1900</dutyTime1c>
				<dutyTime1s>1000</dutyTime1s>
				<wgs84Lat>37.5244201264</wgs84Lat>
				<wgs84Lon>127.0274263818</wgs84Lon>
			</item>
			<item>
				<dutyName>고당비한의원</dutyName>
				<dutyTel1>02-558-1275</dutyTel1>
				<dutyTime1c>2000</dutyTime1c>
				<dutyTime1s>1100</dutyTime1s>
				<wgs84Lat>37.5025831666988</wgs84Lat>
				<wgs84Lon>127.035331771964</wgs84Lon>
			</item>
			<item>
				<dutyName>고려당한의원</dutyName>
				<dutyTel1>02-512-2826</dutyTel1>
				<dutyTime1c>1730</dutyTime1c>
				<dutyTime1s>930</dutyTime1s>
				<wgs84Lat>37.5240510429592</wgs84Lat>
				<wgs84Lon>127.048939082943</wgs84Lon>
			</item>
			<item>
				<dutyName>고려치과의원</dutyName>
				<dutyTel1>02-3453-8111</dutyTel1>
				<dutyTime1c>1800</dutyTime1c>
				<dutyTime1s>1000</dutyTime1s>
				<wgs84Lat>37.4945492617328</wgs84Lat>
				<wgs84Lon>127.062531770947</wgs84Lon>
			</item>
			<item>
				<dutyName>고려한의원</dutyName>
				<dutyTel1>02-542-7479</dutyTel1>
				<dutyTime1c>1830</dutyTime1c>
				<dutyTime1s>1000</dutyTime1s>
				<wgs84Lat>37.5321450032141</wgs84Lat>
				<wgs84Lon>127.027629154091</wgs84Lon>
			</item>
			<item>
				<dutyName>고만성소아과의원</dutyName>
				<dutyTel1>02-2226-2680</dutyTel1>
				<dutyTime1c>1900</dutyTime1c>
				<dutyTime1s>800</dutyTime1s>
				<wgs84Lat>37.4926501919988</wgs84Lat>
				<wgs84Lon>127.075587449188</wgs84Lon>
			</item>
			<item>
				<dutyName>고범연치과의원</dutyName>
				<dutyTel1>02-564-2858</dutyTel1>
				<dutyTime1c>2000</dutyTime1c>
				<dutyTime1s>1400</dutyTime1s>
				<wgs84Lat>37.4945712859903</wgs84Lat>
				<wgs84Lon>127.062711737954</wgs84Lon>
			</item>
			<item>
				<dutyName>고병천성형외과의원</dutyName>
				<dutyTel1>02-512-5995</dutyTel1>
				<dutyTime1c>1900</dutyTime1c>
				<dutyTime1s>1000</dutyTime1s>
				<wgs84Lat>37.5129451363</wgs84Lat>
				<wgs84Lon>127.0571155943</wgs84Lon>
			</item>
			<item>
				<dutyName>고시환의원</dutyName>
				<dutyTel1>02-566-9110</dutyTel1>
				<dutyTime1c>1800</dutyTime1c>
				<dutyTime1s>930</dutyTime1s>
				<wgs84Lat>37.4933476488</wgs84Lat>
				<wgs84Lon>127.0619178573</wgs84Lon>
			</item>
			<item>
				<dutyName>고우넷치과의원</dutyName>
				<dutyTel1>02-3453-2233</dutyTel1>
				<dutyTime1c>1900</dutyTime1c>
				<dutyTime1s>1000</dutyTime1s>
				<wgs84Lat>37.5041552543</wgs84Lat>
				<wgs84Lon>127.0251434778</wgs84Lon>
			</item>
			<item>
				<dutyName>고우석제이엠오피부과의원</dutyName>
				<dutyTel1>02-3445-3456</dutyTel1>
				<dutyTime1c>1900</dutyTime1c>
				<dutyTime1s>930</dutyTime1s>
				<wgs84Lat>37.5160782711</wgs84Lat>
				<wgs84Lon>127.0203424</wgs84Lon>
			</item>
			<item>
				<dutyName>고운누리한의원</dutyName>
				<dutyTel1>02-547-6001</dutyTel1>
				<dutyTime1c>1900</dutyTime1c>
				<dutyTime1s>1000</dutyTime1s>
				<wgs84Lat>37.5133477822</wgs84Lat>
				<wgs84Lon>127.030743232</wgs84Lon>
			</item>
			<item>
				<dutyName>고운미소치과의원</dutyName>
				<dutyTel1>02-3462-3462</dutyTel1>
				<dutyTime1c>1830</dutyTime1c>
				<dutyTime1s>1000</dutyTime1s>
				<wgs84Lat>37.4931353619883</wgs84Lat>
				<wgs84Lon>127.040913583224</wgs84Lon>
			</item>
			<item>
				<dutyName>고운얼굴치과의원</dutyName>
				<dutyTel1>02-536-2727</dutyTel1>
				<dutyTime1c>1830</dutyTime1c>
				<dutyTime1s>930</dutyTime1s>
				<wgs84Lat>37.5037086166508</wgs84Lat>
				<wgs84Lon>127.047680941219</wgs84Lon>
			</item>
			<item>
				<dutyName>고운이치과의원</dutyName>
				<dutyTel1>02-577-2825</dutyTel1>
				<dutyTime1c>1830</dutyTime1c>
				<dutyTime1s>930</dutyTime1s>
				<wgs84Lat>37.4826753919081</wgs84Lat>
				<wgs84Lon>127.060915646445</wgs84Lon>
			</item>
			<item>
				<dutyName>고유치과의원</dutyName>
				<dutyTel1>02-3463-2275</dutyTel1>
				<dutyTime1c>1800</dutyTime1c>
				<dutyTime1s>1000</dutyTime1s>
				<wgs84Lat>37.4854050074</wgs84Lat>
				<wgs84Lon>127.0444853225</wgs84Lon>
			</item>
			<item>
				<dutyName>고정아의원</dutyName>
				<dutyTel1>02-548-2500</dutyTel1>
				<dutyTime1c>1900</dutyTime1c>
				<dutyTime1s>1000</dutyTime1s>
				<wgs84Lat>37.5173535301</wgs84Lat>
				<wgs84Lon>127.0233787743</wgs84Lon>
			</item>
			<item>
				<dutyName>고정인정신건강의학과의원</dutyName>
				<dutyTel1>02-569-8005</dutyTel1>
				<dutyTime1c>1900</dutyTime1c>
				<dutyTime1s>1000</dutyTime1s>
				<wgs84Lat>37.5038140905613</wgs84Lat>
				<wgs84Lon>127.045247196053</wgs84Lon>
			</item>
			<item>
				<dutyName>고준영이비인후과의원</dutyName>
				<dutyTel1>02-555-3234</dutyTel1>
				<dutyTime1c>1800</dutyTime1c>
				<dutyTime1s>930</dutyTime1s>
				<wgs84Lat>37.4938804973</wgs84Lat>
				<wgs84Lon>127.0629541135</wgs84Lon>
			</item>
			<item>
				<dutyName>고진수치과의원</dutyName>
				<dutyTel1>02-3462-4045</dutyTel1>
				<dutyTime1c>1800</dutyTime1c>
				<dutyTime1s>900</dutyTime1s>
				<wgs84Lat>37.4958388825</wgs84Lat>
				<wgs84Lon>127.0527375475</wgs84Lon>
			</item>
			<item>
				<dutyName>골드만비뇨기과의원</dutyName>
				<dutyTel1>02-556-7533</dutyTel1>
				<dutyTime1c>2100</dutyTime1c>
				<dutyTime1s>1000</dutyTime1s>
				<wgs84Lat>37.4917579303357</wgs84Lat>
				<wgs84Lon>127.030957623933</wgs84Lon>
			</item>
			<item>
				<dutyName>골드해피미래의원</dutyName>
				<dutyTel1>02-553-5030</dutyTel1>
				<dutyTime1c>1830</dutyTime1c>
				<dutyTime1s>930</dutyTime1s>
				<wgs84Lat>37.5100350525005</wgs84Lat>
				<wgs84Lon>127.033103500514</wgs84Lon>
			</item>
			<item>
				<dutyName>골든라인의원</dutyName>
				<dutyTel1>02-542-7009</dutyTel1>
				<dutyTime1c>1900</dutyTime1c>
				<dutyTime1s>930</dutyTime1s>
				<wgs84Lat>37.5232501578666</wgs84Lat>
				<wgs84Lon>127.028635118268</wgs84Lon>
			</item>
			<item>
				<dutyName>골든뷰성형외과의원</dutyName>
				<dutyTel1>02-555-0184</dutyTel1>
				<dutyTime1c>1900</dutyTime1c>
				<dutyTime1s>1000</dutyTime1s>
				<wgs84Lat>37.526239591531</wgs84Lat>
				<wgs84Lon>127.046555723602</wgs84Lon>
			</item>
			<item>
				<dutyName>곽대희의원</dutyName>
				<dutyTel1>02-540-6363</dutyTel1>
				<dutyTime1c>1800</dutyTime1c>
				<dutyTime1s>1000</dutyTime1s>
				<wgs84Lat>37.5143599039</wgs84Lat>
				<wgs84Lon>127.0329922994</wgs84Lon>
			</item>
			<item>
				<dutyName>광제한의원</dutyName>
				<dutyTel1>02-544-9388</dutyTel1>
				<dutyTime1c>1830</dutyTime1c>
				<dutyTime1s>930</dutyTime1s>
				<wgs84Lat>37.5188198082</wgs84Lat>
				<wgs84Lon>127.0487900618</wgs84Lon>
			</item>
			<item>
				<dutyName>광지의원</dutyName>
				<dutyTel1>02-546-6045</dutyTel1>
				<dutyTime1c>1830</dutyTime1c>
				<dutyTime1s>930</dutyTime1s>
				<wgs84Lat>37.5207270712</wgs84Lat>
				<wgs84Lon>127.0552889673</wgs84Lon>
			</item>
			<item>
				<dutyName>광지한의원</dutyName>
				<dutyTel1>02-546-6045</dutyTel1>
				<dutyTime1c>1830</dutyTime1c>
				<dutyTime1s>930</dutyTime1s>
				<wgs84Lat>37.5207270712</wgs84Lat>
				<wgs84Lon>127.0552889673</wgs84Lon>
			</item>
			<item>
				<dutyName>광혜병원</dutyName>
				<dutyTel1>02-538-7111</dutyTel1>
				<dutyTime1c>1830</dutyTime1c>
				<dutyTime1s>930</dutyTime1s>
				<wgs84Lat>37.5081370311227</wgs84Lat>
				<wgs84Lon>127.064771190009</wgs84Lon>
			</item>
			<item>
				<dutyName>광혜안과의원</dutyName>
				<dutyTel1>02-539-7658</dutyTel1>
				<dutyTime1c>1830</dutyTime1c>
				<dutyTime1s>930</dutyTime1s>
				<wgs84Lat>37.4906821994712</wgs84Lat>
				<wgs84Lon>127.056114051598</wgs84Lon>
			</item>
			<item>
				<dutyName>구름의자의원</dutyName>
				<dutyTel1>02-1544-6378</dutyTel1>
				<dutyTime1c>1900</dutyTime1c>
				<dutyTime1s>1100</dutyTime1s>
				<wgs84Lat>37.5240632171</wgs84Lat>
				<wgs84Lon>127.0279059051</wgs84Lon>
			</item>
			<item>
				<dutyName>구름의자한의원</dutyName>
				<dutyTel1>1544-6378</dutyTel1>
				<dutyTime1c>1900</dutyTime1c>
				<dutyTime1s>1100</dutyTime1s>
				<wgs84Lat>37.5240632171111</wgs84Lat>
				<wgs84Lon>127.027905905064</wgs84Lon>
			</item>
			<item>
				<dutyName>구본준성형외과의원</dutyName>
				<dutyTel1>02-3445-1155</dutyTel1>
				<dutyTime1c>1830</dutyTime1c>
				<dutyTime1s>1000</dutyTime1s>
				<wgs84Lat>37.5259082547776</wgs84Lat>
				<wgs84Lon>127.040997847157</wgs84Lon>
			</item>
			<item>
				<dutyName>구정소아청소년과의원</dutyName>
				<dutyTel1>02-544-0083</dutyTel1>
				<dutyTime1c>1800</dutyTime1c>
				<dutyTime1s>930</dutyTime1s>
				<wgs84Lat>37.5325359285</wgs84Lat>
				<wgs84Lon>127.0291852664</wgs84Lon>
			</item>
			<item>
				<dutyName>구정치과의원</dutyName>
				<dutyTel1>02-3444-2828</dutyTel1>
				<dutyTime1c>1830</dutyTime1c>
				<dutyTime1s>1000</dutyTime1s>
				<wgs84Lat>37.5240377915867</wgs84Lat>
				<wgs84Lon>127.028729452086</wgs84Lon>
			</item>
			<item>
				<dutyName>국보한의원</dutyName>
				<dutyTel1>02-553-5959</dutyTel1>
				<dutyTime1c>1700</dutyTime1c>
				<dutyTime1s>1000</dutyTime1s>
				<wgs84Lat>37.4952610947633</wgs84Lat>
				<wgs84Lon>127.030646893843</wgs84Lon>
			</item>
			<item>
				<dutyName>굿닥터이비인후과의원</dutyName>
				<dutyTel1>02-553-8840</dutyTel1>
				<dutyTime1c>1900</dutyTime1c>
				<dutyTime1s>900</dutyTime1s>
				<wgs84Lat>37.4988233742811</wgs84Lat>
				<wgs84Lon>127.059565627928</wgs84Lon>
			</item>
			<item>
				<dutyName>굿라이프치과병원</dutyName>
				<dutyTel1>02-3446-2755</dutyTel1>
				<dutyTime1c>2100</dutyTime1c>
				<dutyTime1s>1000</dutyTime1s>
				<wgs84Lat>37.5049085694</wgs84Lat>
				<wgs84Lon>127.0247908677</wgs84Lon>
			</item>
			<item>
				<dutyName>굿라인성형외과의원</dutyName>
				<dutyTel1>02-543-1830</dutyTel1>
				<dutyTime1c>1900</dutyTime1c>
				<dutyTime1s>930</dutyTime1s>
				<wgs84Lat>37.5243947699053</wgs84Lat>
				<wgs84Lon>127.027973904418</wgs84Lon>
			</item>
			<item>
				<dutyName>굿모닝가정의원</dutyName>
				<dutyTel1>02-561-7533</dutyTel1>
				<dutyTime1c>1830</dutyTime1c>
				<dutyTime1s>930</dutyTime1s>
				<wgs84Lat>37.495825208533</wgs84Lat>
				<wgs84Lon>127.063228416781</wgs84Lon>
			</item>
			<item>
				<dutyName>궁클래식의원</dutyName>
				<dutyTel1>02-547-5047</dutyTel1>
				<dutyTime1c>1800</dutyTime1c>
				<dutyTime1s>900</dutyTime1s>
				<wgs84Lat>37.5161197597</wgs84Lat>
				<wgs84Lon>127.0650767095</wgs84Lon>
			</item>
			<item>
				<dutyName>권장덕케이성형외과의원</dutyName>
				<dutyTel1>02-3444-1311</dutyTel1>
				<dutyTime1c>1800</dutyTime1c>
				<dutyTime1s>1030</dutyTime1s>
				<wgs84Lat>37.5253461982</wgs84Lat>
				<wgs84Lon>127.0281009629</wgs84Lon>
			</item>
			<item>
				<dutyName>권한의원</dutyName>
				<dutyTel1>02-713-7582</dutyTel1>
				<dutyTime1c>1900</dutyTime1c>
				<dutyTime1s>900</dutyTime1s>
				<wgs84Lat>37.5167896713931</wgs84Lat>
				<wgs84Lon>127.04223259791</wgs84Lon>
			</item>
			<item>
				<dutyName>귀뚜라미한의원</dutyName>
				<dutyTel1>02-712-1050</dutyTel1>
				<dutyTime1c>1830</dutyTime1c>
				<dutyTime1s>930</dutyTime1s>
				<wgs84Lat>37.5042392521</wgs84Lat>
				<wgs84Lon>127.0349647636</wgs84Lon>
			</item>
			<item>
				<dutyName>그녀의정원여성의원</dutyName>
				<dutyTel1>02-3453-2855</dutyTel1>
				<dutyTime1c>1900</dutyTime1c>
				<dutyTime1s>1000</dutyTime1s>
				<wgs84Lat>37.494580258</wgs84Lat>
				<wgs84Lon>127.0460784274</wgs84Lon>
			</item>
			<item>
				<dutyName>그대안에산부인과의원(삼성점)</dutyName>
				<dutyTel1>02-565-0502</dutyTel1>
				<dutyTime1c>1930</dutyTime1c>
				<dutyTime1s>1000</dutyTime1s>
				<wgs84Lat>37.5086340085</wgs84Lat>
				<wgs84Lon>127.0585916918</wgs84Lon>
			</item>
			<item>
				<dutyName>그라벤의원</dutyName>
				<dutyTel1>02-3453-8275</dutyTel1>
				<dutyTime1c>1900</dutyTime1c>
				<dutyTime1s>1000</dutyTime1s>
				<wgs84Lat>37.498636725</wgs84Lat>
				<wgs84Lon>127.0285297307</wgs84Lon>
			</item>
			<item>
				<dutyName>그랜드미탑의원</dutyName>
				<dutyTel1>02-541-7113</dutyTel1>
				<dutyTime1c>1900</dutyTime1c>
				<dutyTime1s>930</dutyTime1s>
				<wgs84Lat>37.5226629032126</wgs84Lat>
				<wgs84Lon>127.027775171649</wgs84Lon>
			</item>
			<item>
				<dutyName>그랜드성형외과병원</dutyName>
				<dutyTel1>1588-5153</dutyTel1>
				<dutyTime1c>1900</dutyTime1c>
				<dutyTime1s>1000</dutyTime1s>
				<wgs84Lat>37.517407905657</wgs84Lat>
				<wgs84Lon>127.02172729931</wgs84Lon>
			</item>
			<item>
				<dutyName>그리다성형외과의원</dutyName>
				<dutyTel1>02-558-0090</dutyTel1>
				<dutyTime1c>1900</dutyTime1c>
				<dutyTime1s>1000</dutyTime1s>
				<wgs84Lat>37.498636725</wgs84Lat>
				<wgs84Lon>127.0285297307</wgs84Lon>
			</item>
			<item>
				<dutyName>그린몰치과의원</dutyName>
				<dutyTel1>02-548-2833</dutyTel1>
				<dutyTime1c>1800</dutyTime1c>
				<dutyTime1s>930</dutyTime1s>
				<wgs84Lat>37.5174731129</wgs84Lat>
				<wgs84Lon>127.0198224451</wgs84Lon>
			</item>
			<item>
				<dutyName>그림성형외과의원</dutyName>
				<dutyTel1>02-543-5467</dutyTel1>
				<dutyTime1c>1900</dutyTime1c>
				<dutyTime1s>1000</dutyTime1s>
				<wgs84Lat>37.5173535301121</wgs84Lat>
				<wgs84Lon>127.023378774253</wgs84Lon>
			</item>
			<item>
				<dutyName>근하한의원</dutyName>
				<dutyTel1>02-563-7400</dutyTel1>
				<dutyTime1c>1900</dutyTime1c>
				<dutyTime1s>900</dutyTime1s>
				<wgs84Lat>37.4933476488</wgs84Lat>
				<wgs84Lon>127.0619178573</wgs84Lon>
			</item>
			<item>
				<dutyName>글로리성형외과의원</dutyName>
				<dutyTel1>02-513-9522</dutyTel1>
				<dutyTime1c>1900</dutyTime1c>
				<dutyTime1s>1000</dutyTime1s>
				<wgs84Lat>37.5168568304</wgs84Lat>
				<wgs84Lon>127.019799659</wgs84Lon>
			</item>
			<item>
				<dutyName>글로벌서울성형외과의원</dutyName>
				<dutyTel1>02-3444-4990</dutyTel1>
				<dutyTime1c>1900</dutyTime1c>
				<dutyTime1s>1000</dutyTime1s>
				<wgs84Lat>37.5259790297569</wgs84Lat>
				<wgs84Lon>127.033711279142</wgs84Lon>
			</item>
			<item>
				<dutyName>글로벌성형외과의원</dutyName>
				<dutyTel1>02-514-1133</dutyTel1>
				<dutyTime1c>1900</dutyTime1c>
				<dutyTime1s>1000</dutyTime1s>
				<wgs84Lat>37.5259339925628</wgs84Lat>
				<wgs84Lon>127.033666007374</wgs84Lon>
			</item>
			<item>
				<dutyName>글로벌케어내과의원</dutyName>
				<dutyTel1>02-2058-1199</dutyTel1>
				<dutyTime1c>1800</dutyTime1c>
				<dutyTime1s>930</dutyTime1s>
				<wgs84Lat>37.4887459410293</wgs84Lat>
				<wgs84Lon>127.053211988692</wgs84Lon>
			</item>
			<item>
				<dutyName>글로비성형외과의원</dutyName>
				<dutyTel1>02-515-3399</dutyTel1>
				<dutyTime1c>1900</dutyTime1c>
				<dutyTime1s>1000</dutyTime1s>
				<wgs84Lat>37.5247676127514</wgs84Lat>
				<wgs84Lon>127.027843784891</wgs84Lon>
			</item>
			<item>
				<dutyName>글로비의원</dutyName>
				<dutyTel1>02-515-3399</dutyTel1>
				<dutyTime1c>1900</dutyTime1c>
				<dutyTime1s>1000</dutyTime1s>
				<wgs84Lat>37.5248236791</wgs84Lat>
				<wgs84Lon>127.0278383121</wgs84Lon>
			</item>
			<item>
				<dutyName>금강치과의원</dutyName>
				<dutyTel1>02-545-9900</dutyTel1>
				<dutyTime1c>1700</dutyTime1c>
				<dutyTime1s>1000</dutyTime1s>
				<wgs84Lat>37.523235703565</wgs84Lat>
				<wgs84Lon>127.021118115947</wgs84Lon>
			</item>
			<item>
				<dutyName>금단비가한의원</dutyName>
				<dutyTel1>02-516-1775</dutyTel1>
				<dutyTime1c>1900</dutyTime1c>
				<dutyTime1s>1000</dutyTime1s>
				<wgs84Lat>37.525559254723</wgs84Lat>
				<wgs84Lon>127.032894064774</wgs84Lon>
			</item>
			<item>
				<dutyName>금산미학한의원</dutyName>
				<dutyTel1>02-556-0000</dutyTel1>
				<dutyTime1c>1900</dutyTime1c>
				<dutyTime1s>930</dutyTime1s>
				<wgs84Lat>37.5232170898</wgs84Lat>
				<wgs84Lon>127.0379148591</wgs84Lon>
			</item>
			<item>
				<dutyName>금섬한의원</dutyName>
				<dutyTel1>02-3444-7533</dutyTel1>
				<dutyTime1c>1830</dutyTime1c>
				<dutyTime1s>900</dutyTime1s>
				<wgs84Lat>37.5156648159</wgs84Lat>
				<wgs84Lon>127.0433449984</wgs84Lon>
			</item>
			<item>
				<dutyName>금초한의원</dutyName>
				<dutyTel1>02-566-7533</dutyTel1>
				<dutyTime1c>1800</dutyTime1c>
				<dutyTime1s>920</dutyTime1s>
				<wgs84Lat>37.4984742816021</wgs84Lat>
				<wgs84Lon>127.058570182357</wgs84Lon>
			</item>
			<item>
				<dutyName>기분좋은피부과의원</dutyName>
				<dutyTel1>02-512-1675</dutyTel1>
				<dutyTime1c>1900</dutyTime1c>
				<dutyTime1s>1000</dutyTime1s>
				<wgs84Lat>37.5239436495</wgs84Lat>
				<wgs84Lon>127.0421913799</wgs84Lon>
			</item>
			<item>
				<dutyName>기쁨병원</dutyName>
				<dutyTel1>02-570-1234</dutyTel1>
				<dutyTime1c>1800</dutyTime1c>
				<dutyTime1s>830</dutyTime1s>
				<wgs84Lat>37.4899244212844</wgs84Lat>
				<wgs84Lon>127.03372331743</wgs84Lon>
			</item>
			<item>
				<dutyName>기쁨성형외과의원</dutyName>
				<dutyTel1>02-578-9540</dutyTel1>
				<dutyTime1c>1900</dutyTime1c>
				<dutyTime1s>1000</dutyTime1s>
				<wgs84Lat>37.485172499471</wgs84Lat>
				<wgs84Lon>127.034437483523</wgs84Lon>
			</item>
			<item>
				<dutyName>기쁨정원치과병원</dutyName>
				<dutyTel1>02-568-2879</dutyTel1>
				<dutyTime1c>1800</dutyTime1c>
				<dutyTime1s>900</dutyTime1s>
				<wgs84Lat>37.4880256568877</wgs84Lat>
				<wgs84Lon>127.101845808454</wgs84Lon>
			</item>
			<item>
				<dutyName>기억치과의원</dutyName>
				<dutyTel1>02-557-7520</dutyTel1>
				<dutyTime1c>1900</dutyTime1c>
				<dutyTime1s>1000</dutyTime1s>
				<wgs84Lat>37.5003958524</wgs84Lat>
				<wgs84Lon>127.0269833259</wgs84Lon>
			</item>
			<item>
				<dutyName>기운드림한의원</dutyName>
				<dutyTel1>02-3411-0555</dutyTel1>
				<dutyTime1c>1830</dutyTime1c>
				<dutyTime1s>930</dutyTime1s>
				<wgs84Lat>37.4966234189</wgs84Lat>
				<wgs84Lon>127.0552350053</wgs84Lon>
			</item>
			<item>
				<dutyName>김경년내과의원</dutyName>
				<dutyTel1>02-516-3533</dutyTel1>
				<dutyTime1c>1800</dutyTime1c>
				<dutyTime1s>900</dutyTime1s>
				<wgs84Lat>37.5273857505</wgs84Lat>
				<wgs84Lon>127.0294004712</wgs84Lon>
			</item>
			<item>
				<dutyName>김계용치과의원</dutyName>
				<dutyTel1>02-544-7682</dutyTel1>
				<dutyTime1c>1830</dutyTime1c>
				<dutyTime1s>1000</dutyTime1s>
				<wgs84Lat>37.525806146383</wgs84Lat>
				<wgs84Lon>127.025061209568</wgs84Lon>
			</item>
			<item>
				<dutyName>김광현치과의원</dutyName>
				<dutyTel1>02-501-0011</dutyTel1>
				<dutyTime1c>1700</dutyTime1c>
				<dutyTime1s>930</dutyTime1s>
				<wgs84Lat>37.50207864122</wgs84Lat>
				<wgs84Lon>127.035213928928</wgs84Lon>
			</item>
			<item>
				<dutyName>김능세치과의원</dutyName>
				<dutyTel1>02-545-9581</dutyTel1>
				<dutyTime1c>1830</dutyTime1c>
				<dutyTime1s>1000</dutyTime1s>
				<wgs84Lat>37.5150741122</wgs84Lat>
				<wgs84Lon>127.042367366</wgs84Lon>
			</item>
			<item>
				<dutyName>김담희한의원</dutyName>
				<dutyTel1>02-540-3323</dutyTel1>
				<dutyTime1c>1800</dutyTime1c>
				<dutyTime1s>1000</dutyTime1s>
				<wgs84Lat>37.5071928868</wgs84Lat>
				<wgs84Lon>127.0276372309</wgs84Lon>
			</item>
			<item>
				<dutyName>김덕현피부과의원</dutyName>
				<dutyTel1>02-549-8599</dutyTel1>
				<dutyTime1c>1800</dutyTime1c>
				<dutyTime1s>1000</dutyTime1s>
				<wgs84Lat>37.5095670794501</wgs84Lat>
				<wgs84Lon>127.022472832754</wgs84Lon>
			</item>
			<item>
				<dutyName>김도균외과의원</dutyName>
				<dutyTel1>02-485-3114</dutyTel1>
				<dutyTime1c>1800</dutyTime1c>
				<dutyTime1s>900</dutyTime1s>
				<wgs84Lat>37.5195039174132</wgs84Lat>
				<wgs84Lon>127.028845357509</wgs84Lon>
			</item>
			<item>
				<dutyName>김동백치과의원</dutyName>
				<dutyTel1>02-508-2212</dutyTel1>
				<dutyTime1c>1800</dutyTime1c>
				<dutyTime1s>930</dutyTime1s>
				<wgs84Lat>37.5051713309</wgs84Lat>
				<wgs84Lon>127.0489485625</wgs84Lon>
			</item>
			<item>
				<dutyName>김동수내과의원</dutyName>
				<dutyTel1>02-3445-5959</dutyTel1>
				<dutyTime1c>1730</dutyTime1c>
				<dutyTime1s>800</dutyTime1s>
				<wgs84Lat>37.5240467620103</wgs84Lat>
				<wgs84Lon>127.028087881599</wgs84Lon>
			</item>
			<item>
				<dutyName>김동현정신건강의학과의원</dutyName>
				<dutyTel1>02-545-3203</dutyTel1>
				<dutyTime1c>1900</dutyTime1c>
				<dutyTime1s>1000</dutyTime1s>
				<wgs84Lat>37.528175632973</wgs84Lat>
				<wgs84Lon>127.033306958228</wgs84Lon>
			</item>
			<item>
				<dutyName>김미진내과의원</dutyName>
				<dutyTel1>02-568-1312</dutyTel1>
				<dutyTime1c>1830</dutyTime1c>
				<dutyTime1s>900</dutyTime1s>
				<wgs84Lat>37.4989768233</wgs84Lat>
				<wgs84Lon>127.0469586923</wgs84Lon>
			</item>
			<item>
				<dutyName>김민경병리과의원</dutyName>
				<dutyTel1>02-538-0747</dutyTel1>
				<dutyTime1c>1700</dutyTime1c>
				<dutyTime1s>930</dutyTime1s>
				<wgs84Lat>37.4976536595</wgs84Lat>
				<wgs84Lon>127.056316867</wgs84Lon>
			</item>
			<item>
				<dutyName>김민정한의원</dutyName>
				<dutyTel1>02-566-9144</dutyTel1>
				<dutyTime1c>2100</dutyTime1c>
				<dutyTime1s>900</dutyTime1s>
				<wgs84Lat>37.4988336360319</wgs84Lat>
				<wgs84Lon>127.033519241917</wgs84Lon>
			</item>
			<item>
				<dutyName>김병찬치과의원</dutyName>
				<dutyTel1>02-544-1220</dutyTel1>
				<dutyTime1c>1800</dutyTime1c>
				<dutyTime1s>900</dutyTime1s>
				<wgs84Lat>37.5285635449896</wgs84Lat>
				<wgs84Lon>127.032147796061</wgs84Lon>
			</item>
			<item>
				<dutyName>김봉수의원</dutyName>
				<dutyTel1>02-555-1520</dutyTel1>
				<dutyTime1c>2000</dutyTime1c>
				<dutyTime1s>1000</dutyTime1s>
				<wgs84Lat>37.4938684690596</wgs84Lat>
				<wgs84Lon>127.062783535405</wgs84Lon>
			</item>
			<item>
				<dutyName>김상범성형외과의원</dutyName>
				<dutyTel1>02-517-0012</dutyTel1>
				<dutyTime1c>1900</dutyTime1c>
				<dutyTime1s>930</dutyTime1s>
				<wgs84Lat>37.5271495864597</wgs84Lat>
				<wgs84Lon>127.028971393516</wgs84Lon>
			</item>
			<item>
				<dutyName>김상수마이크로의원</dutyName>
				<dutyTel1>02-2138-8838</dutyTel1>
				<dutyTime1c>1800</dutyTime1c>
				<dutyTime1s>900</dutyTime1s>
				<wgs84Lat>37.5179760759</wgs84Lat>
				<wgs84Lon>127.0402740847</wgs84Lon>
			</item>
			<item>
				<dutyName>김석근한의원</dutyName>
				<dutyTel1>02-514-6633</dutyTel1>
				<dutyTime1c>1830</dutyTime1c>
				<dutyTime1s>1000</dutyTime1s>
				<wgs84Lat>37.5178026985386</wgs84Lat>
				<wgs84Lon>127.041387057586</wgs84Lon>
			</item>
			<item>
				<dutyName>김성기성형외과의원</dutyName>
				<dutyTel1>02-541-8877</dutyTel1>
				<dutyTime1c>1830</dutyTime1c>
				<dutyTime1s>930</dutyTime1s>
				<wgs84Lat>37.522619484001</wgs84Lat>
				<wgs84Lon>127.028535341922</wgs84Lon>
			</item>
			<item>
				<dutyName>김성민이비인후과의원</dutyName>
				<dutyTel1>02-541-5252</dutyTel1>
				<dutyTime1c>1800</dutyTime1c>
				<dutyTime1s>930</dutyTime1s>
				<wgs84Lat>37.507737117801</wgs84Lat>
				<wgs84Lon>127.034474533604</wgs84Lon>
			</item>
			<item>
				<dutyName>김성욱성형외과의원</dutyName>
				<dutyTel1>02-515-0700</dutyTel1>
				<dutyTime1c>1900</dutyTime1c>
				<dutyTime1s>1000</dutyTime1s>
				<wgs84Lat>37.5249435898567</wgs84Lat>
				<wgs84Lon>127.047382242065</wgs84Lon>
			</item>
			<item>
				<dutyName>김성윤내과의원</dutyName>
				<dutyTel1>02-517-9293</dutyTel1>
				<dutyTime1c>1730</dutyTime1c>
				<dutyTime1s>830</dutyTime1s>
				<wgs84Lat>37.5237917555952</wgs84Lat>
				<wgs84Lon>127.032448924828</wgs84Lon>
			</item>
			<item>
				<dutyName>김소형한의원</dutyName>
				<dutyTel1>02-544-6500</dutyTel1>
				<dutyTime1c>2100</dutyTime1c>
				<dutyTime1s>1000</dutyTime1s>
				<wgs84Lat>37.5188564008988</wgs84Lat>
				<wgs84Lon>127.023392817291</wgs84Lon>
			</item>
			<item>
				<dutyName>김수균외과의원</dutyName>
				<dutyTel1>02-555-5875</dutyTel1>
				<dutyTime1c>1900</dutyTime1c>
				<dutyTime1s>1000</dutyTime1s>
				<wgs84Lat>37.5052100387</wgs84Lat>
				<wgs84Lon>127.0657277276</wgs84Lon>
			</item>
			<item>
				<dutyName>김숙경산부인과의원</dutyName>
				<dutyTel1>02-567-7594</dutyTel1>
				<dutyTime1c>1900</dutyTime1c>
				<dutyTime1s>1000</dutyTime1s>
				<wgs84Lat>37.4974953171356</wgs84Lat>
				<wgs84Lon>127.052626948581</wgs84Lon>
			</item>
			<item>
				<dutyName>김순주치과의원</dutyName>
				<dutyTel1>02-563-9860</dutyTel1>
				<dutyTime1c>1800</dutyTime1c>
				<dutyTime1s>930</dutyTime1s>
				<wgs84Lat>37.5043833333333</wgs84Lat>
				<wgs84Lon>127.049602777778</wgs84Lon>
			</item>
			<item>
				<dutyName>김스의원</dutyName>
				<dutyTel1>02-541-7065</dutyTel1>
				<dutyTime1c>1800</dutyTime1c>
				<dutyTime1s>1030</dutyTime1s>
				<wgs84Lat>37.5244083333333</wgs84Lat>
				<wgs84Lon>127.043469444444</wgs84Lon>
			</item>
			<item>
				<dutyName>김승기치과의원</dutyName>
				<dutyTel1>02-549-2444</dutyTel1>
				<dutyTime1c>1830</dutyTime1c>
				<dutyTime1s>930</dutyTime1s>
				<wgs84Lat>37.5248087652311</wgs84Lat>
				<wgs84Lon>127.019866143486</wgs84Lon>
			</item>
			<item>
				<dutyName>김앤김치과의원</dutyName>
				<dutyTel1>02-594-2850</dutyTel1>
				<dutyTime1c>1800</dutyTime1c>
				<dutyTime1s>1000</dutyTime1s>
				<wgs84Lat>37.5240632171111</wgs84Lat>
				<wgs84Lon>127.027905905064</wgs84Lon>
			</item>
			<item>
				<dutyName>김영기이비인후과의원</dutyName>
				<dutyTel1>02-554-5075</dutyTel1>
				<dutyTime1c>1900</dutyTime1c>
				<dutyTime1s>1000</dutyTime1s>
				<wgs84Lat>37.4942437134177</wgs84Lat>
				<wgs84Lon>127.061951572973</wgs84Lon>
			</item>
			<item>
				<dutyName>김영민내과의원</dutyName>
				<dutyTel1>02-567-5770</dutyTel1>
				<dutyTime1c>1830</dutyTime1c>
				<dutyTime1s>930</dutyTime1s>
				<wgs84Lat>37.5128167103833</wgs84Lat>
				<wgs84Lon>127.050687411291</wgs84Lon>
			</item>
			<item>
				<dutyName>김영민치과의원</dutyName>
				<dutyTel1>02-542-1884</dutyTel1>
				<dutyTime1c>1800</dutyTime1c>
				<dutyTime1s>930</dutyTime1s>
				<wgs84Lat>37.5249388932181</wgs84Lat>
				<wgs84Lon>127.050031679182</wgs84Lon>
			</item>
			<item>
				<dutyName>김영석한방내과한의원</dutyName>
				<dutyTel1>02-566-7598</dutyTel1>
				<dutyTime1c>1800</dutyTime1c>
				<dutyTime1s>930</dutyTime1s>
				<wgs84Lat>37.495899845355</wgs84Lat>
				<wgs84Lon>127.064270968693</wgs84Lon>
			</item>
			<item>
				<dutyName>김영신한의원</dutyName>
				<dutyTel1>02-3411-1075</dutyTel1>
				<dutyTime1c>2100</dutyTime1c>
				<dutyTime1s>1000</dutyTime1s>
				<wgs84Lat>37.4892239052552</wgs84Lat>
				<wgs84Lon>127.067628288788</wgs84Lon>
			</item>
			<item>
				<dutyName>김영진성형외과의원</dutyName>
				<dutyTel1>02-548-2662</dutyTel1>
				<dutyTime1c>1900</dutyTime1c>
				<dutyTime1s>1200</dutyTime1s>
				<wgs84Lat>37.5228</wgs84Lat>
				<wgs84Lon>127.027883333333</wgs84Lon>
			</item>
			<item>
				<dutyName>김영진한의원</dutyName>
				<dutyTel1>02-537-7709</dutyTel1>
				<dutyTime1c>1900</dutyTime1c>
				<dutyTime1s>1000</dutyTime1s>
				<wgs84Lat>37.5208261584</wgs84Lat>
				<wgs84Lon>127.0305607815</wgs84Lon>
			</item>
			<item>
				<dutyName>김영찬내과의원</dutyName>
				<dutyTel1>02-3444-8875</dutyTel1>
				<dutyTime1c>1900</dutyTime1c>
				<dutyTime1s>900</dutyTime1s>
				<wgs84Lat>37.5233574956452</wgs84Lat>
				<wgs84Lon>127.038381004543</wgs84Lon>
			</item>
			<item>
				<dutyName>김영철내과의원</dutyName>
				<dutyTel1>02-566-6004</dutyTel1>
				<dutyTime1c>1830</dutyTime1c>
				<dutyTime1s>900</dutyTime1s>
				<wgs84Lat>37.5006059794033</wgs84Lat>
				<wgs84Lon>127.051661021504</wgs84Lon>
			</item>
			<item>
				<dutyName>김용재이비인후과의원</dutyName>
				<dutyTel1>02-529-2356</dutyTel1>
				<dutyTime1c>1800</dutyTime1c>
				<dutyTime1s>930</dutyTime1s>
				<wgs84Lat>37.488745941</wgs84Lat>
				<wgs84Lon>127.0532119887</wgs84Lon>
			</item>
			<item>
				<dutyName>김용현성형외과의원</dutyName>
				<dutyTel1>02-511-5858</dutyTel1>
				<dutyTime1c>1900</dutyTime1c>
				<dutyTime1s>1000</dutyTime1s>
				<wgs84Lat>37.5158</wgs84Lat>
				<wgs84Lon>127.020133333333</wgs84Lon>
			</item>
			<item>
				<dutyName>김용훈정형외과의원</dutyName>
				<dutyTel1>02-2135-7721</dutyTel1>
				<dutyTime1c>1900</dutyTime1c>
				<dutyTime1s>900</dutyTime1s>
				<wgs84Lat>37.4873374952</wgs84Lat>
				<wgs84Lon>127.0515646829</wgs84Lon>
			</item>
			<item>
				<dutyName>김우영치과의원</dutyName>
				<dutyTel1>02-543-2752</dutyTel1>
				<dutyTime1c>1830</dutyTime1c>
				<dutyTime1s>930</dutyTime1s>
				<wgs84Lat>37.5210577614408</wgs84Lat>
				<wgs84Lon>127.057135352262</wgs84Lon>
			</item>
			<item>
				<dutyName>김유진치과의원</dutyName>
				<dutyTel1>02-568-5156</dutyTel1>
				<dutyTime1c>1700</dutyTime1c>
				<dutyTime1s>900</dutyTime1s>
				<wgs84Lat>37.5002219464</wgs84Lat>
				<wgs84Lon>127.051446881</wgs84Lon>
			</item>
			<item>
				<dutyName>김은영유외과의원</dutyName>
				<dutyTel1>02-558-7575</dutyTel1>
				<dutyTime1c>1810</dutyTime1c>
				<dutyTime1s>930</dutyTime1s>
				<wgs84Lat>37.5150741122</wgs84Lat>
				<wgs84Lon>127.042367366</wgs84Lon>
			</item>
			<item>
				<dutyName>김이비인후과의원</dutyName>
				<dutyTel1>02-544-2844</dutyTel1>
				<dutyTime1c>1900</dutyTime1c>
				<dutyTime1s>900</dutyTime1s>
				<wgs84Lat>37.5082416666667</wgs84Lat>
				<wgs84Lon>127.033775</wgs84Lon>
			</item>
			<item>
				<dutyName>김이안치과의원</dutyName>
				<dutyTel1>02-541-2882</dutyTel1>
				<dutyTime1c>1830</dutyTime1c>
				<dutyTime1s>1000</dutyTime1s>
				<wgs84Lat>37.5086340085</wgs84Lat>
				<wgs84Lon>127.0585916918</wgs84Lon>
			</item>
			<item>
				<dutyName>김인중성형외과의원</dutyName>
				<dutyTel1>02-3445-5599</dutyTel1>
				<dutyTime1c>1900</dutyTime1c>
				<dutyTime1s>1000</dutyTime1s>
				<wgs84Lat>37.5267026667697</wgs84Lat>
				<wgs84Lon>127.029084358748</wgs84Lon>
			</item>
			<item>
				<dutyName>김인환내과의원</dutyName>
				<dutyTel1>02-2040-6767</dutyTel1>
				<dutyTime1c>1800</dutyTime1c>
				<dutyTime1s>900</dutyTime1s>
				<wgs84Lat>37.4880256569</wgs84Lat>
				<wgs84Lon>127.1018458085</wgs84Lon>
			</item>
			<item>
				<dutyName>김재유내과의원</dutyName>
				<dutyTel1>02-459-4597</dutyTel1>
				<dutyTime1c>1930</dutyTime1c>
				<dutyTime1s>800</dutyTime1s>
				<wgs84Lat>37.4927450452022</wgs84Lat>
				<wgs84Lon>127.075551274485</wgs84Lon>
			</item>
			<item>
				<dutyName>김재찬치과의원</dutyName>
				<dutyTel1>02-557-2641</dutyTel1>
				<dutyTime1c>1800</dutyTime1c>
				<dutyTime1s>1000</dutyTime1s>
				<wgs84Lat>37.4944934083808</wgs84Lat>
				<wgs84Lon>127.06680970789</wgs84Lon>
			</item>
			<item>
				<dutyName>김정곤한의원</dutyName>
				<dutyTel1>02-514-0006</dutyTel1>
				<dutyTime1c>1830</dutyTime1c>
				<dutyTime1s>930</dutyTime1s>
				<wgs84Lat>37.5275203951769</wgs84Lat>
				<wgs84Lon>127.030645856954</wgs84Lon>
			</item>
			<item>
				<dutyName>김정국한의원</dutyName>
				<dutyTel1>02-552-8878</dutyTel1>
				<dutyTime1c>1900</dutyTime1c>
				<dutyTime1s>900</dutyTime1s>
				<wgs84Lat>37.5045335804</wgs84Lat>
				<wgs84Lon>127.0255914666</wgs84Lon>
			</item>
			<item>
				<dutyName>김정수여러분병원</dutyName>
				<dutyTel1>02-517-0770</dutyTel1>
				<dutyTime1c>1800</dutyTime1c>
				<dutyTime1s>900</dutyTime1s>
				<wgs84Lat>37.5072204598515</wgs84Lat>
				<wgs84Lon>127.032577471256</wgs84Lon>
			</item>
			<item>
				<dutyName>김정애산부인과의원</dutyName>
				<dutyTel1>02-2040-7773</dutyTel1>
				<dutyTime1c>1800</dutyTime1c>
				<dutyTime1s>930</dutyTime1s>
				<wgs84Lat>37.4880931825912</wgs84Lat>
				<wgs84Lon>127.102073160528</wgs84Lon>
			</item>
			<item>
				<dutyName>김정일정신건강의학과의원</dutyName>
				<dutyTel1>02-540-7576</dutyTel1>
				<dutyTime1c>1830</dutyTime1c>
				<dutyTime1s>930</dutyTime1s>
				<wgs84Lat>37.5107616153646</wgs84Lat>
				<wgs84Lon>127.043474492393</wgs84Lon>
			</item>
			<item>
				<dutyName>김종삼치과의원</dutyName>
				<dutyTel1>02-556-3204</dutyTel1>
				<dutyTime1c>1830</dutyTime1c>
				<dutyTime1s>930</dutyTime1s>
				<wgs84Lat>37.4920924118183</wgs84Lat>
				<wgs84Lon>127.039034420548</wgs84Lon>
			</item>
			<item>
				<dutyName>김종서성형외과의원</dutyName>
				<dutyTel1>02-3416-0070</dutyTel1>
				<dutyTime1c>1900</dutyTime1c>
				<dutyTime1s>1000</dutyTime1s>
				<wgs84Lat>37.5240377916</wgs84Lat>
				<wgs84Lon>127.0287294521</wgs84Lon>
			</item>
			<item>
				<dutyName>김주룡이비인후과의원</dutyName>
				<dutyTel1>02-548-1805</dutyTel1>
				<dutyTime1c>1830</dutyTime1c>
				<dutyTime1s>930</dutyTime1s>
				<wgs84Lat>37.5166134186</wgs84Lat>
				<wgs84Lon>127.0412597123</wgs84Lon>
			</item>
			<item>
				<dutyName>김중호한의원</dutyName>
				<dutyTel1>02-555-8887</dutyTel1>
				<dutyTime1c>1830</dutyTime1c>
				<dutyTime1s>930</dutyTime1s>
				<wgs84Lat>37.4947939743</wgs84Lat>
				<wgs84Lon>127.0665056472</wgs84Lon>
			</item>
			<item>
				<dutyName>김지연위쉬성형외과의원</dutyName>
				<dutyTel1>02-549-8841</dutyTel1>
				<dutyTime1c>1900</dutyTime1c>
				<dutyTime1s>1000</dutyTime1s>
				<wgs84Lat>37.5266063222742</wgs84Lat>
				<wgs84Lon>127.044079884005</wgs84Lon>
			</item>
			<item>
				<dutyName>김지훈성형외과의원</dutyName>
				<dutyTel1>02-546-5252</dutyTel1>
				<dutyTime1c>1900</dutyTime1c>
				<dutyTime1s>930</dutyTime1s>
				<wgs84Lat>37.5234539101</wgs84Lat>
				<wgs84Lon>127.0288604532</wgs84Lon>
			</item>
			<item>
				<dutyName>김진권피부과의원</dutyName>
				<dutyTel1>02-445-5373</dutyTel1>
				<dutyTime1c>1830</dutyTime1c>
				<dutyTime1s>930</dutyTime1s>
				<wgs84Lat>37.4908583333333</wgs84Lat>
				<wgs84Lon>127.080988888889</wgs84Lon>
			</item>
			<item>
				<dutyName>김진섭치과의원</dutyName>
				<dutyTel1>02-543-9509</dutyTel1>
				<dutyTime1c>1800</dutyTime1c>
				<dutyTime1s>1030</dutyTime1s>
				<wgs84Lat>37.5169898829734</wgs84Lat>
				<wgs84Lon>127.041812935917</wgs84Lon>
			</item>
			<item>
				<dutyName>김진성형외과의원</dutyName>
				<dutyTel1>02-3445-4514</dutyTel1>
				<dutyTime1c>1830</dutyTime1c>
				<dutyTime1s>930</dutyTime1s>
				<wgs84Lat>37.5226016123503</wgs84Lat>
				<wgs84Lon>127.027879223159</wgs84Lon>
			</item>
			<item>
				<dutyName>김진철성형외과의원</dutyName>
				<dutyTel1>02-549-3677</dutyTel1>
				<dutyTime1c>1800</dutyTime1c>
				<dutyTime1s>900</dutyTime1s>
				<wgs84Lat>37.5266212208039</wgs84Lat>
				<wgs84Lon>127.04276758723</wgs84Lon>
			</item>
			<item>
				<dutyName>김진환성형외과의원</dutyName>
				<dutyTel1>02-549-0119</dutyTel1>
				<dutyTime1c>1830</dutyTime1c>
				<dutyTime1s>1000</dutyTime1s>
				<wgs84Lat>37.5233934915469</wgs84Lat>
				<wgs84Lon>127.038516772882</wgs84Lon>
			</item>
			<item>
				<dutyName>김찬기치과의원</dutyName>
				<dutyTel1>02-544-4041</dutyTel1>
				<dutyTime1c>1800</dutyTime1c>
				<dutyTime1s>1000</dutyTime1s>
				<wgs84Lat>37.5143937862065</wgs84Lat>
				<wgs84Lon>127.030955199759</wgs84Lon>
			</item>
			<item>
				<dutyName>김철수치과의원</dutyName>
				<dutyTel1>02-567-6968</dutyTel1>
				<dutyTime1c>1800</dutyTime1c>
				<dutyTime1s>1000</dutyTime1s>
				<wgs84Lat>37.4992357232</wgs84Lat>
				<wgs84Lon>127.0484199573</wgs84Lon>
			</item>
			<item>
				<dutyName>김철호치과의원</dutyName>
				<dutyTel1>02-544-7660</dutyTel1>
				<dutyTime1c>1800</dutyTime1c>
				<dutyTime1s>1000</dutyTime1s>
				<wgs84Lat>37.5243936652084</wgs84Lat>
				<wgs84Lon>127.023617284084</wgs84Lon>
			</item>
			<item>
				<dutyName>김치과의원</dutyName>
				<dutyTel1>02-544-6140</dutyTel1>
				<dutyTime1c>1700</dutyTime1c>
				<dutyTime1s>1000</dutyTime1s>
				<wgs84Lat>37.5281581277374</wgs84Lat>
				<wgs84Lon>127.038076896645</wgs84Lon>
			</item>
			<item>
				<dutyName>김태영치과의원</dutyName>
				<dutyTel1>02-568-0605</dutyTel1>
				<dutyTime1c>1830</dutyTime1c>
				<dutyTime1s>930</dutyTime1s>
				<wgs84Lat>37.492249269373</wgs84Lat>
				<wgs84Lon>127.039411454993</wgs84Lon>
			</item>
			<item>
				<dutyName>김태욱외과의원</dutyName>
				<dutyTel1>02-578-9881</dutyTel1>
				<dutyTime1c>1800</dutyTime1c>
				<dutyTime1s>900</dutyTime1s>
				<wgs84Lat>37.4886581403285</wgs84Lat>
				<wgs84Lon>127.053018939492</wgs84Lon>
			</item>
			<item>
				<dutyName>김학술비뇨기과의원</dutyName>
				<dutyTel1>02-568-9919</dutyTel1>
				<dutyTime1c>1800</dutyTime1c>
				<dutyTime1s>930</dutyTime1s>
				<wgs84Lat>37.4945640803394</wgs84Lat>
				<wgs84Lon>127.062707208855</wgs84Lon>
			</item>
			<item>
				<dutyName>김한성성형외과의원</dutyName>
				<dutyTel1>02-3442-2302</dutyTel1>
				<dutyTime1c>1900</dutyTime1c>
				<dutyTime1s>1000</dutyTime1s>
				<wgs84Lat>37.5145357425255</wgs84Lat>
				<wgs84Lon>127.020400799273</wgs84Lon>
			</item>
			<item>
				<dutyName>김현석성형외과의원</dutyName>
				<dutyTel1>02-3442-7799</dutyTel1>
				<dutyTime1c>1900</dutyTime1c>
				<dutyTime1s>1000</dutyTime1s>
				<wgs84Lat>37.5252633607</wgs84Lat>
				<wgs84Lon>127.0278701512</wgs84Lon>
			</item>
			<item>
				<dutyName>김현수내과의원</dutyName>
				<dutyTel1>02-511-1101</dutyTel1>
				<dutyTime1c>1900</dutyTime1c>
				<dutyTime1s>900</dutyTime1s>
				<wgs84Lat>37.5285882156</wgs84Lat>
				<wgs84Lon>127.034134418</wgs84Lon>
			</item>
			<item>
				<dutyName>김현수한의원</dutyName>
				<dutyTel1>02-554-6153</dutyTel1>
				<dutyTime1c>1900</dutyTime1c>
				<dutyTime1s>1000</dutyTime1s>
				<wgs84Lat>37.510541951261</wgs84Lat>
				<wgs84Lon>127.062845950238</wgs84Lon>
			</item>
			<item>
				<dutyName>김현지내과의원</dutyName>
				<dutyTel1>02-508-5461</dutyTel1>
				<dutyTime1c>1700</dutyTime1c>
				<dutyTime1s>800</dutyTime1s>
				<wgs84Lat>37.5038210611</wgs84Lat>
				<wgs84Lon>127.0616957911</wgs84Lon>
			</item>
			<item>
				<dutyName>김형주치과의원</dutyName>
				<dutyTel1>02-512-3007</dutyTel1>
				<dutyTime1c>1830</dutyTime1c>
				<dutyTime1s>1000</dutyTime1s>
				<wgs84Lat>37.5169627638505</wgs84Lat>
				<wgs84Lon>127.020692219093</wgs84Lon>
			</item>
			<item>
				<dutyName>김형진뉴라인성형외과의원</dutyName>
				<dutyTel1>02-544-5222</dutyTel1>
				<dutyTime1c>1900</dutyTime1c>
				<dutyTime1s>1000</dutyTime1s>
				<wgs84Lat>37.5219907589</wgs84Lat>
				<wgs84Lon>127.0285431458</wgs84Lon>
			</item>
			<item>
				<dutyName>김혜영피부과의원</dutyName>
				<dutyTel1>02-567-0307</dutyTel1>
				<dutyTime1c>1900</dutyTime1c>
				<dutyTime1s>930</dutyTime1s>
				<wgs84Lat>37.4975385513808</wgs84Lat>
				<wgs84Lon>127.052658641843</wgs84Lon>
			</item>
			<item>
				<dutyName>김호연내과의원</dutyName>
				<dutyTel1>02-518-5106</dutyTel1>
				<dutyTime1c>1830</dutyTime1c>
				<dutyTime1s>930</dutyTime1s>
				<wgs84Lat>37.5051174337963</wgs84Lat>
				<wgs84Lon>127.025582618129</wgs84Lon>
			</item>
			<item>
				<dutyName>김호중이비인후과의원</dutyName>
				<dutyTel1>02-3412-0107</dutyTel1>
				<dutyTime1c>1830</dutyTime1c>
				<dutyTime1s>900</dutyTime1s>
				<wgs84Lat>37.4886885583622</wgs84Lat>
				<wgs84Lon>127.066843974689</wgs84Lon>
			</item>
			<item>
				<dutyName>꼼꼼한치과의원</dutyName>
				<dutyTel1>02-567-2828</dutyTel1>
				<dutyTime1c>2100</dutyTime1c>
				<dutyTime1s>1000</dutyTime1s>
				<wgs84Lat>37.5080864356909</wgs84Lat>
				<wgs84Lon>127.065024494326</wgs84Lon>
			</item>
			<item>
				<dutyName>꾸미지아피부과의원</dutyName>
				<dutyTel1>02-533-8586</dutyTel1>
				<dutyTime1c>1900</dutyTime1c>
				<dutyTime1s>1000</dutyTime1s>
				<wgs84Lat>37.5054072472505</wgs84Lat>
				<wgs84Lon>127.026706016719</wgs84Lon>
			</item>
			<item>
				<dutyName>끌레어의원</dutyName>
				<dutyTel1>02-543-0890</dutyTel1>
				<dutyTime1c>1900</dutyTime1c>
				<dutyTime1s>1000</dutyTime1s>
				<wgs84Lat>37.5240092576807</wgs84Lat>
				<wgs84Lon>127.040078226112</wgs84Lon>
			</item>
			<item>
				<dutyName>끌로에의원</dutyName>
				<dutyTel1>02-517-5667</dutyTel1>
				<dutyTime1c>1900</dutyTime1c>
				<dutyTime1s>1000</dutyTime1s>
				<wgs84Lat>37.5256114036795</wgs84Lat>
				<wgs84Lon>127.039410222311</wgs84Lon>
			</item>
			<item>
				<dutyName>나누리병원</dutyName>
				<dutyTel1>1688-9797</dutyTel1>
				<dutyTime1c>1800</dutyTime1c>
				<dutyTime1s>900</dutyTime1s>
				<wgs84Lat>37.5203062461</wgs84Lat>
				<wgs84Lon>127.033981326</wgs84Lon>
			</item>
			<item>
				<dutyName>나눔연세의원</dutyName>
				<dutyTel1>02-565-6163</dutyTel1>
				<dutyTime1c>1900</dutyTime1c>
				<dutyTime1s>1000</dutyTime1s>
				<wgs84Lat>37.5004011500451</wgs84Lat>
				<wgs84Lon>127.034343239413</wgs84Lon>
			</item>
			<item>
				<dutyName>나도균의원</dutyName>
				<dutyTel1>02-3446-7510</dutyTel1>
				<dutyTime1c>1800</dutyTime1c>
				<dutyTime1s>900</dutyTime1s>
				<wgs84Lat>37.5165417172</wgs84Lat>
				<wgs84Lon>127.0401601992</wgs84Lon>
			</item>
			<item>
				<dutyName>나도균한의원</dutyName>
				<dutyTel1>02-3446-5106</dutyTel1>
				<dutyTime1c>1900</dutyTime1c>
				<dutyTime1s>900</dutyTime1s>
				<wgs84Lat>37.5165417172405</wgs84Lat>
				<wgs84Lon>127.040160199231</wgs84Lon>
			</item>
			<item>
				<dutyName>나동규한의원</dutyName>
				<dutyTel1>02-501-7074</dutyTel1>
				<dutyTime1c>1900</dutyTime1c>
				<dutyTime1s>900</dutyTime1s>
				<wgs84Lat>37.4983643351177</wgs84Lat>
				<wgs84Lon>127.051564530198</wgs84Lon>
			</item>
			<item>
				<dutyName>나라한의원</dutyName>
				<dutyTel1>02-3452-0600</dutyTel1>
				<dutyTime1c>2130</dutyTime1c>
				<dutyTime1s>1300</dutyTime1s>
				<wgs84Lat>37.4933164567</wgs84Lat>
				<wgs84Lon>127.0428571459</wgs84Lon>
			</item>
			<item>
				<dutyName>나비성형외과의원</dutyName>
				<dutyTel1>02-567-5400</dutyTel1>
				<dutyTime1c>1900</dutyTime1c>
				<dutyTime1s>1000</dutyTime1s>
				<wgs84Lat>37.5146155548</wgs84Lat>
				<wgs84Lon>127.0338203893</wgs84Lon>
			</item>
			<item>
				<dutyName>나세르의원</dutyName>
				<dutyTel1>02-540-0070</dutyTel1>
				<dutyTime1c>1900</dutyTime1c>
				<dutyTime1s>930</dutyTime1s>
				<wgs84Lat>37.526084831</wgs84Lat>
				<wgs84Lon>127.0288840925</wgs84Lon>
			</item>
			<item>
				<dutyName>나우미구강악안면외과치과의원</dutyName>
				<dutyTel1>02-3445-7528</dutyTel1>
				<dutyTime1c>1900</dutyTime1c>
				<dutyTime1s>1000</dutyTime1s>
				<wgs84Lat>37.5154151680188</wgs84Lat>
				<wgs84Lon>127.020134092273</wgs84Lon>
			</item>
			<item>
				<dutyName>나인비뇨기과의원</dutyName>
				<dutyTel1>02-553-9030</dutyTel1>
				<dutyTime1c>2100</dutyTime1c>
				<dutyTime1s>1000</dutyTime1s>
				<wgs84Lat>37.5087422522</wgs84Lat>
				<wgs84Lon>127.0583429503</wgs84Lon>
			</item>
			<item>
				<dutyName>나전치과의원</dutyName>
				<dutyTel1>02-543-2385</dutyTel1>
				<dutyTime1c>1800</dutyTime1c>
				<dutyTime1s>1000</dutyTime1s>
				<wgs84Lat>37.5280210510458</wgs84Lat>
				<wgs84Lon>127.038478424644</wgs84Lon>
			</item>
			<item>
				<dutyName>나해철의원</dutyName>
				<dutyTel1>02-512-7770</dutyTel1>
				<dutyTime1c>1830</dutyTime1c>
				<dutyTime1s>900</dutyTime1s>
				<wgs84Lat>37.5258005047</wgs84Lat>
				<wgs84Lon>127.0272413563</wgs84Lon>
			</item>
			<item>
				<dutyName>나헌식한의원</dutyName>
				<dutyTel1>02-538-7770</dutyTel1>
				<dutyTime1c>1930</dutyTime1c>
				<dutyTime1s>1000</dutyTime1s>
				<wgs84Lat>37.5058777862</wgs84Lat>
				<wgs84Lon>127.0487861619</wgs84Lon>
			</item>
			<item>
				<dutyName>낙원가족치과의원</dutyName>
				<dutyTel1>02-544-0571</dutyTel1>
				<dutyTime1c>1800</dutyTime1c>
				<dutyTime1s>930</dutyTime1s>
				<wgs84Lat>37.5216399396871</wgs84Lat>
				<wgs84Lon>127.057281388064</wgs84Lon>
			</item>
			<item>
				<dutyName>남궁설민파티마의원</dutyName>
				<dutyTel1>02-515-1860</dutyTel1>
				<dutyTime1c>1800</dutyTime1c>
				<dutyTime1s>900</dutyTime1s>
				<wgs84Lat>37.5281455171009</wgs84Lat>
				<wgs84Lon>127.032011858149</wgs84Lon>
			</item>
			<item>
				<dutyName>남서울정형외과의원</dutyName>
				<dutyTel1>02-445-8275</dutyTel1>
				<dutyTime1c>1730</dutyTime1c>
				<dutyTime1s>900</dutyTime1s>
				<wgs84Lat>37.4908583333333</wgs84Lat>
				<wgs84Lon>127.080988888889</wgs84Lon>
			</item>
			<item>
				<dutyName>남영상의학과의원</dutyName>
				<dutyTel1>02-577-0660</dutyTel1>
				<dutyTime1c>1700</dutyTime1c>
				<dutyTime1s>900</dutyTime1s>
				<wgs84Lat>37.4752115866</wgs84Lat>
				<wgs84Lon>127.0475814337</wgs84Lon>
			</item>
			<item>
				<dutyName>네모치과병원</dutyName>
				<dutyTel1>02-564-5956</dutyTel1>
				<dutyTime1c>2100</dutyTime1c>
				<dutyTime1s>1930</dutyTime1s>
				<wgs84Lat>37.5038733423</wgs84Lat>
				<wgs84Lon>127.0502370032</wgs84Lon>
			</item>
			<item>
				<dutyName>네오비뇨기과의원</dutyName>
				<dutyTel1>02-561-6575</dutyTel1>
				<dutyTime1c>1900</dutyTime1c>
				<dutyTime1s>900</dutyTime1s>
				<wgs84Lat>37.4996385573332</wgs84Lat>
				<wgs84Lon>127.03583707913</wgs84Lon>
			</item>
			<item>
				<dutyName>네오성형외과의원</dutyName>
				<dutyTel1>02-3443-6363</dutyTel1>
				<dutyTime1c>1900</dutyTime1c>
				<dutyTime1s>1000</dutyTime1s>
				<wgs84Lat>37.5168568303839</wgs84Lat>
				<wgs84Lon>127.01979965904</wgs84Lon>
			</item>
			<item>
				<dutyName>네오유여성비뇨기과의원</dutyName>
				<dutyTel1>02-555-2125</dutyTel1>
				<dutyTime1c>2000</dutyTime1c>
				<dutyTime1s>930</dutyTime1s>
				<wgs84Lat>37.502482799003</wgs84Lat>
				<wgs84Lon>127.02601599769</wgs84Lon>
			</item>
			<item>
				<dutyName>네오의원</dutyName>
				<dutyTel1>02-566-4561</dutyTel1>
				<dutyTime1c>1900</dutyTime1c>
				<dutyTime1s>1100</dutyTime1s>
				<wgs84Lat>37.5043603542551</wgs84Lat>
				<wgs84Lon>127.033835191864</wgs84Lon>
			</item>
			<item>
				<dutyName>네오한의원</dutyName>
				<dutyTel1>02-545-4523</dutyTel1>
				<dutyTime1c>1800</dutyTime1c>
				<dutyTime1s>900</dutyTime1s>
				<wgs84Lat>37.52306093</wgs84Lat>
				<wgs84Lon>127.0294394988</wgs84Lon>
			</item>
			<item>
				<dutyName>네이처피부과의원</dutyName>
				<dutyTel1>02-512-3375</dutyTel1>
				<dutyTime1c>1900</dutyTime1c>
				<dutyTime1s>1000</dutyTime1s>
				<wgs84Lat>37.5218903615724</wgs84Lat>
				<wgs84Lon>127.039298808882</wgs84Lon>
			</item>
			<item>
				<dutyName>넥스트성형외과의원</dutyName>
				<dutyTel1>02-2052-1011</dutyTel1>
				<dutyTime1c>1900</dutyTime1c>
				<dutyTime1s>1000</dutyTime1s>
				<wgs84Lat>37.5045335804</wgs84Lat>
				<wgs84Lon>127.0255914666</wgs84Lon>
			</item>
			<item>
				<dutyName>노들담한의원</dutyName>
				<dutyTel1>02-558-8541</dutyTel1>
				<dutyTime1c>2100</dutyTime1c>
				<dutyTime1s>1100</dutyTime1s>
				<wgs84Lat>37.4948484347169</wgs84Lat>
				<wgs84Lon>127.030369262095</wgs84Lon>
			</item>
			<item>
				<dutyName>노메스한의원</dutyName>
				<dutyTel1>02-2051-8275</dutyTel1>
				<dutyTime1c>1900</dutyTime1c>
				<dutyTime1s>1000</dutyTime1s>
				<wgs84Lat>37.5076489261</wgs84Lat>
				<wgs84Lon>127.0340389244</wgs84Lon>
			</item>
			<item>
				<dutyName>노명선정신건강의학과의원</dutyName>
				<dutyTel1>02-6205-7400</dutyTel1>
				<dutyTime1c>1900</dutyTime1c>
				<dutyTime1s>1000</dutyTime1s>
				<wgs84Lat>37.5062025529</wgs84Lat>
				<wgs84Lon>127.0477956263</wgs84Lon>
			</item>
			<item>
				<dutyName>노바에스피부과의원</dutyName>
				<dutyTel1>02-554-9565</dutyTel1>
				<dutyTime1c>2000</dutyTime1c>
				<dutyTime1s>1000</dutyTime1s>
				<wgs84Lat>37.4987774492155</wgs84Lat>
				<wgs84Lon>127.027828640043</wgs84Lon>
			</item>
			<item>
				<dutyName>노박치과의원</dutyName>
				<dutyTel1>02-3445-2288</dutyTel1>
				<dutyTime1c>1830</dutyTime1c>
				<dutyTime1s>1000</dutyTime1s>
				<wgs84Lat>37.5015791243</wgs84Lat>
				<wgs84Lon>127.0361577746</wgs84Lon>
			</item>
			<item>
				<dutyName>노병현치과의원</dutyName>
				<dutyTel1>02-593-0088</dutyTel1>
				<dutyTime1c>1830</dutyTime1c>
				<dutyTime1s>1000</dutyTime1s>
				<wgs84Lat>37.5079574970484</wgs84Lat>
				<wgs84Lon>127.022785668056</wgs84Lon>
			</item>
			<item>
				<dutyName>노블라인의원</dutyName>
				<dutyTel1>02-514-0755</dutyTel1>
				<dutyTime1c>1900</dutyTime1c>
				<dutyTime1s>1000</dutyTime1s>
				<wgs84Lat>37.5263086174132</wgs84Lat>
				<wgs84Lon>127.027467799695</wgs84Lon>
			</item>
			<item>
				<dutyName>노블앤코의원</dutyName>
				<dutyTel1>02-6247-3100</dutyTel1>
				<dutyTime1c>1900</dutyTime1c>
				<dutyTime1s>1000</dutyTime1s>
				<wgs84Lat>37.5003742437251</wgs84Lat>
				<wgs84Lon>127.026915463965</wgs84Lon>
			</item>
			<item>
				<dutyName>노블와이성형외과의원</dutyName>
				<dutyTel1>02-3446-7300</dutyTel1>
				<dutyTime1c>1900</dutyTime1c>
				<dutyTime1s>1000</dutyTime1s>
				<wgs84Lat>37.521957563034</wgs84Lat>
				<wgs84Lon>127.027952632362</wgs84Lon>
			</item>
			<item>
				<dutyName>노블의원</dutyName>
				<dutyTel1>02-563-2594</dutyTel1>
				<dutyTime1c>2000</dutyTime1c>
				<dutyTime1s>1100</dutyTime1s>
				<wgs84Lat>37.50123567</wgs84Lat>
				<wgs84Lon>127.0266307826</wgs84Lon>
			</item>
			<item>
				<dutyName>노엘킴산부인과의원</dutyName>
				<dutyTel1>02-578-9994</dutyTel1>
				<dutyTime1c>1900</dutyTime1c>
				<dutyTime1s>900</dutyTime1s>
				<wgs84Lat>37.4778182675</wgs84Lat>
				<wgs84Lon>127.0451320285</wgs84Lon>
			</item>
			<item>
				<dutyName>노영서치과의원</dutyName>
				<dutyTel1>02-3445-9314</dutyTel1>
				<dutyTime1c>1830</dutyTime1c>
				<dutyTime1s>1000</dutyTime1s>
				<wgs84Lat>37.5241332646592</wgs84Lat>
				<wgs84Lon>127.02805623724</wgs84Lon>
			</item>
			<item>
				<dutyName>노왕구정신건강의학과의원</dutyName>
				<dutyTel1>02-545-7802</dutyTel1>
				<dutyTime1c>1900</dutyTime1c>
				<dutyTime1s>1000</dutyTime1s>
				<wgs84Lat>37.5260517547972</wgs84Lat>
				<wgs84Lon>127.026822870597</wgs84Lon>
			</item>
			<item>
				<dutyName>노원재산부인과의원</dutyName>
				<dutyTel1>02-886-9955</dutyTel1>
				<dutyTime1c>1900</dutyTime1c>
				<dutyTime1s>930</dutyTime1s>
				<wgs84Lat>37.4849649737</wgs84Lat>
				<wgs84Lon>127.0347567814</wgs84Lon>
			</item>
			<item>
				<dutyName>노인화산부인과의원</dutyName>
				<dutyTel1>02-569-3770</dutyTel1>
				<dutyTime1c>1900</dutyTime1c>
				<dutyTime1s>1000</dutyTime1s>
				<wgs84Lat>37.5048110746</wgs84Lat>
				<wgs84Lon>127.048595465</wgs84Lon>
			</item>
			<item>
				<dutyName>노종훈성형외과의원</dutyName>
				<dutyTel1>02-515-5300</dutyTel1>
				<dutyTime1c>1900</dutyTime1c>
				<dutyTime1s>1000</dutyTime1s>
				<wgs84Lat>37.5260581024637</wgs84Lat>
				<wgs84Lon>127.026626980718</wgs84Lon>
			</item>
			<item>
				<dutyName>녹양한의원</dutyName>
				<dutyTel1>02-3446-1025</dutyTel1>
				<dutyTime1c>1830</dutyTime1c>
				<dutyTime1s>930</dutyTime1s>
				<wgs84Lat>37.5178598498568</wgs84Lat>
				<wgs84Lon>127.051820960526</wgs84Lon>
			</item>
			<item>
				<dutyName>논현도원한의원</dutyName>
				<dutyTel1>02-543-1010</dutyTel1>
				<dutyTime1c>1830</dutyTime1c>
				<dutyTime1s>900</dutyTime1s>
				<wgs84Lat>37.5076658624</wgs84Lat>
				<wgs84Lon>127.0237331524</wgs84Lon>
			</item>
			<item>
				<dutyName>논현마취통증의학과의원</dutyName>
				<dutyTel1>02-2236-8188</dutyTel1>
				<dutyTime1c>1730</dutyTime1c>
				<dutyTime1s>930</dutyTime1s>
				<wgs84Lat>37.5110359761</wgs84Lat>
				<wgs84Lon>127.0218883252</wgs84Lon>
			</item>
			<item>
				<dutyName>논현여성의원</dutyName>
				<dutyTel1>02-549-9981</dutyTel1>
				<dutyTime1c>1900</dutyTime1c>
				<dutyTime1s>1000</dutyTime1s>
				<wgs84Lat>37.5098509963764</wgs84Lat>
				<wgs84Lon>127.026571785514</wgs84Lon>
			</item>
			<item>
				<dutyName>누가치과의원</dutyName>
				<dutyTel1>02-555-2875</dutyTel1>
				<dutyTime1c>1600</dutyTime1c>
				<dutyTime1s>1000</dutyTime1s>
				<wgs84Lat>37.4971369891844</wgs84Lat>
				<wgs84Lon>127.030379235661</wgs84Lon>
			</item>
			<item>
				<dutyName>누네안과병원</dutyName>
				<dutyTel1>02-1661-1175</dutyTel1>
				<dutyTime1c>1800</dutyTime1c>
				<dutyTime1s>900</dutyTime1s>
				<wgs84Lat>37.5009898110754</wgs84Lat>
				<wgs84Lon>127.050967901594</wgs84Lon>
			</item>
			<item>
				<dutyName>누베베한의원</dutyName>
				<dutyTel1>02-2052-3600</dutyTel1>
				<dutyTime1c>2030</dutyTime1c>
				<dutyTime1s>1000</dutyTime1s>
				<wgs84Lat>37.5054455304</wgs84Lat>
				<wgs84Lon>127.0482339632</wgs84Lon>
			</item>
			<item>
				<dutyName>눈에미소안과의원</dutyName>
				<dutyTel1>02-501-7725</dutyTel1>
				<dutyTime1c>1830</dutyTime1c>
				<dutyTime1s>930</dutyTime1s>
				<wgs84Lat>37.4990351768642</wgs84Lat>
				<wgs84Lon>127.027667379712</wgs84Lon>
			</item>
			<item>
				<dutyName>눈피부과의원</dutyName>
				<dutyTel1>02-3446-9523</dutyTel1>
				<dutyTime1c>1900</dutyTime1c>
				<dutyTime1s>1000</dutyTime1s>
				<wgs84Lat>37.522095585</wgs84Lat>
				<wgs84Lon>127.0272309594</wgs84Lon>
			</item>
			<item>
				<dutyName>뉴라이프의원</dutyName>
				<dutyTel1>02-3443-1618</dutyTel1>
				<dutyTime1c>1900</dutyTime1c>
				<dutyTime1s>1000</dutyTime1s>
				<wgs84Lat>37.5260129629</wgs84Lat>
				<wgs84Lon>127.0404413104</wgs84Lon>
			</item>
			<item>
				<dutyName>뉴라인치과의원</dutyName>
				<dutyTel1>02-511-2275</dutyTel1>
				<dutyTime1c>1830</dutyTime1c>
				<dutyTime1s>1000</dutyTime1s>
				<wgs84Lat>37.5188564009</wgs84Lat>
				<wgs84Lon>127.0233928173</wgs84Lon>
			</item>
			<item>
				<dutyName>뉴서울치과의원</dutyName>
				<dutyTel1>02-540-7575</dutyTel1>
				<dutyTime1c>1830</dutyTime1c>
				<dutyTime1s>1000</dutyTime1s>
				<wgs84Lat>37.5149941737803</wgs84Lat>
				<wgs84Lon>127.033123788802</wgs84Lon>
			</item>
			<item>
				<dutyName>뉴스타의원</dutyName>
				<dutyTel1>02-514-6800</dutyTel1>
				<dutyTime1c>1900</dutyTime1c>
				<dutyTime1s>1000</dutyTime1s>
				<wgs84Lat>37.5150222932</wgs84Lat>
				<wgs84Lon>127.0203511623</wgs84Lon>
			</item>
			<item>
				<dutyName>뉴엘의원</dutyName>
				<dutyTel1>02-515-9998</dutyTel1>
				<dutyTime1c>2030</dutyTime1c>
				<dutyTime1s>1030</dutyTime1s>
				<wgs84Lat>37.5173535301</wgs84Lat>
				<wgs84Lon>127.0233787743</wgs84Lon>
			</item>
			<item>
				<dutyName>뉴연세바른이치과의원</dutyName>
				<dutyTel1>02-508-7528</dutyTel1>
				<dutyTime1c>1900</dutyTime1c>
				<dutyTime1s>1000</dutyTime1s>
				<wgs84Lat>37.5056226685613</wgs84Lat>
				<wgs84Lon>127.05522806311</wgs84Lon>
			</item>
			<item>
				<dutyName>뉴연세의원</dutyName>
				<dutyTel1>02-2038-6678</dutyTel1>
				<dutyTime1c>1830</dutyTime1c>
				<dutyTime1s>900</dutyTime1s>
				<wgs84Lat>37.4988182987</wgs84Lat>
				<wgs84Lon>127.0366223652</wgs84Lon>
			</item>
			<item>
				<dutyName>뉴연세치과의원</dutyName>
				<dutyTel1>02-508-7528</dutyTel1>
				<dutyTime1c>1900</dutyTime1c>
				<dutyTime1s>1000</dutyTime1s>
				<wgs84Lat>37.5056355793743</wgs84Lat>
				<wgs84Lon>127.055242780605</wgs84Lon>
			</item>
			<item>
				<dutyName>뉴욕브레이스치과의원</dutyName>
				<dutyTel1>02-542-2275</dutyTel1>
				<dutyTime1c>1900</dutyTime1c>
				<dutyTime1s>1000</dutyTime1s>
				<wgs84Lat>37.5167115492</wgs84Lat>
				<wgs84Lon>127.0388345845</wgs84Lon>
			</item>
			<item>
				<dutyName>뉴욕씨엔디치과의원</dutyName>
				<dutyTel1>02-567-2885</dutyTel1>
				<dutyTime1c>1800</dutyTime1c>
				<dutyTime1s>1000</dutyTime1s>
				<wgs84Lat>37.5103916227314</wgs84Lat>
				<wgs84Lon>127.053408319449</wgs84Lon>
			</item>
			<item>
				<dutyName>뉴욕연세치과의원</dutyName>
				<dutyTel1>02-558-2829</dutyTel1>
				<dutyTime1c>1900</dutyTime1c>
				<dutyTime1s>1000</dutyTime1s>
				<wgs84Lat>37.4966544858</wgs84Lat>
				<wgs84Lon>127.0286330144</wgs84Lon>
			</item>
			<item>
				<dutyName>뉴욕치과의원</dutyName>
				<dutyTel1>02-501-0009</dutyTel1>
				<dutyTime1c>1830</dutyTime1c>
				<dutyTime1s>930</dutyTime1s>
				<wgs84Lat>37.5016083333333</wgs84Lat>
				<wgs84Lon>127.038297222222</wgs84Lon>
			</item>
			<item>
				<dutyName>뉴욕화이트치과의원</dutyName>
				<dutyTel1>02-565-2875</dutyTel1>
				<dutyTime1c>1900</dutyTime1c>
				<dutyTime1s>1000</dutyTime1s>
				<wgs84Lat>37.503886588622</wgs84Lat>
				<wgs84Lon>127.044143427974</wgs84Lon>
			</item>
			<item>
				<dutyName>뉴헤어의원</dutyName>
				<dutyTel1>02-557-2022</dutyTel1>
				<dutyTime1c>1800</dutyTime1c>
				<dutyTime1s>1000</dutyTime1s>
