<?xml version="1.0" encoding="UTF-8" standalone="yes"?>
<response xmlns:xsi="http://www.w3.org/2001/XMLSchema-instance">
	<body>
		<items>
			<item>
				<dutyName>21세기의원</dutyName>
				<dutyTel1>02-858-2828</dutyTel1>
				<dutyTime1c>1900</dutyTime1c>
				<dutyTime1s>830</dutyTime1s>
				<wgs84Lat>37.4905981960603</wgs84Lat>
				<wgs84Lon>126.88921599473</wgs84Lon>
			</item>
			<item>
				<dutyName>365스마트의원</dutyName>
				<dutyTel1>02-2677-0911</dutyTel1>
				<dutyTime1c>2100</dutyTime1c>
				<dutyTime1s>1000</dutyTime1s>
				<wgs84Lat>37.4982868980534</wgs84Lat>
				<wgs84Lon>126.872731874914</wgs84Lon>
			</item>
			<item>
				<dutyName>AK상쾌한이비인후과의원</dutyName>
				<dutyTel1>02-858-2700</dutyTel1>
				<dutyTime1c>1900</dutyTime1c>
				<dutyTime1s>900</dutyTime1s>
				<wgs84Lat>37.5011588838246</wgs84Lat>
				<wgs84Lon>126.882774031717</wgs84Lon>
			</item>
			<item>
				<dutyName>AK우리의원</dutyName>
				<dutyTel1>02-2614-8275</dutyTel1>
				<dutyTime1c>1800</dutyTime1c>
				<dutyTime1s>1000</dutyTime1s>
				<wgs84Lat>37.5011588838246</wgs84Lat>
				<wgs84Lon>126.882774031717</wgs84Lon>
			</item>
			<item>
				<dutyName>S아이니의원</dutyName>
				<dutyTel1>02-857-8812</dutyTel1>
				<dutyTime1c>2000</dutyTime1c>
				<dutyTime1s>1000</dutyTime1s>
				<wgs84Lat>37.4903785244</wgs84Lat>
				<wgs84Lon>126.8934289824</wgs84Lon>
			</item>
			<item>
				<dutyName>e-서울이비인후과의원</dutyName>
				<dutyTel1>02-3281-5075</dutyTel1>
				<dutyTime1c>1830</dutyTime1c>
				<dutyTime1s>900</dutyTime1s>
				<wgs84Lat>37.4838681136668</wgs84Lat>
				<wgs84Lon>126.895489832368</wgs84Lon>
			</item>
			<item>
				<dutyName>가람한의원</dutyName>
				<dutyTel1>02-855-3696</dutyTel1>
				<dutyTime1c>1830</dutyTime1c>
				<dutyTime1s>930</dutyTime1s>
				<wgs84Lat>37.4957694950131</wgs84Lat>
				<wgs84Lon>126.88881659535</wgs84Lon>
			</item>
			<item>
				<dutyName>가리봉의원</dutyName>
				<dutyTel1>02-851-1666</dutyTel1>
				<dutyTime1c>1800</dutyTime1c>
				<dutyTime1s>900</dutyTime1s>
				<wgs84Lat>37.4795600331</wgs84Lat>
				<wgs84Lon>126.8903781947</wgs84Lon>
			</item>
			<item>
				<dutyName>가이치과의원</dutyName>
				<dutyTel1>02-886-2877</dutyTel1>
				<dutyTime1c>1830</dutyTime1c>
				<dutyTime1s>930</dutyTime1s>
				<wgs84Lat>37.5090485844</wgs84Lat>
				<wgs84Lon>126.8869872307</wgs84Lon>
			</item>
			<item>
				<dutyName>감초당한의원</dutyName>
				<dutyTel1>02-2619-6114</dutyTel1>
				<dutyTime1c>1900</dutyTime1c>
				<dutyTime1s>900</dutyTime1s>
				<wgs84Lat>37.4915634269065</wgs84Lat>
				<wgs84Lon>126.855365638311</wgs84Lon>
			</item>
			<item>
				<dutyName>감초한의원</dutyName>
				<dutyTel1>02-852-5017</dutyTel1>
				<dutyTime1c>1900</dutyTime1c>
				<dutyTime1s>930</dutyTime1s>
				<wgs84Lat>37.4956718186927</wgs84Lat>
				<wgs84Lon>126.874084282851</wgs84Lon>
			</item>
			<item>
				<dutyName>강남리즈의료생활협동조합 강남리즈의원</dutyName>
				<dutyTel1>02-863-0075</dutyTel1>
				<dutyTime1c>1900</dutyTime1c>
				<dutyTime1s>1000</dutyTime1s>
				<wgs84Lat>37.4911030514</wgs84Lat>
				<wgs84Lon>126.8935591213</wgs84Lon>
			</item>
			<item>
				<dutyName>강남삼성신경외과의원</dutyName>
				<dutyTel1>02-866-1346</dutyTel1>
				<dutyTime1c>1900</dutyTime1c>
				<dutyTime1s>730</dutyTime1s>
				<wgs84Lat>37.4842856380535</wgs84Lat>
				<wgs84Lon>126.899280882135</wgs84Lon>
			</item>
			<item>
				<dutyName>강내과의원</dutyName>
				<dutyTel1>02-2686-1835</dutyTel1>
				<dutyTime1c>1830</dutyTime1c>
				<dutyTime1s>900</dutyTime1s>
				<wgs84Lat>37.5027681098021</wgs84Lat>
				<wgs84Lon>126.864287477509</wgs84Lon>
			</item>
			<item>
				<dutyName>강상훈치과의원</dutyName>
				<dutyTel1>02-2618-0142</dutyTel1>
				<dutyTime1c>1830</dutyTime1c>
				<dutyTime1s>1000</dutyTime1s>
				<wgs84Lat>37.4965455481363</wgs84Lat>
				<wgs84Lon>126.829378325576</wgs84Lon>
			</item>
			<item>
				<dutyName>강서효요양병원</dutyName>
				<dutyTel1>02-2616-7575</dutyTel1>
				<dutyTime1c>1830</dutyTime1c>
				<dutyTime1s>900</dutyTime1s>
				<wgs84Lat>37.4927023561283</wgs84Lat>
				<wgs84Lon>126.855696635029</wgs84Lon>
			</item>
			<item>
				<dutyName>강창율한의원</dutyName>
				<dutyTel1>02-855-1972</dutyTel1>
				<dutyTime1c>1800</dutyTime1c>
				<dutyTime1s>900</dutyTime1s>
				<wgs84Lat>37.4858073967044</wgs84Lat>
				<wgs84Lon>126.887271019731</wgs84Lon>
			</item>
			<item>
				<dutyName>강충희치과의원</dutyName>
				<dutyTel1>02-830-7528</dutyTel1>
				<dutyTime1c>1830</dutyTime1c>
				<dutyTime1s>930</dutyTime1s>
				<wgs84Lat>37.4902672799</wgs84Lat>
				<wgs84Lon>126.8862149623</wgs84Lon>
			</item>
			<item>
				<dutyName>강한의원</dutyName>
				<dutyTel1>02-2681-8554</dutyTel1>
				<dutyTime1c>1900</dutyTime1c>
				<dutyTime1s>930</dutyTime1s>
				<wgs84Lat>37.4962286711423</wgs84Lat>
				<wgs84Lon>126.856713668182</wgs84Lon>
			</item>
			<item>
				<dutyName>개봉웰치과의원</dutyName>
				<dutyTel1>02-2684-2804</dutyTel1>
				<dutyTime1c>1830</dutyTime1c>
				<dutyTime1s>930</dutyTime1s>
				<wgs84Lat>37.4920222797</wgs84Lat>
				<wgs84Lon>126.8563010352</wgs84Lon>
			</item>
			<item>
				<dutyName>개봉치과의원</dutyName>
				<dutyTel1>02-2619-2825</dutyTel1>
				<dutyTime1c>1830</dutyTime1c>
				<dutyTime1s>930</dutyTime1s>
				<wgs84Lat>37.5022581535837</wgs84Lat>
				<wgs84Lon>126.848726833259</wgs84Lon>
			</item>
			<item>
				<dutyName>개봉한의원</dutyName>
				<dutyTel1>02-2614-7725</dutyTel1>
				<dutyTime1c>2100</dutyTime1c>
				<dutyTime1s>930</dutyTime1s>
				<wgs84Lat>37.4906780010754</wgs84Lat>
				<wgs84Lon>126.856326246059</wgs84Lon>
			</item>
			<item>
				<dutyName>건강드림내과의원</dutyName>
				<dutyTel1>02-2684-7575</dutyTel1>
				<dutyTime1c>1900</dutyTime1c>
				<dutyTime1s>900</dutyTime1s>
				<wgs84Lat>37.4860419123</wgs84Lat>
				<wgs84Lon>126.8385607404</wgs84Lon>
			</item>
			<item>
				<dutyName>건강세상의원</dutyName>
				<dutyTel1>02-3281-8285</dutyTel1>
				<dutyTime1c>1800</dutyTime1c>
				<dutyTime1s>900</dutyTime1s>
				<wgs84Lat>37.4858231641</wgs84Lat>
				<wgs84Lon>126.8858553618</wgs84Lon>
			</item>
			<item>
				<dutyName>건강한정형외과의원</dutyName>
				<dutyTel1>02-2060-7078</dutyTel1>
				<dutyTime1c>1900</dutyTime1c>
				<dutyTime1s>900</dutyTime1s>
				<wgs84Lat>37.4867114278821</wgs84Lat>
				<wgs84Lon>126.838331902177</wgs84Lon>
			</item>
			<item>
				<dutyName>경인경희한의원</dutyName>
				<dutyTel1>02-2060-1075</dutyTel1>
				<dutyTime1c>1900</dutyTime1c>
				<dutyTime1s>900</dutyTime1s>
				<wgs84Lat>37.4960596566</wgs84Lat>
				<wgs84Lon>126.8428318306</wgs84Lon>
			</item>
			<item>
				<dutyName>경희가족사랑한의원</dutyName>
				<dutyTel1>02-2619-4400</dutyTel1>
				<dutyTime1c>1900</dutyTime1c>
				<dutyTime1s>930</dutyTime1s>
				<wgs84Lat>37.4961723715759</wgs84Lat>
				<wgs84Lon>126.843577947079</wgs84Lon>
			</item>
			<item>
				<dutyName>경희길한의원</dutyName>
				<dutyTel1>02-2615-7975</dutyTel1>
				<dutyTime1c>1900</dutyTime1c>
				<dutyTime1s>900</dutyTime1s>
				<wgs84Lat>37.5034016554</wgs84Lat>
				<wgs84Lon>126.8636258579</wgs84Lon>
			</item>
			<item>
				<dutyName>경희동의보감한의원</dutyName>
				<dutyTel1>02-2615-8800</dutyTel1>
				<dutyTime1c>1900</dutyTime1c>
				<dutyTime1s>900</dutyTime1s>
				<wgs84Lat>37.4962225971403</wgs84Lat>
				<wgs84Lon>126.842730865042</wgs84Lon>
			</item>
			<item>
				<dutyName>경희맥한의원</dutyName>
				<dutyTel1>02-2060-1275</dutyTel1>
				<dutyTime1c>2100</dutyTime1c>
				<dutyTime1s>930</dutyTime1s>
				<wgs84Lat>37.5032194984682</wgs84Lat>
				<wgs84Lon>126.861947888939</wgs84Lon>
			</item>
			<item>
				<dutyName>경희바른한의원</dutyName>
				<dutyTel1>02-2682-8510</dutyTel1>
				<dutyTime1c>2100</dutyTime1c>
				<dutyTime1s>1400</dutyTime1s>
				<wgs84Lat>37.5036470412</wgs84Lat>
				<wgs84Lon>126.8638968397</wgs84Lon>
			</item>
			<item>
				<dutyName>경희배흘림한의원</dutyName>
				<dutyTel1>02-2028-2121</dutyTel1>
				<dutyTime1c>1900</dutyTime1c>
				<dutyTime1s>930</dutyTime1s>
				<wgs84Lat>37.4860583246714</wgs84Lat>
				<wgs84Lon>126.894356060955</wgs84Lon>
			</item>
			<item>
				<dutyName>경희본한의원</dutyName>
				<dutyTel1>02-2689-7582</dutyTel1>
				<dutyTime1c>1900</dutyTime1c>
				<dutyTime1s>900</dutyTime1s>
				<wgs84Lat>37.5027604344744</wgs84Lat>
				<wgs84Lon>126.849056053437</wgs84Lon>
			</item>
			<item>
				<dutyName>경희서지용한의원</dutyName>
				<dutyTel1>02-6737-1075</dutyTel1>
				<dutyTime1c>2100</dutyTime1c>
				<dutyTime1s>1000</dutyTime1s>
				<wgs84Lat>37.5104960721737</wgs84Lat>
				<wgs84Lon>126.889457643373</wgs84Lon>
			</item>
			<item>
				<dutyName>경희송한의원</dutyName>
				<dutyTel1>02-851-8575</dutyTel1>
				<dutyTime1c>1900</dutyTime1c>
				<dutyTime1s>930</dutyTime1s>
				<wgs84Lat>37.4839706116</wgs84Lat>
				<wgs84Lon>126.9018094476</wgs84Lon>
			</item>
			<item>
				<dutyName>경희수한의원</dutyName>
				<dutyTel1>02-865-1075</dutyTel1>
				<dutyTime1c>1830</dutyTime1c>
				<dutyTime1s>930</dutyTime1s>
				<wgs84Lat>37.4859774566894</wgs84Lat>
				<wgs84Lon>126.838866163712</wgs84Lon>
			</item>
			<item>
				<dutyName>경희연한의원</dutyName>
				<dutyTel1>02-2688-7534</dutyTel1>
				<dutyTime1c>1800</dutyTime1c>
				<dutyTime1s>1000</dutyTime1s>
				<wgs84Lat>37.4864523335765</wgs84Lat>
				<wgs84Lon>126.854891556676</wgs84Lon>
			</item>
			<item>
				<dutyName>경희플러스한의원</dutyName>
				<dutyTel1>02-859-1075</dutyTel1>
				<dutyTime1c>1800</dutyTime1c>
				<dutyTime1s>930</dutyTime1s>
				<wgs84Lat>37.5011768995713</wgs84Lat>
				<wgs84Lon>126.882839948675</wgs84Lon>
			</item>
			<item>
				<dutyName>경희희망한의원</dutyName>
				<dutyTel1>02-2685-1500</dutyTel1>
				<dutyTime1c>1900</dutyTime1c>
				<dutyTime1s>930</dutyTime1s>
				<wgs84Lat>37.5022157206295</wgs84Lat>
				<wgs84Lon>126.848654518934</wgs84Lon>
			</item>
			<item>
				<dutyName>고광송일반외과의원</dutyName>
				<dutyTel1>02-2686-1223</dutyTel1>
				<dutyTime1c>1800</dutyTime1c>
				<dutyTime1s>900</dutyTime1s>
				<wgs84Lat>37.5027694444444</wgs84Lat>
				<wgs84Lon>126.850097222222</wgs84Lon>
			</item>
			<item>
				<dutyName>고궁한의원</dutyName>
				<dutyTel1>02-2676-1661</dutyTel1>
				<dutyTime1c>1830</dutyTime1c>
				<dutyTime1s>930</dutyTime1s>
				<wgs84Lat>37.5061611067496</wgs84Lat>
				<wgs84Lon>126.882728009497</wgs84Lon>
			</item>
			<item>
				<dutyName>고려MS영상의학과의원</dutyName>
				<dutyTel1>02-830-2564</dutyTel1>
				<dutyTime1c>1900</dutyTime1c>
				<dutyTime1s>900</dutyTime1s>
				<wgs84Lat>37.4958595941</wgs84Lat>
				<wgs84Lon>126.8888073946</wgs84Lon>
			</item>
			<item>
				<dutyName>고려가정의학과의원</dutyName>
				<dutyTel1>02-2616-7272</dutyTel1>
				<dutyTime1c>1800</dutyTime1c>
				<dutyTime1s>900</dutyTime1s>
				<wgs84Lat>37.4877656081</wgs84Lat>
				<wgs84Lon>126.8560423415</wgs84Lon>
			</item>
			<item>
				<dutyName>고려대학교의과대학부속구로병원</dutyName>
				<dutyTel1>02-2626-1114</dutyTel1>
				<dutyTime1c>1730</dutyTime1c>
				<dutyTime1s>900</dutyTime1s>
				<wgs84Lat>37.4921111452505</wgs84Lat>
				<wgs84Lon>126.884744936355</wgs84Lon>
			</item>
			<item>
				<dutyName>고려제일정신과의원</dutyName>
				<dutyTel1>02-859-4469</dutyTel1>
				<dutyTime1c>1830</dutyTime1c>
				<dutyTime1s>930</dutyTime1s>
				<wgs84Lat>37.4999838706809</wgs84Lat>
				<wgs84Lon>126.882733271651</wgs84Lon>
			</item>
			<item>
				<dutyName>고려치과의원</dutyName>
				<dutyTel1>02-2681-2806</dutyTel1>
				<dutyTime1c>1800</dutyTime1c>
				<dutyTime1s>930</dutyTime1s>
				<wgs84Lat>37.4877691716327</wgs84Lat>
				<wgs84Lon>126.85601521807</wgs84Lon>
			</item>
			<item>
				<dutyName>고려튼튼외과의원</dutyName>
				<dutyTel1>02-857-8511</dutyTel1>
				<dutyTime1c>1900</dutyTime1c>
				<dutyTime1s>900</dutyTime1s>
				<wgs84Lat>37.4923549055</wgs84Lat>
				<wgs84Lon>126.8834345989</wgs84Lon>
			</item>
			<item>
				<dutyName>고려한사랑정형외과의원</dutyName>
				<dutyTel1>02-2612-5115</dutyTel1>
				<dutyTime1c>2000</dutyTime1c>
				<dutyTime1s>900</dutyTime1s>
				<wgs84Lat>37.5024055555556</wgs84Lat>
				<wgs84Lon>126.847236111111</wgs84Lon>
			</item>
			<item>
				<dutyName>고려한의원</dutyName>
				<dutyTel1>02-857-1257</dutyTel1>
				<dutyTime1c>1900</dutyTime1c>
				<dutyTime1s>900</dutyTime1s>
				<wgs84Lat>37.482998936953</wgs84Lat>
				<wgs84Lon>126.887252626527</wgs84Lon>
			</item>
			<item>
				<dutyName>고운니치과의원</dutyName>
				<dutyTel1>02-2618-3706</dutyTel1>
				<dutyTime1c>1830</dutyTime1c>
				<dutyTime1s>930</dutyTime1s>
				<wgs84Lat>37.4907405041537</wgs84Lat>
				<wgs84Lon>126.840819825824</wgs84Lon>
			</item>
			<item>
				<dutyName>고은경희한의원</dutyName>
				<dutyTel1>02-850-3875</dutyTel1>
				<dutyTime1c>2000</dutyTime1c>
				<dutyTime1s>1000</dutyTime1s>
				<wgs84Lat>37.4850567575571</wgs84Lat>
				<wgs84Lon>126.898803251775</wgs84Lon>
			</item>
			<item>
				<dutyName>고척성모의원</dutyName>
				<dutyTel1>02-2684-3137</dutyTel1>
				<dutyTime1c>1900</dutyTime1c>
				<dutyTime1s>830</dutyTime1s>
				<wgs84Lat>37.5063213080039</wgs84Lat>
				<wgs84Lon>126.858203549492</wgs84Lon>
			</item>
			<item>
				<dutyName>골드원치과의원</dutyName>
				<dutyTel1>02-2625-2875</dutyTel1>
				<dutyTime1c>1830</dutyTime1c>
				<dutyTime1s>930</dutyTime1s>
				<wgs84Lat>37.5028477912196</wgs84Lat>
				<wgs84Lon>126.863851942531</wgs84Lon>
			</item>
			<item>
				<dutyName>공감치과의원</dutyName>
				<dutyTel1>02-6959-1211</dutyTel1>
				<dutyTime1c>1900</dutyTime1c>
				<dutyTime1s>1000</dutyTime1s>
				<wgs84Lat>37.4821089289</wgs84Lat>
				<wgs84Lon>126.8952813878</wgs84Lon>
			</item>
			<item>
				<dutyName>구로고척케어빌한의원</dutyName>
				<dutyTel1>02-2686-1075</dutyTel1>
				<dutyTime1c>1900</dutyTime1c>
				<dutyTime1s>930</dutyTime1s>
				<wgs84Lat>37.5065807511006</wgs84Lat>
				<wgs84Lon>126.859321185009</wgs84Lon>
			</item>
			<item>
				<dutyName>구로구보건소</dutyName>
				<dutyTel1>02-860-2600</dutyTel1>
				<dutyTime1c>1800</dutyTime1c>
				<dutyTime1s>900</dutyTime1s>
				<wgs84Lat>37.5001092837881</wgs84Lat>
				<wgs84Lon>126.889364601049</wgs84Lon>
			</item>
			<item>
				<dutyName>구로밝은빛안과의원</dutyName>
				<dutyTel1>02-851-7677</dutyTel1>
				<dutyTime1c>1830</dutyTime1c>
				<dutyTime1s>900</dutyTime1s>
				<wgs84Lat>37.4902853686896</wgs84Lat>
				<wgs84Lon>126.886222263394</wgs84Lon>
			</item>
			<item>
				<dutyName>구로성모의원</dutyName>
				<dutyTel1>02-853-7005</dutyTel1>
				<dutyTime1c>1700</dutyTime1c>
				<dutyTime1s>800</dutyTime1s>
				<wgs84Lat>37.4934671192585</wgs84Lat>
				<wgs84Lon>126.885629363218</wgs84Lon>
			</item>
			<item>
				<dutyName>구로성심병원</dutyName>
				<dutyTel1>02-2067-1500</dutyTel1>
				<dutyTime1c>1730</dutyTime1c>
				<dutyTime1s>900</dutyTime1s>
				<wgs84Lat>37.4996457866939</wgs84Lat>
				<wgs84Lon>126.866360395565</wgs84Lon>
			</item>
			<item>
				<dutyName>구로성심치과의원</dutyName>
				<dutyTel1>02-2612-2275</dutyTel1>
				<dutyTime1c>1800</dutyTime1c>
				<dutyTime1s>900</dutyTime1s>
				<wgs84Lat>37.5000379318759</wgs84Lat>
				<wgs84Lon>126.865749012859</wgs84Lon>
			</item>
			<item>
				<dutyName>구로세란의원</dutyName>
				<dutyTel1>02-839-8008</dutyTel1>
				<dutyTime1c>2000</dutyTime1c>
				<dutyTime1s>900</dutyTime1s>
				<wgs84Lat>37.4845711912799</wgs84Lat>
				<wgs84Lon>126.88804913577</wgs84Lon>
			</item>
			<item>
				<dutyName>구로에이스치과의원</dutyName>
				<dutyTel1>02-2069-0075</dutyTel1>
				<dutyTime1c>1830</dutyTime1c>
				<dutyTime1s>930</dutyTime1s>
				<wgs84Lat>37.5033376426316</wgs84Lat>
				<wgs84Lon>126.881105893429</wgs84Lon>
			</item>
			<item>
				<dutyName>구로연세소아과의원</dutyName>
				<dutyTel1>02-2611-3200</dutyTel1>
				<dutyTime1c>1800</dutyTime1c>
				<dutyTime1s>900</dutyTime1s>
				<wgs84Lat>37.49685841883</wgs84Lat>
				<wgs84Lon>126.861964122844</wgs84Lon>
			</item>
			<item>
				<dutyName>구로연세의원</dutyName>
				<dutyTel1>02-858-7776</dutyTel1>
				<dutyTime1c>1900</dutyTime1c>
				<dutyTime1s>900</dutyTime1s>
				<wgs84Lat>37.4918296892819</wgs84Lat>
				<wgs84Lon>126.892042855049</wgs84Lon>
			</item>
			<item>
				<dutyName>구로우리들의원</dutyName>
				<dutyTel1>02-869-1122</dutyTel1>
				<dutyTime1c>2000</dutyTime1c>
				<dutyTime1s>900</dutyTime1s>
				<wgs84Lat>37.4945731246149</wgs84Lat>
				<wgs84Lon>126.888985708864</wgs84Lon>
			</item>
			<item>
				<dutyName>구로우태하피부과의원</dutyName>
				<dutyTel1>02-2616-1675</dutyTel1>
				<dutyTime1c>2000</dutyTime1c>
				<dutyTime1s>1000</dutyTime1s>
				<wgs84Lat>37.4939960434</wgs84Lat>
				<wgs84Lon>126.8582558076</wgs84Lon>
			</item>
			<item>
				<dutyName>구로의원</dutyName>
				<dutyTel1>02-865-0664</dutyTel1>
				<dutyTime1c>1800</dutyTime1c>
				<dutyTime1s>900</dutyTime1s>
				<wgs84Lat>37.4900851944928</wgs84Lat>
				<wgs84Lon>126.884282813852</wgs84Lon>
			</item>
			<item>
				<dutyName>구로이앤치과의원</dutyName>
				<dutyTel1>02-856-2275</dutyTel1>
				<dutyTime1c>2100</dutyTime1c>
				<dutyTime1s>1000</dutyTime1s>
				<wgs84Lat>37.5000163542555</wgs84Lat>
				<wgs84Lon>126.882726078949</wgs84Lon>
			</item>
			<item>
				<dutyName>구로정형외과의원</dutyName>
				<dutyTel1>02-852-3375</dutyTel1>
				<dutyTime1c>1830</dutyTime1c>
				<dutyTime1s>900</dutyTime1s>
				<wgs84Lat>37.4935885558</wgs84Lat>
				<wgs84Lon>126.8845272951</wgs84Lon>
			</item>
			<item>
				<dutyName>구로제일의원</dutyName>
				<dutyTel1>02-855-1380</dutyTel1>
				<dutyTime1c>1900</dutyTime1c>
				<dutyTime1s>900</dutyTime1s>
				<wgs84Lat>37.5033720109292</wgs84Lat>
				<wgs84Lon>126.890556007254</wgs84Lon>
			</item>
			<item>
				<dutyName>구로제일정형외과의원</dutyName>
				<dutyTel1>02-853-7555</dutyTel1>
				<dutyTime1c>1830</dutyTime1c>
				<dutyTime1s>900</dutyTime1s>
				<wgs84Lat>37.4890116391537</wgs84Lat>
				<wgs84Lon>126.884677394844</wgs84Lon>
			</item>
			<item>
				<dutyName>구로좋은치과의원</dutyName>
				<dutyTel1>02-857-0028</dutyTel1>
				<dutyTime1c>2100</dutyTime1c>
				<dutyTime1s>930</dutyTime1s>
				<wgs84Lat>37.4887697121</wgs84Lat>
				<wgs84Lon>126.8842633388</wgs84Lon>
			</item>
			<item>
				<dutyName>구로중앙외과의원</dutyName>
				<dutyTel1>02-857-1189</dutyTel1>
				<dutyTime1c>1830</dutyTime1c>
				<dutyTime1s>900</dutyTime1s>
				<wgs84Lat>37.495389007988</wgs84Lat>
				<wgs84Lon>126.882941366535</wgs84Lon>
			</item>
			<item>
				<dutyName>구로중앙치과의원</dutyName>
				<dutyTel1>02-837-2879</dutyTel1>
				<dutyTime1c>1830</dutyTime1c>
				<dutyTime1s>930</dutyTime1s>
				<wgs84Lat>37.4888313698</wgs84Lat>
				<wgs84Lon>126.8846612597</wgs84Lon>
			</item>
			<item>
				<dutyName>구로튼튼의원</dutyName>
				<dutyTel1>02-3281-7417</dutyTel1>
				<dutyTime1c>1830</dutyTime1c>
				<dutyTime1s>900</dutyTime1s>
				<wgs84Lat>37.4895221631</wgs84Lat>
				<wgs84Lon>126.8910104203</wgs84Lon>
			</item>
			<item>
				<dutyName>구로한의원</dutyName>
				<dutyTel1>02-838-6050</dutyTel1>
				<dutyTime1c>1900</dutyTime1c>
				<dutyTime1s>1000</dutyTime1s>
				<wgs84Lat>37.4900183638821</wgs84Lat>
				<wgs84Lon>126.88597564239</wgs84Lon>
			</item>
			<item>
				<dutyName>구로현대의원</dutyName>
				<dutyTel1>02-864-2559</dutyTel1>
				<dutyTime1c>1800</dutyTime1c>
				<dutyTime1s>900</dutyTime1s>
				<wgs84Lat>37.4944011364977</wgs84Lat>
				<wgs84Lon>126.882588324234</wgs84Lon>
			</item>
			<item>
				<dutyName>구일가정의원</dutyName>
				<dutyTel1>02-863-9188</dutyTel1>
				<dutyTime1c>1900</dutyTime1c>
				<dutyTime1s>900</dutyTime1s>
				<wgs84Lat>37.495639747695</wgs84Lat>
				<wgs84Lon>126.874543963712</wgs84Lon>
			</item>
			<item>
				<dutyName>구일경희한의원</dutyName>
				<dutyTel1>02-865-2563</dutyTel1>
				<dutyTime1c>1800</dutyTime1c>
				<dutyTime1s>930</dutyTime1s>
				<wgs84Lat>37.4922574641982</wgs84Lat>
				<wgs84Lon>126.876295597436</wgs84Lon>
			</item>
			<item>
				<dutyName>구일굿모닝내과의원</dutyName>
				<dutyTel1>02-866-9175</dutyTel1>
				<dutyTime1c>1900</dutyTime1c>
				<dutyTime1s>800</dutyTime1s>
				<wgs84Lat>37.4950749316</wgs84Lat>
				<wgs84Lon>126.8720090767</wgs84Lon>
			</item>
			<item>
				<dutyName>굿이비인후과의원</dutyName>
				<dutyTel1>02-865-7595</dutyTel1>
				<dutyTime1c>1900</dutyTime1c>
				<dutyTime1s>900</dutyTime1s>
				<wgs84Lat>37.4838822265377</wgs84Lat>
				<wgs84Lon>126.899234504169</wgs84Lon>
			</item>
			<item>
				<dutyName>궁동의원</dutyName>
				<dutyTel1>02-2612-2314</dutyTel1>
				<dutyTime1c>1800</dutyTime1c>
				<dutyTime1s>900</dutyTime1s>
				<wgs84Lat>37.4935532766607</wgs84Lat>
				<wgs84Lon>126.834417162201</wgs84Lon>
			</item>
			<item>
				<dutyName>권내과의원</dutyName>
				<dutyTel1>02-2685-6612</dutyTel1>
				<dutyTime1c>1830</dutyTime1c>
				<dutyTime1s>900</dutyTime1s>
				<wgs84Lat>37.4954083333333</wgs84Lat>
				<wgs84Lon>126.8587</wgs84Lon>
			</item>
			<item>
				<dutyName>권마취통증의학과의원</dutyName>
				<dutyTel1>02-862-7582</dutyTel1>
				<dutyTime1c>1800</dutyTime1c>
				<dutyTime1s>930</dutyTime1s>
				<wgs84Lat>37.4901307538</wgs84Lat>
				<wgs84Lon>126.8904803465</wgs84Lon>
			</item>
			<item>
				<dutyName>권피부과의원</dutyName>
				<dutyTel1>02-856-0079</dutyTel1>
				<dutyTime1c>1830</dutyTime1c>
				<dutyTime1s>930</dutyTime1s>
				<wgs84Lat>37.4957839667035</wgs84Lat>
				<wgs84Lon>126.888814704185</wgs84Lon>
			</item>
			<item>
				<dutyName>그린서울치과의원</dutyName>
				<dutyTel1>02-2688-2875</dutyTel1>
				<dutyTime1c>1830</dutyTime1c>
				<dutyTime1s>1000</dutyTime1s>
				<wgs84Lat>37.5048590996011</wgs84Lat>
				<wgs84Lon>126.855719998166</wgs84Lon>
			</item>
			<item>
				<dutyName>그린치과의원</dutyName>
				<dutyTel1>02-2612-1400</dutyTel1>
				<dutyTime1c>1830</dutyTime1c>
				<dutyTime1s>930</dutyTime1s>
				<wgs84Lat>37.4865439587287</wgs84Lat>
				<wgs84Lon>126.856144207105</wgs84Lon>
			</item>
			<item>
				<dutyName>금강산한의원</dutyName>
				<dutyTel1>02-2066-7513</dutyTel1>
				<dutyTime1c>1900</dutyTime1c>
				<dutyTime1s>900</dutyTime1s>
				<wgs84Lat>37.5065905983</wgs84Lat>
				<wgs84Lon>126.8455603342</wgs84Lon>
			</item>
			<item>
				<dutyName>기린마취통증의학과의원</dutyName>
				<dutyTel1>02-6737-8275</dutyTel1>
				<dutyTime1c>1900</dutyTime1c>
				<dutyTime1s>900</dutyTime1s>
				<wgs84Lat>37.4830805324653</wgs84Lat>
				<wgs84Lon>126.897699602869</wgs84Lon>
			</item>
			<item>
				<dutyName>기분좋은치과의원</dutyName>
				<dutyTel1>02-866-2755</dutyTel1>
				<dutyTime1c>1830</dutyTime1c>
				<dutyTime1s>930</dutyTime1s>
				<wgs84Lat>37.489915321157</wgs84Lat>
				<wgs84Lon>126.890389091279</wgs84Lon>
			</item>
			<item>
				<dutyName>길치과의원</dutyName>
				<dutyTel1>02-532-3423</dutyTel1>
				<dutyTime1c>1900</dutyTime1c>
				<dutyTime1s>930</dutyTime1s>
				<wgs84Lat>37.4947475425333</wgs84Lat>
				<wgs84Lon>126.839966851712</wgs84Lon>
			</item>
			<item>
				<dutyName>김경효소아과의원</dutyName>
				<dutyTel1>02-867-9570</dutyTel1>
				<dutyTime1c>1800</dutyTime1c>
				<dutyTime1s>930</dutyTime1s>
				<wgs84Lat>37.4957927292438</wgs84Lat>
				<wgs84Lon>126.876054484163</wgs84Lon>
			</item>
			<item>
				<dutyName>김관수산부인과의원</dutyName>
				<dutyTel1>02-2618-9817</dutyTel1>
				<dutyTime1c>1730</dutyTime1c>
				<dutyTime1s>730</dutyTime1s>
				<wgs84Lat>37.4877656080689</wgs84Lat>
				<wgs84Lon>126.856042341499</wgs84Lon>
			</item>
			<item>
				<dutyName>김남규치과의원</dutyName>
				<dutyTel1>02-2617-4228</dutyTel1>
				<dutyTime1c>1800</dutyTime1c>
				<dutyTime1s>930</dutyTime1s>
				<wgs84Lat>37.496265880865</wgs84Lat>
				<wgs84Lon>126.843829564698</wgs84Lon>
			</item>
			<item>
				<dutyName>김명진소아과의원</dutyName>
				<dutyTel1>02-2681-0129</dutyTel1>
				<dutyTime1c>1800</dutyTime1c>
				<dutyTime1s>915</dutyTime1s>
				<wgs84Lat>37.4926377008779</wgs84Lat>
				<wgs84Lon>126.855589723659</wgs84Lon>
			</item>
			<item>
				<dutyName>김부랑치과의원</dutyName>
				<dutyTel1>02-866-2875</dutyTel1>
				<dutyTime1c>1800</dutyTime1c>
				<dutyTime1s>1000</dutyTime1s>
				<wgs84Lat>37.4797935082448</wgs84Lat>
				<wgs84Lon>126.889541236731</wgs84Lon>
			</item>
			<item>
				<dutyName>김석제치과의원</dutyName>
				<dutyTel1>02-2637-7077</dutyTel1>
				<dutyTime1c>1830</dutyTime1c>
				<dutyTime1s>1000</dutyTime1s>
				<wgs84Lat>37.5049921752479</wgs84Lat>
				<wgs84Lon>126.877855121354</wgs84Lon>
			</item>
			<item>
				<dutyName>김성목내과의원</dutyName>
				<dutyTel1>02-855-7533</dutyTel1>
				<dutyTime1c>1830</dutyTime1c>
				<dutyTime1s>900</dutyTime1s>
				<wgs84Lat>37.4898362136893</wgs84Lat>
				<wgs84Lon>126.891561786774</wgs84Lon>
			</item>
			<item>
				<dutyName>김승열재활의학과의원</dutyName>
				<dutyTel1>02-2625-0030</dutyTel1>
				<dutyTime1c>1900</dutyTime1c>
				<dutyTime1s>930</dutyTime1s>
				<wgs84Lat>37.5028541360371</wgs84Lat>
				<wgs84Lon>126.863884728225</wgs84Lon>
			</item>
			<item>
				<dutyName>김앤드홍안과의원</dutyName>
				<dutyTel1>02-838-5234</dutyTel1>
				<dutyTime1c>1830</dutyTime1c>
				<dutyTime1s>900</dutyTime1s>
				<wgs84Lat>37.4957337220511</wgs84Lat>
				<wgs84Lon>126.889036420834</wgs84Lon>
			</item>
			<item>
				<dutyName>김앤정스마일치과</dutyName>
				<dutyTel1>02-858-2275</dutyTel1>
				<dutyTime1c>1830</dutyTime1c>
				<dutyTime1s>930</dutyTime1s>
				<wgs84Lat>37.4895221630979</wgs84Lat>
				<wgs84Lon>126.891010420279</wgs84Lon>
			</item>
			<item>
				<dutyName>김용갑치과의원</dutyName>
				<dutyTel1>02-2683-0822</dutyTel1>
				<dutyTime1c>1830</dutyTime1c>
				<dutyTime1s>930</dutyTime1s>
				<wgs84Lat>37.5027244185712</wgs84Lat>
				<wgs84Lon>126.849069676674</wgs84Lon>
			</item>
			<item>
				<dutyName>김용진치과의원</dutyName>
				<dutyTel1>02-863-7272</dutyTel1>
				<dutyTime1c>1830</dutyTime1c>
				<dutyTime1s>1000</dutyTime1s>
				<wgs84Lat>37.4957782844629</wgs84Lat>
				<wgs84Lon>126.87602736858</wgs84Lon>
			</item>
			<item>
				<dutyName>김우종치과의원</dutyName>
				<dutyTel1>02-2612-5656</dutyTel1>
				<dutyTime1c>1800</dutyTime1c>
				<dutyTime1s>930</dutyTime1s>
				<wgs84Lat>37.4873259321805</wgs84Lat>
				<wgs84Lon>126.85606129694</wgs84Lon>
			</item>
			<item>
				<dutyName>김윤관치과의원</dutyName>
				<dutyTel1>02-866-2825</dutyTel1>
				<dutyTime1c>1830</dutyTime1c>
				<dutyTime1s>930</dutyTime1s>
				<wgs84Lat>37.50495950543</wgs84Lat>
				<wgs84Lon>126.888554154613</wgs84Lon>
			</item>
			<item>
				<dutyName>김은주산부인과의원</dutyName>
				<dutyTel1>02-2689-7500</dutyTel1>
				<dutyTime1c>2000</dutyTime1c>
				<dutyTime1s>930</dutyTime1s>
				<wgs84Lat>37.4960748115</wgs84Lat>
				<wgs84Lon>126.8433881701</wgs84Lon>
			</item>
			<item>
				<dutyName>김정민치과의원</dutyName>
				<dutyTel1>02-855-3024</dutyTel1>
				<dutyTime1c>1800</dutyTime1c>
				<dutyTime1s>1000</dutyTime1s>
				<wgs84Lat>37.482950350332</wgs84Lat>
				<wgs84Lon>126.901053826845</wgs84Lon>
			</item>
			<item>
				<dutyName>김종하치과의원</dutyName>
				<dutyTel1>02-2685-4872</dutyTel1>
				<dutyTime1c>1730</dutyTime1c>
				<dutyTime1s>930</dutyTime1s>
				<wgs84Lat>37.491751143948</wgs84Lat>
				<wgs84Lon>126.855623112591</wgs84Lon>
			</item>
			<item>
				<dutyName>김지수피부과의원</dutyName>
				<dutyTel1>02-2682-1223</dutyTel1>
				<dutyTime1c>1800</dutyTime1c>
				<dutyTime1s>930</dutyTime1s>
				<wgs84Lat>37.4907926352472</wgs84Lat>
				<wgs84Lon>126.855756125241</wgs84Lon>
			</item>
			<item>
				<dutyName>김진수한의원</dutyName>
				<dutyTel1>02-2616-7975</dutyTel1>
				<dutyTime1c>1900</dutyTime1c>
				<dutyTime1s>930</dutyTime1s>
				<wgs84Lat>37.4920294805287</wgs84Lat>
				<wgs84Lon>126.8563010419</wgs84Lon>
			</item>
			<item>
				<dutyName>김진아소아과의원</dutyName>
				<dutyTel1>02-2616-4119</dutyTel1>
				<dutyTime1c>1830</dutyTime1c>
				<dutyTime1s>900</dutyTime1s>
				<wgs84Lat>37.5026064996776</wgs84Lat>
				<wgs84Lon>126.849870636176</wgs84Lon>
			</item>
			<item>
				<dutyName>김현정이비인후과의원</dutyName>
				<dutyTel1>02-853-7360</dutyTel1>
				<dutyTime1c>1800</dutyTime1c>
				<dutyTime1s>900</dutyTime1s>
				<wgs84Lat>37.4918827784388</wgs84Lat>
				<wgs84Lon>126.876418345422</wgs84Lon>
			</item>
			<item>
				<dutyName>김형선치과의원</dutyName>
				<dutyTel1>02-2612-3994</dutyTel1>
				<dutyTime1c>1830</dutyTime1c>
				<dutyTime1s>930</dutyTime1s>
				<wgs84Lat>37.4963620814053</wgs84Lat>
				<wgs84Lon>126.863076110081</wgs84Lon>
			</item>
			<item>
				<dutyName>김형수의원</dutyName>
				<dutyTel1>02-2060-9111</dutyTel1>
				<dutyTime1c>2200</dutyTime1c>
				<dutyTime1s>1000</dutyTime1s>
				<wgs84Lat>37.4956264999</wgs84Lat>
				<wgs84Lon>126.8423261269</wgs84Lon>
			</item>
			<item>
				<dutyName>나비에스(NABY-S)의원</dutyName>
				<dutyTel1>02-2051-4563</dutyTel1>
				<dutyTime1c>1900</dutyTime1c>
				<dutyTime1s>1000</dutyTime1s>
				<wgs84Lat>37.48552111427</wgs84Lat>
				<wgs84Lon>126.894344947181</wgs84Lon>
			</item>
			<item>
				<dutyName>나비에스한의원</dutyName>
				<dutyTel1>02-2051-4563</dutyTel1>
				<dutyTime1c>1930</dutyTime1c>
				<dutyTime1s>1000</dutyTime1s>
				<wgs84Lat>37.485355927495</wgs84Lat>
				<wgs84Lon>126.893965950662</wgs84Lon>
			</item>
			<item>
				<dutyName>나우가정의원</dutyName>
				<dutyTel1>02-2625-2320</dutyTel1>
				<dutyTime1c>1800</dutyTime1c>
				<dutyTime1s>900</dutyTime1s>
				<wgs84Lat>37.4860569424638</wgs84Lat>
				<wgs84Lon>126.85283449512</wgs84Lon>
			</item>
			<item>
				<dutyName>나음누리한의원</dutyName>
				<dutyTel1>02-858-7510</dutyTel1>
				<dutyTime1c>2100</dutyTime1c>
				<dutyTime1s>930</dutyTime1s>
				<wgs84Lat>37.4950568995074</wgs84Lat>
				<wgs84Lon>126.872004604695</wgs84Lon>
			</item>
			<item>
				<dutyName>나치과의원</dutyName>
				<dutyTel1>02-2613-9703</dutyTel1>
				<dutyTime1c>1800</dutyTime1c>
				<dutyTime1s>930</dutyTime1s>
				<wgs84Lat>37.4975536822566</wgs84Lat>
				<wgs84Lon>126.855670746839</wgs84Lon>
			</item>
			<item>
				<dutyName>나플란트치과의원</dutyName>
				<dutyTel1>02-2686-2805</dutyTel1>
				<dutyTime1c>1900</dutyTime1c>
				<dutyTime1s>930</dutyTime1s>
				<wgs84Lat>37.4940397576584</wgs84Lat>
				<wgs84Lon>126.85864472201</wgs84Lon>
			</item>
			<item>
				<dutyName>남광우내과의원</dutyName>
				<dutyTel1>02-2617-1025</dutyTel1>
				<dutyTime1c>1830</dutyTime1c>
				<dutyTime1s>900</dutyTime1s>
				<wgs84Lat>37.4967942811438</wgs84Lat>
				<wgs84Lon>126.845114622033</wgs84Lon>
			</item>
			<item>
				<dutyName>남궁한의원</dutyName>
				<dutyTel1>02-868-3322</dutyTel1>
				<dutyTime1c>1800</dutyTime1c>
				<dutyTime1s>1000</dutyTime1s>
				<wgs84Lat>37.4857544603677</wgs84Lat>
				<wgs84Lon>126.885528209687</wgs84Lon>
			</item>
			<item>
				<dutyName>남부고려의원</dutyName>
				<dutyTel1>02-2613-8483</dutyTel1>
				<dutyTime1c>1800</dutyTime1c>
				<dutyTime1s>900</dutyTime1s>
				<wgs84Lat>37.4877656081</wgs84Lat>
				<wgs84Lon>126.8560423415</wgs84Lon>
			</item>
			<item>
				<dutyName>남부효요양병원</dutyName>
				<dutyTel1>02-863-9900</dutyTel1>
				<dutyTime1c>1800</dutyTime1c>
				<dutyTime1s>900</dutyTime1s>
				<wgs84Lat>37.4788896761993</wgs84Lat>
				<wgs84Lon>126.894327150563</wgs84Lon>
			</item>
			<item>
				<dutyName>내맘에한의원</dutyName>
				<dutyTel1>02-2682-1075</dutyTel1>
				<dutyTime1c>1900</dutyTime1c>
				<dutyTime1s>900</dutyTime1s>
				<wgs84Lat>37.4909865573173</wgs84Lat>
				<wgs84Lon>126.841542978749</wgs84Lon>
			</item>
			<item>
				<dutyName>뉴욕디지털치과의원</dutyName>
				<dutyTel1>02-2109-0275</dutyTel1>
				<dutyTime1c>1800</dutyTime1c>
				<dutyTime1s>930</dutyTime1s>
				<wgs84Lat>37.4849368723587</wgs84Lat>
				<wgs84Lon>126.893688312204</wgs84Lon>
			</item>
			<item>
				<dutyName>뉴욕말씀치과의원</dutyName>
				<dutyTel1>02-853-7502</dutyTel1>
				<dutyTime1c>1900</dutyTime1c>
				<dutyTime1s>1000</dutyTime1s>
				<wgs84Lat>37.4900853294507</wgs84Lat>
				<wgs84Lon>126.892031796594</wgs84Lon>
			</item>
			<item>
				<dutyName>뉴욕비엔에스치과의원</dutyName>
				<dutyTel1>02-856-2875</dutyTel1>
				<dutyTime1c>1900</dutyTime1c>
				<dutyTime1s>1000</dutyTime1s>
				<wgs84Lat>37.4836554330646</wgs84Lat>
				<wgs84Lon>126.895440384721</wgs84Lon>
			</item>
			<item>
				<dutyName>뉴욕치과의원</dutyName>
				<dutyTel1>02-869-0028</dutyTel1>
				<dutyTime1c>1900</dutyTime1c>
				<dutyTime1s>1000</dutyTime1s>
				<wgs84Lat>37.4839706116</wgs84Lat>
				<wgs84Lon>126.9018094476</wgs84Lon>
			</item>
			<item>
				<dutyName>늘벗정신건강의학과의원</dutyName>
				<dutyTel1>02-3439-8818</dutyTel1>
				<dutyTime1c>1900</dutyTime1c>
				<dutyTime1s>1000</dutyTime1s>
				<wgs84Lat>37.5093987790149</wgs84Lat>
				<wgs84Lon>126.887699403629</wgs84Lon>
			</item>
			<item>
				<dutyName>늘푸른소아청소년과의원</dutyName>
				<dutyTel1>02-838-2233</dutyTel1>
				<dutyTime1c>1730</dutyTime1c>
				<dutyTime1s>930</dutyTime1s>
				<wgs84Lat>37.4958595940775</wgs84Lat>
				<wgs84Lon>126.888807394619</wgs84Lon>
			</item>
			<item>
				<dutyName>늘푸른재활의학과의원</dutyName>
				<dutyTel1>02-2616-3195</dutyTel1>
				<dutyTime1c>1830</dutyTime1c>
				<dutyTime1s>830</dutyTime1s>
				<wgs84Lat>37.4957416303241</wgs84Lat>
				<wgs84Lon>126.842582239704</wgs84Lon>
			</item>
			<item>
				<dutyName>늘푸른치과의원</dutyName>
				<dutyTel1>02-2683-7582</dutyTel1>
				<dutyTime1c>1830</dutyTime1c>
				<dutyTime1s>930</dutyTime1s>
				<wgs84Lat>37.4924567013</wgs84Lat>
				<wgs84Lon>126.8207981935</wgs84Lon>
			</item>
			<item>
				<dutyName>다나수한의원</dutyName>
				<dutyTel1>02-2618-3283</dutyTel1>
				<dutyTime1c>1900</dutyTime1c>
				<dutyTime1s>900</dutyTime1s>
				<wgs84Lat>37.4957601922</wgs84Lat>
				<wgs84Lon>126.8425836753</wgs84Lon>
			</item>
			<item>
				<dutyName>다나한의원</dutyName>
				<dutyTel1>02-862-7511</dutyTel1>
				<dutyTime1c>1900</dutyTime1c>
				<dutyTime1s>930</dutyTime1s>
				<wgs84Lat>37.4900227892039</wgs84Lat>
				<wgs84Lon>126.890656920867</wgs84Lon>
			</item>
			<item>
				<dutyName>다사랑한의원</dutyName>
				<dutyTel1>02-2619-1075</dutyTel1>
				<dutyTime1c>1900</dutyTime1c>
				<dutyTime1s>930</dutyTime1s>
				<wgs84Lat>37.4917439597415</wgs84Lat>
				<wgs84Lon>126.855636675189</wgs84Lon>
			</item>
			<item>
				<dutyName>다올항외과의원</dutyName>
				<dutyTel1>02-2672-8275</dutyTel1>
				<dutyTime1c>1830</dutyTime1c>
				<dutyTime1s>930</dutyTime1s>
				<wgs84Lat>37.5032725648214</wgs84Lat>
				<wgs84Lon>126.881004515866</wgs84Lon>
			</item>
			<item>
				<dutyName>다이아몬드치과의원</dutyName>
				<dutyTel1>02-3666-2804</dutyTel1>
				<dutyTime1c>1830</dutyTime1c>
				<dutyTime1s>900</dutyTime1s>
				<wgs84Lat>37.497967623483</wgs84Lat>
				<wgs84Lon>126.864354990921</wgs84Lon>
			</item>
			<item>
				<dutyName>닥터스피부과의원</dutyName>
				<dutyTel1>02-2634-9090</dutyTel1>
				<dutyTime1c>2100</dutyTime1c>
				<dutyTime1s>1000</dutyTime1s>
				<wgs84Lat>37.5104960678819</wgs84Lat>
				<wgs84Lon>126.8894531192</wgs84Lon>
			</item>
			<item>
				<dutyName>닥터진치과의원</dutyName>
				<dutyTel1>02-868-2879</dutyTel1>
				<dutyTime1c>1900</dutyTime1c>
				<dutyTime1s>1000</dutyTime1s>
				<wgs84Lat>37.4825133664673</wgs84Lat>
				<wgs84Lon>126.900357361686</wgs84Lon>
			</item>
			<item>
				<dutyName>단아안한의원</dutyName>
				<dutyTel1>1661-3601</dutyTel1>
				<dutyTime1c>2100</dutyTime1c>
				<dutyTime1s>900</dutyTime1s>
				<wgs84Lat>37.5112013496</wgs84Lat>
				<wgs84Lon>126.8844684974</wgs84Lon>
			</item>
			<item>
				<dutyName>단아치과의원</dutyName>
				<dutyTel1>02-859-2811</dutyTel1>
				<dutyTime1c>1830</dutyTime1c>
				<dutyTime1s>1000</dutyTime1s>
				<wgs84Lat>37.5010213267104</wgs84Lat>
				<wgs84Lon>126.889636635429</wgs84Lon>
			</item>
			<item>
				<dutyName>대유한의원</dutyName>
				<dutyTel1>02-2686-8575</dutyTel1>
				<dutyTime1c>1900</dutyTime1c>
				<dutyTime1s>900</dutyTime1s>
				<wgs84Lat>37.4911569278663</wgs84Lat>
				<wgs84Lon>126.841896807525</wgs84Lon>
			</item>
			<item>
				<dutyName>대한의료영상의학과의원</dutyName>
				<dutyTel1>070-7462-3847</dutyTel1>
				<dutyTime1c>1800</dutyTime1c>
				<dutyTime1s>900</dutyTime1s>
				<wgs84Lat>37.4951321466</wgs84Lat>
				<wgs84Lon>126.8894100706</wgs84Lon>
			</item>
			<item>
				<dutyName>더고운의원</dutyName>
				<dutyTel1>02-2612-7600</dutyTel1>
				<dutyTime1c>1800</dutyTime1c>
				<dutyTime1s>1000</dutyTime1s>
				<wgs84Lat>37.4964598962863</wgs84Lat>
				<wgs84Lon>126.845712376583</wgs84Lon>
			</item>
			<item>
				<dutyName>더맑은의원</dutyName>
				<dutyTel1>02-3439-7333</dutyTel1>
				<dutyTime1c>2200</dutyTime1c>
				<dutyTime1s>1000</dutyTime1s>
				<wgs84Lat>37.5098495467328</wgs84Lat>
				<wgs84Lon>126.887979215935</wgs84Lon>
			</item>
			<item>
				<dutyName>덕산속조은내과의원</dutyName>
				<dutyTel1>02-2685-9500</dutyTel1>
				<dutyTime1c>1900</dutyTime1c>
				<dutyTime1s>830</dutyTime1s>
				<wgs84Lat>37.4943592254884</wgs84Lat>
				<wgs84Lon>126.841047279808</wgs84Lon>
			</item>
			<item>
				<dutyName>덕산이편한치과의원</dutyName>
				<dutyTel1>02-2683-2828</dutyTel1>
				<dutyTime1c>1830</dutyTime1c>
				<dutyTime1s>930</dutyTime1s>
				<wgs84Lat>37.4959518369</wgs84Lat>
				<wgs84Lon>126.8430582234</wgs84Lon>
			</item>
			<item>
				<dutyName>덕산정형외과의원</dutyName>
				<dutyTel1>02-3666-9111</dutyTel1>
				<dutyTime1c>1800</dutyTime1c>
				<dutyTime1s>930</dutyTime1s>
				<wgs84Lat>37.4954522863</wgs84Lat>
				<wgs84Lon>126.8441222457</wgs84Lon>
			</item>
			<item>
				<dutyName>덕인내과의원</dutyName>
				<dutyTel1>02-858-1139</dutyTel1>
				<dutyTime1c>1700</dutyTime1c>
				<dutyTime1s>800</dutyTime1s>
				<wgs84Lat>37.4922250282746</wgs84Lat>
				<wgs84Lon>126.876295651583</wgs84Lon>
			</item>
			<item>
				<dutyName>덴타피아치과의원</dutyName>
				<dutyTel1>02-2685-2828</dutyTel1>
				<dutyTime1c>1830</dutyTime1c>
				<dutyTime1s>1000</dutyTime1s>
				<wgs84Lat>37.4933042926301</wgs84Lat>
				<wgs84Lon>126.858447108782</wgs84Lon>
			</item>
			<item>
				<dutyName>동명한의원</dutyName>
				<dutyTel1>02-2618-9975</dutyTel1>
				<dutyTime1c>1800</dutyTime1c>
				<dutyTime1s>930</dutyTime1s>
				<wgs84Lat>37.5058461144156</wgs84Lat>
				<wgs84Lon>126.858301285443</wgs84Lon>
			</item>
			<item>
				<dutyName>동신한의원</dutyName>
				<dutyTel1>02-2677-3647</dutyTel1>
				<dutyTime1c>1900</dutyTime1c>
				<dutyTime1s>900</dutyTime1s>
				<wgs84Lat>37.5073711755605</wgs84Lat>
				<wgs84Lon>126.885388253871</wgs84Lon>
			</item>
			<item>
				<dutyName>동안피부과의원</dutyName>
				<dutyTel1>02-3283-7582</dutyTel1>
				<dutyTime1c>2030</dutyTime1c>
				<dutyTime1s>930</dutyTime1s>
				<wgs84Lat>37.5056834282984</wgs84Lat>
				<wgs84Lon>126.889958888356</wgs84Lon>
			</item>
			<item>
				<dutyName>동의보감한의원</dutyName>
				<dutyTel1>02-2686-7572</dutyTel1>
				<dutyTime1c>2000</dutyTime1c>
				<dutyTime1s>1000</dutyTime1s>
				<wgs84Lat>37.4933578535605</wgs84Lat>
				<wgs84Lon>126.858030875082</wgs84Lon>
			</item>
			<item>
				<dutyName>동의한의원</dutyName>
				<dutyTel1>02-2617-9616</dutyTel1>
				<dutyTime1c>1900</dutyTime1c>
				<dutyTime1s>930</dutyTime1s>
				<wgs84Lat>37.5030509679226</wgs84Lat>
				<wgs84Lon>126.850797118015</wgs84Lon>
			</item>
			<item>
				<dutyName>동진가정의학과의원</dutyName>
				<dutyTel1>02-2617-4527</dutyTel1>
				<dutyTime1c>1945</dutyTime1c>
				<dutyTime1s>800</dutyTime1s>
				<wgs84Lat>37.4972364069572</wgs84Lat>
				<wgs84Lon>126.829103932994</wgs84Lon>
			</item>
			<item>
				<dutyName>동한당한의원</dutyName>
				<dutyTel1>02-2683-3424</dutyTel1>
				<dutyTime1c>1800</dutyTime1c>
				<dutyTime1s>900</dutyTime1s>
				<wgs84Lat>37.4924023087</wgs84Lat>
				<wgs84Lon>126.8433867923</wgs84Lon>
			</item>
			<item>
				<dutyName>등보당한의원</dutyName>
				<dutyTel1>02-2687-1500</dutyTel1>
				<dutyTime1c>1900</dutyTime1c>
				<dutyTime1s>930</dutyTime1s>
				<wgs84Lat>37.4949156025245</wgs84Lat>
				<wgs84Lon>126.858971679763</wgs84Lon>
			</item>
			<item>
				<dutyName>디에이치(DH)대항외과의원</dutyName>
				<dutyTel1>02-3439-8114</dutyTel1>
				<dutyTime1c>1800</dutyTime1c>
				<dutyTime1s>900</dutyTime1s>
				<wgs84Lat>37.5094633232895</wgs84Lat>
				<wgs84Lon>126.887359996858</wgs84Lon>
			</item>
			<item>
				<dutyName>라인업의원</dutyName>
				<dutyTel1>02-858-5482</dutyTel1>
				<dutyTime1c>2000</dutyTime1c>
				<dutyTime1s>1000</dutyTime1s>
				<wgs84Lat>37.5069721846405</wgs84Lat>
				<wgs84Lon>126.890317940406</wgs84Lon>
			</item>
			<item>
				<dutyName>라파한의원</dutyName>
				<dutyTel1>02-6092-1075</dutyTel1>
				<dutyTime1c>2000</dutyTime1c>
				<dutyTime1s>900</dutyTime1s>
				<wgs84Lat>37.5082697164948</wgs84Lat>
				<wgs84Lon>126.886651539373</wgs84Lon>
			</item>
			<item>
				<dutyName>라플란트치과의원</dutyName>
				<dutyTel1>02-2615-7528</dutyTel1>
				<dutyTime1c>1900</dutyTime1c>
				<dutyTime1s>930</dutyTime1s>
				<wgs84Lat>37.5030768708226</wgs84Lat>
				<wgs84Lon>126.862489872658</wgs84Lon>
			</item>
			<item>
				<dutyName>로이치과의원</dutyName>
				<dutyTel1>02-855-6322</dutyTel1>
				<dutyTime1c>1900</dutyTime1c>
				<dutyTime1s>1000</dutyTime1s>
				<wgs84Lat>37.4859238008</wgs84Lat>
				<wgs84Lon>126.89733843</wgs84Lon>
			</item>
			<item>
				<dutyName>루덴서울치과의원</dutyName>
				<dutyTel1>02-2632-2879</dutyTel1>
				<dutyTime1c>2030</dutyTime1c>
				<dutyTime1s>1000</dutyTime1s>
				<wgs84Lat>37.50310846525</wgs84Lat>
				<wgs84Lon>126.879007207146</wgs84Lon>
			</item>
			<item>
				<dutyName>리앤리가정의학과의원</dutyName>
				<dutyTel1>02-833-1751</dutyTel1>
				<dutyTime1c>1900</dutyTime1c>
				<dutyTime1s>930</dutyTime1s>
				<wgs84Lat>37.5103052969049</wgs84Lat>
				<wgs84Lon>126.889706757792</wgs84Lon>
			</item>
			<item>
				<dutyName>마루치과병원</dutyName>
				<dutyTel1>02-864-2875</dutyTel1>
				<dutyTime1c>2100</dutyTime1c>
				<dutyTime1s>930</dutyTime1s>
				<wgs84Lat>37.5063359676709</wgs84Lat>
				<wgs84Lon>126.892135068189</wgs84Lon>
			</item>
			<item>
				<dutyName>마음과마음정신과의원</dutyName>
				<dutyTel1>02-856-4975</dutyTel1>
				<dutyTime1c>1830</dutyTime1c>
				<dutyTime1s>930</dutyTime1s>
				<wgs84Lat>37.4893165593692</wgs84Lat>
				<wgs84Lon>126.890829821944</wgs84Lon>
			</item>
			<item>
				<dutyName>마음심박종찬한의원</dutyName>
				<dutyTel1>02-3667-8051</dutyTel1>
				<dutyTime1c>2100</dutyTime1c>
				<dutyTime1s>900</dutyTime1s>
				<wgs84Lat>37.5033376426316</wgs84Lat>
				<wgs84Lon>126.881105893429</wgs84Lon>
			</item>
			<item>
				<dutyName>맑은미소치과의원</dutyName>
				<dutyTel1>02-2686-0028</dutyTel1>
				<dutyTime1c>1900</dutyTime1c>
				<dutyTime1s>1000</dutyTime1s>
				<wgs84Lat>37.4859738125734</wgs84Lat>
				<wgs84Lon>126.838836773766</wgs84Lon>
			</item>
			<item>
				<dutyName>맑은성모이비인후과의원</dutyName>
				<dutyTel1>02-2611-5566</dutyTel1>
				<dutyTime1c>1900</dutyTime1c>
				<dutyTime1s>900</dutyTime1s>
				<wgs84Lat>37.493144850757</wgs84Lat>
				<wgs84Lon>126.857989002291</wgs84Lon>
			</item>
			<item>
				<dutyName>맑은숲한초당한의원</dutyName>
				<dutyTel1>02-2068-7070</dutyTel1>
				<dutyTime1c>2030</dutyTime1c>
				<dutyTime1s>930</dutyTime1s>
				<wgs84Lat>37.5093015891155</wgs84Lat>
				<wgs84Lon>126.887821702085</wgs84Lon>
			</item>
			<item>
				<dutyName>맑은휴의원</dutyName>
				<dutyTel1>02-2681-3696</dutyTel1>
				<dutyTime1c>2000</dutyTime1c>
				<dutyTime1s>1000</dutyTime1s>
				<wgs84Lat>37.506353433</wgs84Lat>
				<wgs84Lon>126.860612052</wgs84Lon>
			</item>
			<item>
				<dutyName>맨남성의원</dutyName>
				<dutyTel1>02-3439-7542</dutyTel1>
				<dutyTime1c>1900</dutyTime1c>
				<dutyTime1s>900</dutyTime1s>
				<wgs84Lat>37.5090485843712</wgs84Lat>
				<wgs84Lon>126.886987230747</wgs84Lon>
			</item>
			<item>
				<dutyName>메디서울이비인후과의원</dutyName>
				<dutyTel1>02-2619-3119</dutyTel1>
				<dutyTime1c>1930</dutyTime1c>
				<dutyTime1s>900</dutyTime1s>
				<wgs84Lat>37.5022326422077</wgs84Lat>
				<wgs84Lon>126.847799502568</wgs84Lon>
			</item>
			<item>
				<dutyName>메디컬오한의원</dutyName>
				<dutyTel1>02-868-1075</dutyTel1>
				<dutyTime1c>1900</dutyTime1c>
				<dutyTime1s>930</dutyTime1s>
				<wgs84Lat>37.4835687568</wgs84Lat>
				<wgs84Lon>126.8955009574</wgs84Lon>
			</item>
			<item>
				<dutyName>명성모이비인후과의원</dutyName>
				<dutyTel1>02-3439-8275</dutyTel1>
				<dutyTime1c>1930</dutyTime1c>
				<dutyTime1s>930</dutyTime1s>
				<wgs84Lat>37.5090485844</wgs84Lat>
				<wgs84Lon>126.8869872307</wgs84Lon>
			</item>
			<item>
				<dutyName>명소아청소년과의원</dutyName>
				<dutyTel1>02-858-8275</dutyTel1>
				<dutyTime1c>1800</dutyTime1c>
				<dutyTime1s>900</dutyTime1s>
				<wgs84Lat>37.4897678222002</wgs84Lat>
				<wgs84Lon>126.89150131697</wgs84Lon>
			</item>
			<item>
				<dutyName>명인경희한의원</dutyName>
				<dutyTel1>02-534-8295</dutyTel1>
				<dutyTime1c>2100</dutyTime1c>
				<dutyTime1s>900</dutyTime1s>
				<wgs84Lat>37.4947115279</wgs84Lat>
				<wgs84Lon>126.8399804779</wgs84Lon>
			</item>
			<item>
				<dutyName>목동현대요양병원</dutyName>
				<dutyTel1>02-3666-1122</dutyTel1>
				<dutyTime1c>1800</dutyTime1c>
				<dutyTime1s>900</dutyTime1s>
				<wgs84Lat>37.5055531183728</wgs84Lat>
				<wgs84Lon>126.860423535471</wgs84Lon>
			</item>
			<item>
				<dutyName>문희식내과의원</dutyName>
				<dutyTel1>02-2612-2730</dutyTel1>
				<dutyTime1c>1900</dutyTime1c>
				<dutyTime1s>900</dutyTime1s>
				<wgs84Lat>37.4960241754</wgs84Lat>
				<wgs84Lon>126.8432525757</wgs84Lon>
			</item>
			<item>
				<dutyName>뮤즈의원</dutyName>
				<dutyTel1>02-2631-8088</dutyTel1>
				<dutyTime1c>2100</dutyTime1c>
				<dutyTime1s>1000</dutyTime1s>
				<wgs84Lat>37.5093050318719</wgs84Lat>
				<wgs84Lon>126.887654304888</wgs84Lon>
			</item>
			<item>
				<dutyName>미드치과의원</dutyName>
				<dutyTel1>02-2611-2875</dutyTel1>
				<dutyTime1c>1800</dutyTime1c>
				<dutyTime1s>930</dutyTime1s>
				<wgs84Lat>37.4976441961943</wgs84Lat>
				<wgs84Lon>126.856315779905</wgs84Lon>
			</item>
			<item>
				<dutyName>미래사랑산부인과의원</dutyName>
				<dutyTel1>02-837-7511</dutyTel1>
				<dutyTime1c>1900</dutyTime1c>
				<dutyTime1s>900</dutyTime1s>
				<wgs84Lat>37.4911027777778</wgs84Lat>
				<wgs84Lon>126.89345</wgs84Lon>
			</item>
			<item>
				<dutyName>미본의원</dutyName>
				<dutyTel1>02-855-3366</dutyTel1>
				<dutyTime1c>1800</dutyTime1c>
				<dutyTime1s>1000</dutyTime1s>
				<wgs84Lat>37.4937006512206</wgs84Lat>
				<wgs84Lon>126.884907071508</wgs84Lon>
			</item>
			<item>
				<dutyName>미사랑치과의원</dutyName>
				<dutyTel1>02-2634-2652</dutyTel1>
				<dutyTime1c>1830</dutyTime1c>
				<dutyTime1s>930</dutyTime1s>
				<wgs84Lat>37.5017181562342</wgs84Lat>
				<wgs84Lon>126.877211306028</wgs84Lon>
			</item>
			<item>
				<dutyName>미서울치과의원</dutyName>
				<dutyTel1>02-855-2833</dutyTel1>
				<dutyTime1c>1800</dutyTime1c>
				<dutyTime1s>930</dutyTime1s>
				<wgs84Lat>37.4958514098214</wgs84Lat>
				<wgs84Lon>126.888735053928</wgs84Lon>
			</item>
			<item>
				<dutyName>미준치과의원</dutyName>
				<dutyTel1>02-861-7528</dutyTel1>
				<dutyTime1c>1900</dutyTime1c>
				<dutyTime1s>1000</dutyTime1s>
				<wgs84Lat>37.485153807</wgs84Lat>
				<wgs84Lon>126.8988093571</wgs84Lon>
			</item>
			<item>
				<dutyName>미치과의원</dutyName>
				<dutyTel1>02-2611-2804</dutyTel1>
				<dutyTime1c>1830</dutyTime1c>
				<dutyTime1s>1000</dutyTime1s>
				<wgs84Lat>37.4915897077573</wgs84Lat>
				<wgs84Lon>126.856234038295</wgs84Lon>
			</item>
			<item>
				<dutyName>민영규치과의원</dutyName>
				<dutyTel1>02-854-2875</dutyTel1>
				<dutyTime1c>1830</dutyTime1c>
				<dutyTime1s>930</dutyTime1s>
				<wgs84Lat>37.490683481161</wgs84Lat>
				<wgs84Lon>126.884301113742</wgs84Lon>
			</item>
			<item>
				<dutyName>민전산부인과의원</dutyName>
				<dutyTel1>02-2685-3388</dutyTel1>
				<dutyTime1c>1800</dutyTime1c>
				<dutyTime1s>900</dutyTime1s>
				<wgs84Lat>37.497056644472</wgs84Lat>
				<wgs84Lon>126.855924993523</wgs84Lon>
			</item>
			<item>
				<dutyName>바른몸한의원</dutyName>
				<dutyTel1>02-868-0333</dutyTel1>
				<dutyTime1c>1900</dutyTime1c>
				<dutyTime1s>930</dutyTime1s>
				<wgs84Lat>37.4901118717056</wgs84Lat>
				<wgs84Lon>126.889562228327</wgs84Lon>
			</item>
			<item>
				<dutyName>바른정형외과의원</dutyName>
				<dutyTel1>02-2060-0075</dutyTel1>
				<dutyTime1c>1900</dutyTime1c>
				<dutyTime1s>900</dutyTime1s>
				<wgs84Lat>37.4925495616786</wgs84Lat>
				<wgs84Lon>126.84338054487</wgs84Lon>
			</item>
			<item>
				<dutyName>바른치과의원</dutyName>
				<dutyTel1>02-839-2872</dutyTel1>
				<dutyTime1c>1800</dutyTime1c>
				<dutyTime1s>1030</dutyTime1s>
				<wgs84Lat>37.4957694950131</wgs84Lat>
				<wgs84Lon>126.88881659535</wgs84Lon>
			</item>
			<item>
				<dutyName>바이오란트치과의원</dutyName>
				<dutyTel1>02-3439-7500</dutyTel1>
				<dutyTime1c>1900</dutyTime1c>
				<dutyTime1s>930</dutyTime1s>
				<wgs84Lat>37.5094204464906</wgs84Lat>
				<wgs84Lon>126.887744611876</wgs84Lon>
			</item>
			<item>
				<dutyName>박산부인과의원</dutyName>
				<dutyTel1>02-862-0865</dutyTel1>
				<dutyTime1c>1800</dutyTime1c>
				<dutyTime1s>900</dutyTime1s>
				<wgs84Lat>37.484832053766</wgs84Lat>
				<wgs84Lon>126.885861412833</wgs84Lon>
			</item>
			<item>
				<dutyName>박철수내과의원</dutyName>
				<dutyTel1>02-2681-7575</dutyTel1>
				<dutyTime1c>1900</dutyTime1c>
				<dutyTime1s>900</dutyTime1s>
				<wgs84Lat>37.4882138888889</wgs84Lat>
				<wgs84Lon>126.856511111111</wgs84Lon>
			</item>
			<item>
				<dutyName>박치과의원</dutyName>
				<dutyTel1>02-3281-5434</dutyTel1>
				<dutyTime1c>1830</dutyTime1c>
				<dutyTime1s>1000</dutyTime1s>
				<wgs84Lat>37.4847427449158</wgs84Lat>
				<wgs84Lon>126.886560932377</wgs84Lon>
			</item>
			<item>
				<dutyName>박현수이비인후과의원</dutyName>
				<dutyTel1>02-2688-2386</dutyTel1>
				<dutyTime1c>1700</dutyTime1c>
				<dutyTime1s>950</dutyTime1s>
				<wgs84Lat>37.4865115886057</wgs84Lat>
				<wgs84Lon>126.856198542387</wgs84Lon>
			</item>
			<item>
				<dutyName>밝은이안과의원</dutyName>
				<dutyTel1>02-2615-0075</dutyTel1>
				<dutyTime1c>1830</dutyTime1c>
				<dutyTime1s>900</dutyTime1s>
				<wgs84Lat>37.4957385730852</wgs84Lat>
				<wgs84Lon>126.842592787849</wgs84Lon>
			</item>
			<item>
				<dutyName>배남준치과의원</dutyName>
				<dutyTel1>02-2683-8053</dutyTel1>
				<dutyTime1c>1800</dutyTime1c>
				<dutyTime1s>930</dutyTime1s>
				<wgs84Lat>37.4880076277</wgs84Lat>
				<wgs84Lon>126.8564941629</wgs84Lon>
			</item>
			<item>
				<dutyName>백두산한의원</dutyName>
				<dutyTel1>02-2682-8082</dutyTel1>
				<dutyTime1c>1900</dutyTime1c>
				<dutyTime1s>930</dutyTime1s>
				<wgs84Lat>37.5026998932143</wgs84Lat>
				<wgs84Lon>126.844066486236</wgs84Lon>
			</item>
			<item>
				<dutyName>백상정신과의원</dutyName>
				<dutyTel1>02-2686-6449</dutyTel1>
				<dutyTime1c>1830</dutyTime1c>
				<dutyTime1s>930</dutyTime1s>
				<wgs84Lat>37.4979836532941</wgs84Lat>
				<wgs84Lon>126.856871503702</wgs84Lon>
			</item>
			<item>
				<dutyName>백제한의원</dutyName>
				<dutyTel1>02-2066-5432</dutyTel1>
				<dutyTime1c>1830</dutyTime1c>
				<dutyTime1s>930</dutyTime1s>
				<wgs84Lat>37.5037383637344</wgs84Lat>
				<wgs84Lon>126.862148690412</wgs84Lon>
			</item>
			<item>
				<dutyName>버드한의원</dutyName>
				<dutyTel1>02-866-6600</dutyTel1>
				<dutyTime1c>1800</dutyTime1c>
				<dutyTime1s>1000</dutyTime1s>
				<wgs84Lat>37.4897790600739</wgs84Lat>
				<wgs84Lon>126.884487929834</wgs84Lon>
			</item>
			<item>
				<dutyName>베스트내과의원</dutyName>
				<dutyTel1>02-562-8656</dutyTel1>
				<dutyTime1c>1800</dutyTime1c>
				<dutyTime1s>900</dutyTime1s>
				<wgs84Lat>37.4999888817737</wgs84Lat>
				<wgs84Lon>126.884096746679</wgs84Lon>
			</item>
			<item>
				<dutyName>베스트맥의원</dutyName>
				<dutyTel1>02-871-8791</dutyTel1>
				<dutyTime1c>1900</dutyTime1c>
				<dutyTime1s>900</dutyTime1s>
				<wgs84Lat>37.4835687568318</wgs84Lat>
				<wgs84Lon>126.895500957442</wgs84Lon>
			</item>
			<item>
				<dutyName>베일리이비인후과의원</dutyName>
				<dutyTel1>02-2060-1525</dutyTel1>
				<dutyTime1c>1900</dutyTime1c>
				<dutyTime1s>900</dutyTime1s>
				<wgs84Lat>37.4867114278821</wgs84Lat>
				<wgs84Lon>126.838331902177</wgs84Lon>
			</item>
			<item>
				<dutyName>별소아청소년과의원</dutyName>
				<dutyTel1>02-2066-1611</dutyTel1>
				<dutyTime1c>1900</dutyTime1c>
				<dutyTime1s>900</dutyTime1s>
				<wgs84Lat>37.4920934720895</wgs84Lat>
				<wgs84Lon>126.855572679042</wgs84Lon>
			</item>
			<item>
				<dutyName>보민한의원</dutyName>
				<dutyTel1>02-838-0028</dutyTel1>
				<dutyTime1c>2100</dutyTime1c>
				<dutyTime1s>900</dutyTime1s>
				<wgs84Lat>37.4889194951175</wgs84Lat>
				<wgs84Lon>126.890151942148</wgs84Lon>
			</item>
			<item>
				<dutyName>보스톤미치과의원</dutyName>
				<dutyTel1>02-2611-7691</dutyTel1>
				<dutyTime1c>1830</dutyTime1c>
				<dutyTime1s>1000</dutyTime1s>
				<wgs84Lat>37.4964172904454</wgs84Lat>
				<wgs84Lon>126.843860909657</wgs84Lon>
			</item>
			<item>
				<dutyName>본내과의원</dutyName>
				<dutyTel1>02-2682-3303</dutyTel1>
				<dutyTime1c>1830</dutyTime1c>
				<dutyTime1s>900</dutyTime1s>
				<wgs84Lat>37.5026751367878</wgs84Lat>
				<wgs84Lon>126.849997163526</wgs84Lon>
			</item>
			<item>
				<dutyName>본한의원</dutyName>
				<dutyTel1>02-858-1675</dutyTel1>
				<dutyTime1c>1900</dutyTime1c>
				<dutyTime1s>900</dutyTime1s>
				<wgs84Lat>37.4900781023614</wgs84Lat>
				<wgs84Lon>126.888137517532</wgs84Lon>
			</item>
			<item>
				<dutyName>부일한의원</dutyName>
				<dutyTel1>02-381-8274</dutyTel1>
				<dutyTime1c>1700</dutyTime1c>
				<dutyTime1s>900</dutyTime1s>
				<wgs84Lat>37.4948772596</wgs84Lat>
				<wgs84Lon>126.8829647816</wgs84Lon>
			</item>
			<item>
				<dutyName>비타민치과의원</dutyName>
				<dutyTel1>02-2614-7522</dutyTel1>
				<dutyTime1c>1900</dutyTime1c>
				<dutyTime1s>1000</dutyTime1s>
				<wgs84Lat>37.4913836242</wgs84Lat>
				<wgs84Lon>126.8556916454</wgs84Lon>
			</item>
			<item>
				<dutyName>사단법인한국자동차후유장애인협회세움제일의원</dutyName>
				<dutyTel1>02-6342-8275</dutyTel1>
				<dutyTime1c>1900</dutyTime1c>
				<dutyTime1s>900</dutyTime1s>
				<wgs84Lat>37.5061693965</wgs84Lat>
				<wgs84Lon>126.8766045715</wgs84Lon>
			</item>
			<item>
				<dutyName>사람중심치과의원</dutyName>
				<dutyTel1>02-3283-2804</dutyTel1>
				<dutyTime1c>1830</dutyTime1c>
				<dutyTime1s>930</dutyTime1s>
				<wgs84Lat>37.4847107236</wgs84Lat>
				<wgs84Lon>126.8871098313</wgs84Lon>
			</item>
			<item>
				<dutyName>사랑의피부과의원</dutyName>
				<dutyTel1>02-855-3591</dutyTel1>
				<dutyTime1c>1800</dutyTime1c>
				<dutyTime1s>900</dutyTime1s>
				<wgs84Lat>37.4951321466</wgs84Lat>
				<wgs84Lon>126.8894100706</wgs84Lon>
			</item>
			<item>
				<dutyName>삼성드림안과의원</dutyName>
				<dutyTel1>02-2111-8300</dutyTel1>
				<dutyTime1c>1930</dutyTime1c>
				<dutyTime1s>1000</dutyTime1s>
				<wgs84Lat>37.507047906629</wgs84Lat>
				<wgs84Lon>126.890358543837</wgs84Lon>
			</item>
			<item>
				<dutyName>삼성리더스치과의원</dutyName>
				<dutyTel1>02-6739-2828</dutyTel1>
				<dutyTime1c>1830</dutyTime1c>
				<dutyTime1s>930</dutyTime1s>
				<wgs84Lat>37.503490232393</wgs84Lat>
				<wgs84Lon>126.862610574667</wgs84Lon>
			</item>
			<item>
				<dutyName>삼성미래여성병원</dutyName>
				<dutyTel1>02-2682-2100</dutyTel1>
				<dutyTime1c>2000</dutyTime1c>
				<dutyTime1s>900</dutyTime1s>
				<wgs84Lat>37.4912913289041</wgs84Lat>
				<wgs84Lon>126.840388959099</wgs84Lon>
			</item>
			<item>
				<dutyName>삼성밝은안과의원</dutyName>
				<dutyTel1>02-859-0075</dutyTel1>
				<dutyTime1c>1830</dutyTime1c>
				<dutyTime1s>930</dutyTime1s>
				<wgs84Lat>37.4895909312178</wgs84Lat>
				<wgs84Lon>126.891184972087</wgs84Lon>
			</item>
			<item>
				<dutyName>삼성위드치과</dutyName>
				<dutyTel1>02-2028-2299</dutyTel1>
				<dutyTime1c>1900</dutyTime1c>
				<dutyTime1s>1000</dutyTime1s>
				<wgs84Lat>37.4860584050583</wgs84Lat>
				<wgs84Lon>126.894669827958</wgs84Lon>
			</item>
			<item>
				<dutyName>삼성정형외과의원</dutyName>
				<dutyTel1>02-2618-6611</dutyTel1>
				<dutyTime1c>1800</dutyTime1c>
				<dutyTime1s>900</dutyTime1s>
				<wgs84Lat>37.4915536803315</wgs84Lat>
				<wgs84Lon>126.85623860994</wgs84Lon>
			</item>
			<item>
				<dutyName>삼성키즈소아청소년과의원</dutyName>
				<dutyTel1>02-2681-3311</dutyTel1>
				<dutyTime1c>1800</dutyTime1c>
				<dutyTime1s>830</dutyTime1s>
				<wgs84Lat>37.486041912276</wgs84Lat>
				<wgs84Lon>126.838560740433</wgs84Lon>
			</item>
			<item>
				<dutyName>삼성편한내과의원</dutyName>
				<dutyTel1>02-853-8275</dutyTel1>
				<dutyTime1c>1900</dutyTime1c>
				<dutyTime1s>900</dutyTime1s>
				<wgs84Lat>37.4835327961</wgs84Lat>
				<wgs84Lon>126.8997522421</wgs84Lon>
			</item>
			<item>
				<dutyName>삼성한의원</dutyName>
				<dutyTel1>02-2615-0482</dutyTel1>
				<dutyTime1c>2000</dutyTime1c>
				<dutyTime1s>930</dutyTime1s>
				<wgs84Lat>37.5017819110738</wgs84Lat>
				<wgs84Lon>126.850442251432</wgs84Lon>
			</item>
			<item>
				<dutyName>상쾌한이비인후과의원</dutyName>
				<dutyTel1>02-865-5050</dutyTel1>
				<dutyTime1c>1900</dutyTime1c>
				<dutyTime1s>900</dutyTime1s>
				<wgs84Lat>37.4895221631</wgs84Lat>
				<wgs84Lon>126.8910104203</wgs84Lon>
			</item>
			<item>
				<dutyName>새날한의원</dutyName>
				<dutyTel1>02-851-7986</dutyTel1>
				<dutyTime1c>1900</dutyTime1c>
				<dutyTime1s>1000</dutyTime1s>
				<wgs84Lat>37.4906007656715</wgs84Lat>
				<wgs84Lon>126.884482161946</wgs84Lon>
			</item>
			<item>
				<dutyName>새봄정신건강의학과의원</dutyName>
				<dutyTel1>02-2689-7182</dutyTel1>
				<dutyTime1c>1900</dutyTime1c>
				<dutyTime1s>900</dutyTime1s>
				<wgs84Lat>37.4940931441049</wgs84Lat>
				<wgs84Lon>126.858353565987</wgs84Lon>
			</item>
			<item>
				<dutyName>생기한의원</dutyName>
				<dutyTel1>02-3439-8575</dutyTel1>
				<dutyTime1c>2000</dutyTime1c>
				<dutyTime1s>1030</dutyTime1s>
				<wgs84Lat>37.5094204421333</wgs84Lat>
				<wgs84Lon>126.887740087769</wgs84Lon>
			</item>
			<item>
				<dutyName>서덕한의원</dutyName>
				<dutyTel1>02-857-7533</dutyTel1>
				<dutyTime1c>1900</dutyTime1c>
				<dutyTime1s>930</dutyTime1s>
				<wgs84Lat>37.4887518404</wgs84Lat>
				<wgs84Lon>126.8920337159</wgs84Lon>
			</item>
			<item>
				<dutyName>서울WE좋은내과의원</dutyName>
				<dutyTel1>02-3281-8787</dutyTel1>
				<dutyTime1c>2100</dutyTime1c>
				<dutyTime1s>900</dutyTime1s>
				<wgs84Lat>37.48257511414</wgs84Lat>
				<wgs84Lon>126.900561377163</wgs84Lon>
			</item>
			<item>
				<dutyName>서울e치과의원</dutyName>
				<dutyTel1>02-2612-2835</dutyTel1>
				<dutyTime1c>1830</dutyTime1c>
				<dutyTime1s>930</dutyTime1s>
				<wgs84Lat>37.4860419123</wgs84Lat>
				<wgs84Lon>126.8385607404</wgs84Lon>
			</item>
			<item>
				<dutyName>서울가정의학과의원</dutyName>
				<dutyTel1>02-863-6100</dutyTel1>
				<dutyTime1c>1830</dutyTime1c>
				<dutyTime1s>900</dutyTime1s>
				<wgs84Lat>37.4875688020492</wgs84Lat>
				<wgs84Lon>126.890880395737</wgs84Lon>
			</item>
			<item>
				<dutyName>서울경희한의원</dutyName>
				<dutyTel1>02-839-1010</dutyTel1>
				<dutyTime1c>1900</dutyTime1c>
				<dutyTime1s>900</dutyTime1s>
				<wgs84Lat>37.490267279893</wgs84Lat>
				<wgs84Lon>126.886214962304</wgs84Lon>
			</item>
			<item>
				<dutyName>서울남부구치소부속의원</dutyName>
				<dutyTel1>02-2611-8100</dutyTel1>
				<dutyTime1c>1800</dutyTime1c>
				<dutyTime1s>900</dutyTime1s>
				<wgs84Lat>37.4771489115761</wgs84Lat>
				<wgs84Lon>126.83720964521</wgs84Lon>
			</item>
			<item>
				<dutyName>서울내과의원</dutyName>
				<dutyTel1>02-830-8388</dutyTel1>
				<dutyTime1c>1800</dutyTime1c>
				<dutyTime1s>900</dutyTime1s>
				<wgs84Lat>37.4956914387139</wgs84Lat>
				<wgs84Lon>126.890054223651</wgs84Lon>
			</item>
			<item>
				<dutyName>서울드림정형외과의원</dutyName>
				<dutyTel1>02-2066-3060</dutyTel1>
				<dutyTime1c>1900</dutyTime1c>
				<dutyTime1s>900</dutyTime1s>
				<wgs84Lat>37.5067054043</wgs84Lat>
				<wgs84Lon>126.8595799288</wgs84Lon>
			</item>
			<item>
				<dutyName>서울미소그린치과의원</dutyName>
				<dutyTel1>02-865-2875</dutyTel1>
				<dutyTime1c>1830</dutyTime1c>
				<dutyTime1s>930</dutyTime1s>
				<wgs84Lat>37.4957359033211</wgs84Lat>
				<wgs84Lon>126.873476304906</wgs84Lon>
			</item>
			<item>
				<dutyName>서울본치과의원</dutyName>
				<dutyTel1>02-2615-2855</dutyTel1>
				<dutyTime1c>1830</dutyTime1c>
				<dutyTime1s>930</dutyTime1s>
				<wgs84Lat>37.4899212303</wgs84Lat>
				<wgs84Lon>126.8563819507</wgs84Lon>
			</item>
			<item>
				<dutyName>서울삼성내과의원</dutyName>
				<dutyTel1>02-854-3181</dutyTel1>
				<dutyTime1c>1830</dutyTime1c>
				<dutyTime1s>840</dutyTime1s>
				<wgs84Lat>37.4886694071551</wgs84Lat>
				<wgs84Lon>126.884827182306</wgs84Lon>
			</item>
			<item>
				<dutyName>서울송치과의원</dutyName>
				<dutyTel1>02-6929-2875</dutyTel1>
				<dutyTime1c>1800</dutyTime1c>
				<dutyTime1s>1000</dutyTime1s>
				<wgs84Lat>37.4937006512</wgs84Lat>
				<wgs84Lon>126.8849070715</wgs84Lon>
			</item>
			<item>
				<dutyName>서울수치과의원</dutyName>
				<dutyTel1>02-2677-0212</dutyTel1>
				<dutyTime1c>1800</dutyTime1c>
				<dutyTime1s>930</dutyTime1s>
				<wgs84Lat>37.5020045163771</wgs84Lat>
				<wgs84Lon>126.877926713097</wgs84Lon>
			</item>
			<item>
				<dutyName>서울시원한마취통증의학과의원</dutyName>
				<dutyTel1>02-1600-0075</dutyTel1>
				<dutyTime1c>2100</dutyTime1c>
				<dutyTime1s>930</dutyTime1s>
				<wgs84Lat>37.4825385012</wgs84Lat>
				<wgs84Lon>126.9002465263</wgs84Lon>
			</item>
			<item>
				<dutyName>서울아가온여성의원</dutyName>
				<dutyTel1>02-864-7500</dutyTel1>
				<dutyTime1c>2000</dutyTime1c>
				<dutyTime1s>800</dutyTime1s>
				<wgs84Lat>37.4836988755189</wgs84Lat>
				<wgs84Lon>126.899759371476</wgs84Lon>
			</item>
			<item>
				<dutyName>서울아산내과의원</dutyName>
				<dutyTel1>02-2633-7889</dutyTel1>
				<dutyTime1c>1830</dutyTime1c>
				<dutyTime1s>830</dutyTime1s>
				<wgs84Lat>37.5112013495509</wgs84Lat>
				<wgs84Lon>126.884468497353</wgs84Lon>
			</item>
			<item>
				<dutyName>서울안과의원</dutyName>
				<dutyTel1>02-2689-3353</dutyTel1>
				<dutyTime1c>1830</dutyTime1c>
				<dutyTime1s>930</dutyTime1s>
				<wgs84Lat>37.4939960434</wgs84Lat>
				<wgs84Lon>126.8582558076</wgs84Lon>
			</item>
			<item>
				<dutyName>서울에이스신경외과의원</dutyName>
				<dutyTel1>02-864-1175</dutyTel1>
				<dutyTime1c>1830</dutyTime1c>
				<dutyTime1s>830</dutyTime1s>
				<wgs84Lat>37.4887697121</wgs84Lat>
				<wgs84Lon>126.8842633388</wgs84Lon>
			</item>
			<item>
				<dutyName>서울에이스치과의원</dutyName>
				<dutyTel1>02-857-7576</dutyTel1>
				<dutyTime1c>1830</dutyTime1c>
				<dutyTime1s>930</dutyTime1s>
				<wgs84Lat>37.4903558822113</wgs84Lat>
				<wgs84Lon>126.892156284433</wgs84Lon>
			</item>
			<item>
				<dutyName>서울엔(N)비뇨기과의원</dutyName>
				<dutyTel1>02-6346-9595</dutyTel1>
				<dutyTime1c>2000</dutyTime1c>
				<dutyTime1s>900</dutyTime1s>
				<wgs84Lat>37.4835327960573</wgs84Lat>
				<wgs84Lon>126.899752242102</wgs84Lon>
			</item>
			<item>
				<dutyName>서울엘치과의원</dutyName>
				<dutyTel1>02-6678-8888</dutyTel1>
				<dutyTime1c>1700</dutyTime1c>
				<dutyTime1s>830</dutyTime1s>
				<wgs84Lat>37.4999888817737</wgs84Lat>
				<wgs84Lon>126.884096746679</wgs84Lon>
			</item>
			<item>
				<dutyName>서울연세안과의원</dutyName>
				<dutyTel1>02-862-0055</dutyTel1>
				<dutyTime1c>1900</dutyTime1c>
				<dutyTime1s>930</dutyTime1s>
				<wgs84Lat>37.4833926211781</wgs84Lat>
				<wgs84Lon>126.899859282784</wgs84Lon>
			</item>
			<item>
				<dutyName>서울올리브치과의원</dutyName>
				<dutyTel1>02-862-6499</dutyTel1>
				<dutyTime1c>1900</dutyTime1c>
				<dutyTime1s>1000</dutyTime1s>
				<wgs84Lat>37.4968974631</wgs84Lat>
				<wgs84Lon>126.8926055081</wgs84Lon>
			</item>
			<item>
				<dutyName>서울웃는얼굴치과의원</dutyName>
				<dutyTel1>02-859-7522</dutyTel1>
				<dutyTime1c>2000</dutyTime1c>
				<dutyTime1s>1000</dutyTime1s>
				<wgs84Lat>37.4833075674</wgs84Lat>
				<wgs84Lon>126.8935973166</wgs84Lon>
			</item>
			<item>
				<dutyName>서울이튼치과의원</dutyName>
				<dutyTel1>02-2683-3500</dutyTel1>
				<dutyTime1c>1900</dutyTime1c>
				<dutyTime1s>1000</dutyTime1s>
				<wgs84Lat>37.4933758862718</wgs84Lat>
				<wgs84Lon>126.858035343648</wgs84Lon>
			</item>
			<item>
				<dutyName>서울푸르덴치과의원</dutyName>
				<dutyTel1>02-2633-2804</dutyTel1>
				<dutyTime1c>1830</dutyTime1c>
				<dutyTime1s>930</dutyTime1s>
				<wgs84Lat>37.5112013496</wgs84Lat>
				<wgs84Lon>126.8844684974</wgs84Lon>
			</item>
			<item>
				<dutyName>서원필피부과의원</dutyName>
				<dutyTel1>02-853-9204</dutyTel1>
				<dutyTime1c>1800</dutyTime1c>
				<dutyTime1s>1000</dutyTime1s>
				<wgs84Lat>37.5011768995713</wgs84Lat>
				<wgs84Lon>126.882839948675</wgs84Lon>
			</item>
			<item>
				<dutyName>성모내과의원</dutyName>
				<dutyTel1>02-2066-2779</dutyTel1>
				<dutyTime1c>2000</dutyTime1c>
				<dutyTime1s>1100</dutyTime1s>
				<wgs84Lat>37.5025269698268</wgs84Lat>
				<wgs84Lon>126.849680798622</wgs84Lon>
			</item>
			<item>
				<dutyName>성신가정의학과의원</dutyName>
				<dutyTel1>02-2688-6411</dutyTel1>
				<dutyTime1c>1900</dutyTime1c>
				<dutyTime1s>900</dutyTime1s>
				<wgs84Lat>37.4861452509753</wgs84Lat>
				<wgs84Lon>126.854296299371</wgs84Lon>
			</item>
			<item>
				<dutyName>성심치과의원</dutyName>
				<dutyTel1>02-864-3068</dutyTel1>
				<dutyTime1c>1830</dutyTime1c>
				<dutyTime1s>930</dutyTime1s>
				<wgs84Lat>37.4989565101105</wgs84Lat>
				<wgs84Lon>126.886142993667</wgs84Lon>
			</item>
			<item>
				<dutyName>성심한의원</dutyName>
				<dutyTel1>02-868-8855</dutyTel1>
				<dutyTime1c>1830</dutyTime1c>
				<dutyTime1s>930</dutyTime1s>
				<wgs84Lat>37.4988844435647</wgs84Lat>
				<wgs84Lon>126.886159286369</wgs84Lon>
			</item>
			<item>
				<dutyName>성심한의원</dutyName>
				<dutyTel1>02-866-0317</dutyTel1>
				<dutyTime1c>1800</dutyTime1c>
				<dutyTime1s>1000</dutyTime1s>
				<wgs84Lat>37.4989060738973</wgs84Lat>
				<wgs84Lon>126.886156620295</wgs84Lon>
			</item>
			<item>
				<dutyName>성재의원</dutyName>
				<dutyTel1>02-2625-7533</dutyTel1>
				<dutyTime1c>1900</dutyTime1c>
				<dutyTime1s>800</dutyTime1s>
				<wgs84Lat>37.4949113898591</wgs84Lat>
				<wgs84Lon>126.830811376991</wgs84Lon>
			</item>
			<item>
				<dutyName>세브란스치과의원</dutyName>
				<dutyTel1>02-854-0028</dutyTel1>
				<dutyTime1c>1830</dutyTime1c>
				<dutyTime1s>930</dutyTime1s>
				<wgs84Lat>37.4884129684015</wgs84Lat>
				<wgs84Lon>126.884327230042</wgs84Lon>
			</item>
			<item>
				<dutyName>세진내과의원</dutyName>
				<dutyTel1>02-851-4587</dutyTel1>
				<dutyTime1c>1800</dutyTime1c>
				<dutyTime1s>800</dutyTime1s>
				<wgs84Lat>37.4957796045341</wgs84Lat>
				<wgs84Lon>126.889020109632</wgs84Lon>
			</item>
			<item>
				<dutyName>소망치과의원</dutyName>
				<dutyTel1>02-858-0973</dutyTel1>
				<dutyTime1c>1800</dutyTime1c>
				<dutyTime1s>900</dutyTime1s>
				<wgs84Lat>37.4920155580164</wgs84Lat>
				<wgs84Lon>126.875809199061</wgs84Lon>
			</item>
			<item>
				<dutyName>소생한의원</dutyName>
				<dutyTel1>02-2684-3375</dutyTel1>
				<dutyTime1c>1800</dutyTime1c>
				<dutyTime1s>930</dutyTime1s>
				<wgs84Lat>37.4954987808927</wgs84Lat>
				<wgs84Lon>126.844242795254</wgs84Lon>
			</item>
			<item>
				<dutyName>솔로몬치과의원</dutyName>
				<dutyTel1>02-2612-9075</dutyTel1>
				<dutyTime1c>1830</dutyTime1c>
				<dutyTime1s>930</dutyTime1s>
				<wgs84Lat>37.4924275475787</wgs84Lat>
				<wgs84Lon>126.843400329457</wgs84Lon>
			</item>
			<item>
				<dutyName>송기산내과의원</dutyName>
				<dutyTel1>02-2617-7538</dutyTel1>
				<dutyTime1c>1900</dutyTime1c>
				<dutyTime1s>900</dutyTime1s>
				<wgs84Lat>37.4912834627</wgs84Lat>
				<wgs84Lon>126.8421859958</wgs84Lon>
			</item>
			<item>
				<dutyName>송미영가정의학과의원</dutyName>
				<dutyTel1>02-2683-5752</dutyTel1>
				<dutyTime1c>1900</dutyTime1c>
				<dutyTime1s>900</dutyTime1s>
				<wgs84Lat>37.5014931661076</wgs84Lat>
				<wgs84Lon>126.865314884234</wgs84Lon>
			</item>
			<item>
				<dutyName>송소아과의원</dutyName>
				<dutyTel1>02-867-7519</dutyTel1>
				<dutyTime1c>1800</dutyTime1c>
				<dutyTime1s>930</dutyTime1s>
				<wgs84Lat>37.4923115240704</wgs84Lat>
				<wgs84Lon>126.876295507191</wgs84Lon>
			</item>
			<item>
				<dutyName>송영훈산부인과의원</dutyName>
				<dutyTel1>02-864-8985</dutyTel1>
				<dutyTime1c>1800</dutyTime1c>
				<dutyTime1s>900</dutyTime1s>
				<wgs84Lat>37.4958704150118</wgs84Lat>
				<wgs84Lon>126.888764818017</wgs84Lon>
			</item>
			<item>
				<dutyName>수치과의원</dutyName>
				<dutyTel1>02-867-2829</dutyTel1>
				<dutyTime1c>1800</dutyTime1c>
				<dutyTime1s>930</dutyTime1s>
				<wgs84Lat>37.4895979654169</wgs84Lat>
				<wgs84Lon>126.891146019284</wgs84Lon>
			</item>
			<item>
				<dutyName>수피부과의원</dutyName>
				<dutyTel1>02-2613-9075</dutyTel1>
				<dutyTime1c>1900</dutyTime1c>
				<dutyTime1s>900</dutyTime1s>
				<wgs84Lat>37.4907674254</wgs84Lat>
				<wgs84Lon>126.8557651993</wgs84Lon>
			</item>
			<item>
				<dutyName>수한의원</dutyName>
				<dutyTel1>02-854-2777</dutyTel1>
				<dutyTime1c>2200</dutyTime1c>
				<dutyTime1s>1000</dutyTime1s>
				<wgs84Lat>37.4910671280694</wgs84Lat>
				<wgs84Lon>126.889764358893</wgs84Lon>
			</item>
			<item>
				<dutyName>슈퍼스타피부과의원</dutyName>
				<dutyTel1>02-859-7579</dutyTel1>
				<dutyTime1c>2000</dutyTime1c>
				<dutyTime1s>1100</dutyTime1s>
				<wgs84Lat>37.4835327960573</wgs84Lat>
				<wgs84Lon>126.899752242102</wgs84Lon>
			</item>
			<item>
				<dutyName>시민치과의원</dutyName>
				<dutyTel1>02-862-1508</dutyTel1>
				<dutyTime1c>1800</dutyTime1c>
				<dutyTime1s>900</dutyTime1s>
				<wgs84Lat>37.4904039202483</wgs84Lat>
				<wgs84Lon>126.893445260151</wgs84Lon>
			</item>
			<item>
				<dutyName>신도림경희한의원</dutyName>
				<dutyTel1>02-3439-7510</dutyTel1>
				<dutyTime1c>2000</dutyTime1c>
				<dutyTime1s>1000</dutyTime1s>
				<wgs84Lat>37.5099111964091</wgs84Lat>
				<wgs84Lon>126.88837724724</wgs84Lon>
			</item>
			<item>
				<dutyName>신도림모아치과의원</dutyName>
				<dutyTel1>02-3439-7522</dutyTel1>
				<dutyTime1c>2100</dutyTime1c>
				<dutyTime1s>1000</dutyTime1s>
				<wgs84Lat>37.5095465771605</wgs84Lat>
				<wgs84Lon>126.887735372207</wgs84Lon>
			</item>
			<item>
				<dutyName>신도림신경외과의원</dutyName>
				<dutyTel1>02-2637-2281</dutyTel1>
				<dutyTime1c>1900</dutyTime1c>
				<dutyTime1s>900</dutyTime1s>
				<wgs84Lat>37.5090485844</wgs84Lat>
				<wgs84Lon>126.8869872307</wgs84Lon>
			</item>
			<item>
				<dutyName>신도림하나이비인후과의원</dutyName>
				<dutyTel1>02-8595011</dutyTel1>
				<dutyTime1c>2000</dutyTime1c>
				<dutyTime1s>900</dutyTime1s>
				<wgs84Lat>37.5056094357</wgs84Lat>
				<wgs84Lon>126.8898334376</wgs84Lon>
			</item>
			<item>
				<dutyName>신동석치과의원</dutyName>
				<dutyTel1>02-2618-0774</dutyTel1>
				<dutyTime1c>1900</dutyTime1c>
				<dutyTime1s>930</dutyTime1s>
				<wgs84Lat>37.4907241257526</wgs84Lat>
				<wgs84Lon>126.855729118853</wgs84Lon>
			</item>
			<item>
				<dutyName>신목제일의원</dutyName>
				<dutyTel1>02-2615-7010</dutyTel1>
				<dutyTime1c>1900</dutyTime1c>
				<dutyTime1s>900</dutyTime1s>
				<wgs84Lat>37.5073291631453</wgs84Lat>
				<wgs84Lon>126.862872249591</wgs84Lon>
			</item>
			<item>
				<dutyName>신통방통의원</dutyName>
				<dutyTel1>02-2611-9100</dutyTel1>
				<dutyTime1c>1830</dutyTime1c>
				<dutyTime1s>900</dutyTime1s>
				<wgs84Lat>37.5026751091804</wgs84Lat>
				<wgs84Lon>126.849970000623</wgs84Lon>
			</item>
			<item>
				<dutyName>신통한마취통증의학과의원</dutyName>
				<dutyTel1>02-2060-7300</dutyTel1>
				<dutyTime1c>2000</dutyTime1c>
				<dutyTime1s>900</dutyTime1s>
				<wgs84Lat>37.5031111892256</wgs84Lat>
				<wgs84Lon>126.862558797197</wgs84Lon>
			</item>
			<item>
				<dutyName>실로암한의원</dutyName>
				<dutyTel1>02-2683-2037</dutyTel1>
				<dutyTime1c>1830</dutyTime1c>
				<dutyTime1s>930</dutyTime1s>
				<wgs84Lat>37.491759140647</wgs84Lat>
				<wgs84Lon>126.856269898222</wgs84Lon>
			</item>
			<item>
				<dutyName>심재경한의원</dutyName>
				<dutyTel1>02-857-1269</dutyTel1>
				<dutyTime1c>1900</dutyTime1c>
				<dutyTime1s>930</dutyTime1s>
				<wgs84Lat>37.4942714937043</wgs84Lat>
				<wgs84Lon>126.886367221562</wgs84Lon>
			</item>
			<item>
				<dutyName>아나파한방병원</dutyName>
				<dutyTel1>02-2686-7588</dutyTel1>
				<dutyTime1c>1800</dutyTime1c>
				<dutyTime1s>900</dutyTime1s>
				<wgs84Lat>37.4992317491</wgs84Lat>
				<wgs84Lon>126.8635791593</wgs84Lon>
			</item>
			<item>
				<dutyName>아름다운미래의원</dutyName>
				<dutyTel1>02-864-7341</dutyTel1>
				<dutyTime1c>1830</dutyTime1c>
				<dutyTime1s>1000</dutyTime1s>
				<wgs84Lat>37.5000681370383</wgs84Lat>
				<wgs84Lon>126.884108297364</wgs84Lon>
			</item>
			<item>
				<dutyName>아름샘의원</dutyName>
				<dutyTel1>02-591-9119</dutyTel1>
				<dutyTime1c>1800</dutyTime1c>
				<dutyTime1s>900</dutyTime1s>
				<wgs84Lat>37.4904867796447</wgs84Lat>
				<wgs84Lon>126.893578087857</wgs84Lon>
			</item>
			<item>
				<dutyName>아름생가정의학과의원</dutyName>
				<dutyTel1>02-2060-7621</dutyTel1>
				<dutyTime1c>1830</dutyTime1c>
				<dutyTime1s>900</dutyTime1s>
				<wgs84Lat>37.5073323268672</wgs84Lat>
				<wgs84Lon>126.85389478134</wgs84Lon>
			</item>
			<item>
				<dutyName>아름제일여성병원</dutyName>
				<dutyTel1>02-855-9911</dutyTel1>
				<dutyTime1c>2000</dutyTime1c>
				<dutyTime1s>900</dutyTime1s>
				<wgs84Lat>37.5063359677</wgs84Lat>
				<wgs84Lon>126.8921350682</wgs84Lon>
			</item>
			<item>
				<dutyName>아비쥬의원</dutyName>
				<dutyTel1>1544-0377</dutyTel1>
				<dutyTime1c>2030</dutyTime1c>
				<dutyTime1s>1030</dutyTime1s>
				<wgs84Lat>37.4832601429</wgs84Lat>
				<wgs84Lon>126.9012405331</wgs84Lon>
			</item>
			<item>
				<dutyName>아이맘소아청소년과의원</dutyName>
				<dutyTel1>02-2060-1566</dutyTel1>
				<dutyTime1c>1900</dutyTime1c>
				<dutyTime1s>900</dutyTime1s>
				<wgs84Lat>37.4939960434</wgs84Lat>
				<wgs84Lon>126.8582558076</wgs84Lon>
			</item>
			<item>
				<dutyName>아이온소아청소년과의원</dutyName>
				<dutyTel1>02-3439-7588</dutyTel1>
				<dutyTime1c>1900</dutyTime1c>
				<dutyTime1s>900</dutyTime1s>
				<wgs84Lat>37.5094492870643</wgs84Lat>
				<wgs84Lon>126.887753616338</wgs84Lon>
			</item>
			<item>
				<dutyName>아이티치과의원</dutyName>
				<dutyTel1>02-863-2872</dutyTel1>
				<dutyTime1c>1900</dutyTime1c>
				<dutyTime1s>1000</dutyTime1s>
				<wgs84Lat>37.4825118402504</wgs84Lat>
				<wgs84Lon>126.894457745841</wgs84Lon>
			</item>
			<item>
				<dutyName>아임플치과의원</dutyName>
				<dutyTel1>02-2111-2875</dutyTel1>
				<dutyTime1c>1900</dutyTime1c>
				<dutyTime1s>1000</dutyTime1s>
				<wgs84Lat>37.5070442039</wgs84Lat>
				<wgs84Lon>126.8902294419</wgs84Lon>
			</item>
			<item>
				<dutyName>안아프니치과의원</dutyName>
				<dutyTel1>02-6741-2828</dutyTel1>
				<dutyTime1c>1900</dutyTime1c>
				<dutyTime1s>1000</dutyTime1s>
				<wgs84Lat>37.4844395029</wgs84Lat>
				<wgs84Lon>126.9022520532</wgs84Lon>
			</item>
			<item>
				<dutyName>안용태내과의원</dutyName>
				<dutyTel1>02-2636-1492</dutyTel1>
				<dutyTime1c>1800</dutyTime1c>
				<dutyTime1s>830</dutyTime1s>
				<wgs84Lat>37.506367336413</wgs84Lat>
				<wgs84Lon>126.883430931522</wgs84Lon>
			</item>
			<item>
				<dutyName>애경내과의원</dutyName>
				<dutyTel1>02-851-2111</dutyTel1>
				<dutyTime1c>1800</dutyTime1c>
				<dutyTime1s>930</dutyTime1s>
				<wgs84Lat>37.5055228020587</wgs84Lat>
				<wgs84Lon>126.889704842477</wgs84Lon>
			</item>
			<item>
				<dutyName>애경연세소아청소년과의원</dutyName>
				<dutyTel1>02-858-7588</dutyTel1>
				<dutyTime1c>1900</dutyTime1c>
				<dutyTime1s>930</dutyTime1s>
				<wgs84Lat>37.5011588838</wgs84Lat>
				<wgs84Lon>126.8827740317</wgs84Lon>
			</item>
			<item>
				<dutyName>약손한의원</dutyName>
				<dutyTel1>02-2612-1102</dutyTel1>
				<dutyTime1c>1830</dutyTime1c>
				<dutyTime1s>930</dutyTime1s>
				<wgs84Lat>37.4961522382376</wgs84Lat>
				<wgs84Lon>126.844713370004</wgs84Lon>
			</item>
			<item>
				<dutyName>양근영치과의원</dutyName>
				<dutyTel1>02-2615-1693</dutyTel1>
				<dutyTime1c>1900</dutyTime1c>
				<dutyTime1s>1000</dutyTime1s>
				<wgs84Lat>37.493777414</wgs84Lat>
				<wgs84Lon>126.83426514</wgs84Lon>
			</item>
			<item>
				<dutyName>양정안소아청소년과의원</dutyName>
				<dutyTel1>02-2625-3200</dutyTel1>
				<dutyTime1c>1800</dutyTime1c>
				<dutyTime1s>900</dutyTime1s>
				<wgs84Lat>37.495404447</wgs84Lat>
				<wgs84Lon>126.8433760001</wgs84Lon>
			</item>
			<item>
				<dutyName>양지한의원</dutyName>
				<dutyTel1>02-852-7555</dutyTel1>
				<dutyTime1c>1900</dutyTime1c>
				<dutyTime1s>900</dutyTime1s>
				<wgs84Lat>37.4957782844629</wgs84Lat>
				<wgs84Lon>126.87602736858</wgs84Lon>
			</item>
			<item>
				<dutyName>엄찬섭이비인후과의원</dutyName>
				<dutyTel1>02-855-7114</dutyTel1>
				<dutyTime1c>1900</dutyTime1c>
				<dutyTime1s>930</dutyTime1s>
				<wgs84Lat>37.5000091262002</wgs84Lat>
				<wgs84Lon>126.882698928254</wgs84Lon>
			</item>
			<item>
				<dutyName>에스준의원</dutyName>
				<dutyTel1>02-6959-5990</dutyTel1>
				<dutyTime1c>2130</dutyTime1c>
				<dutyTime1s>1030</dutyTime1s>
				<wgs84Lat>37.508298548359</wgs84Lat>
				<wgs84Lon>126.886651495197</wgs84Lon>
			</item>
			<item>
				<dutyName>에이케이(AK)치과의원</dutyName>
				<dutyTel1>02-869-0104</dutyTel1>
				<dutyTime1c>1830</dutyTime1c>
				<dutyTime1s>1000</dutyTime1s>
				<wgs84Lat>37.5011588838</wgs84Lat>
				<wgs84Lon>126.8827740317</wgs84Lon>
			</item>
			<item>
				<dutyName>에이플러스치과의원</dutyName>
				<dutyTel1>02-2614-7520</dutyTel1>
				<dutyTime1c>1900</dutyTime1c>
				<dutyTime1s>1030</dutyTime1s>
				<wgs84Lat>37.4980305989533</wgs84Lat>
				<wgs84Lon>126.86271286005</wgs84Lon>
			</item>
			<item>
				<dutyName>엘비뇨기과의원</dutyName>
				<dutyTel1>02-2678-7580</dutyTel1>
				<dutyTime1c>1830</dutyTime1c>
				<dutyTime1s>930</dutyTime1s>
				<wgs84Lat>37.5033122732492</wgs84Lat>
				<wgs84Lon>126.881067784484</wgs84Lon>
			</item>
			<item>
				<dutyName>엠케이비뇨기과의원</dutyName>
				<dutyTel1>02-859-2887</dutyTel1>
				<dutyTime1c>1800</dutyTime1c>
				<dutyTime1s>930</dutyTime1s>
				<wgs84Lat>37.4897750049183</wgs84Lat>
				<wgs84Lon>126.891474168859</wgs84Lon>
			</item>
			<item>
				<dutyName>여남한의원</dutyName>
				<dutyTel1>02-868-7788</dutyTel1>
				<dutyTime1c>1900</dutyTime1c>
				<dutyTime1s>900</dutyTime1s>
				<wgs84Lat>37.4899877122075</wgs84Lat>
				<wgs84Lon>126.891550746865</wgs84Lon>
			</item>
			<item>
				<dutyName>연세U치과의원</dutyName>
				<dutyTel1>02-2619-2890</dutyTel1>
				<dutyTime1c>1900</dutyTime1c>
				<dutyTime1s>1000</dutyTime1s>
				<wgs84Lat>37.4941587588164</wgs84Lat>
				<wgs84Lon>126.85870784342</wgs84Lon>
			</item>
			<item>
				<dutyName>연세내과의원</dutyName>
				<dutyTel1>02-857-8275</dutyTel1>
				<dutyTime1c>1900</dutyTime1c>
				<dutyTime1s>830</dutyTime1s>
				<wgs84Lat>37.4900660112726</wgs84Lat>
				<wgs84Lon>126.890620653516</wgs84Lon>
			</item>
			<item>
				<dutyName>연세다솜치과의원</dutyName>
				<dutyTel1>02-2682-2872</dutyTel1>
				<dutyTime1c>1830</dutyTime1c>
				<dutyTime1s>930</dutyTime1s>
				<wgs84Lat>37.4922530982877</wgs84Lat>
				<wgs84Lon>126.82200635081</wgs84Lon>
			</item>
			<item>
				<dutyName>연세드림이비인후과의원</dutyName>
				<dutyTel1>02-2688-7313</dutyTel1>
				<dutyTime1c>1830</dutyTime1c>
				<dutyTime1s>900</dutyTime1s>
				<wgs84Lat>37.5080252544586</wgs84Lat>
				<wgs84Lon>126.863638175048</wgs84Lon>
			</item>
			<item>
				<dutyName>연세메디컬의원</dutyName>
				<dutyTel1>02-2636-3939</dutyTel1>
				<dutyTime1c>1800</dutyTime1c>
				<dutyTime1s>900</dutyTime1s>
				<wgs84Lat>37.505593452</wgs84Lat>
				<wgs84Lon>126.8772750595</wgs84Lon>
			</item>
			<item>
				<dutyName>연세봄빛피부과의원</dutyName>
				<dutyTel1>02-837-8275</dutyTel1>
				<dutyTime1c>2100</dutyTime1c>
				<dutyTime1s>1000</dutyTime1s>
				<wgs84Lat>37.4825642905458</wgs84Lat>
				<wgs84Lon>126.900547824239</wgs84Lon>
			</item>
			<item>
				<dutyName>연세봄치과의원</dutyName>
				<dutyTel1>02-3439-7222</dutyTel1>
				<dutyTime1c>1900</dutyTime1c>
				<dutyTime1s>930</dutyTime1s>
				<wgs84Lat>37.5094997689566</wgs84Lat>
				<wgs84Lon>126.887780684445</wgs84Lon>
			</item>
			<item>
				<dutyName>연세봉봉소아청소년과의원</dutyName>
				<dutyTel1>02-848-7297</dutyTel1>
				<dutyTime1c>1900</dutyTime1c>
				<dutyTime1s>900</dutyTime1s>
				<wgs84Lat>37.5063925667</wgs84Lat>
				<wgs84Lon>126.8834263478</wgs84Lon>
			</item>
			<item>
				<dutyName>연세비뇨기과의원</dutyName>
				<dutyTel1>02-2688-8454</dutyTel1>
				<dutyTime1c>1900</dutyTime1c>
				<dutyTime1s>900</dutyTime1s>
				<wgs84Lat>37.502840834671</wgs84Lat>
				<wgs84Lon>126.850316317835</wgs84Lon>
			</item>
			<item>
				<dutyName>연세사랑모아여성병원</dutyName>
				<dutyTel1>02-2636-1122</dutyTel1>
				<dutyTime1c>2000</dutyTime1c>
				<dutyTime1s>900</dutyTime1s>
				<wgs84Lat>37.5064934607305</wgs84Lat>
				<wgs84Lon>126.860501380135</wgs84Lon>
			</item>
			<item>
				<dutyName>연세사랑정형외과의원</dutyName>
				<dutyTel1>02-2684-1212</dutyTel1>
				<dutyTime1c>1900</dutyTime1c>
				<dutyTime1s>900</dutyTime1s>
				<wgs84Lat>37.4997311621977</wgs84Lat>
				<wgs84Lon>126.863801036309</wgs84Lon>
			</item>
			<item>
				<dutyName>연세사랑치과의원</dutyName>
				<dutyTel1>02-2689-2875</dutyTel1>
				<dutyTime1c>1830</dutyTime1c>
				<dutyTime1s>930</dutyTime1s>
				<wgs84Lat>37.4804028057504</wgs84Lat>
				<wgs84Lon>126.83931701328</wgs84Lon>
			</item>
			<item>
				<dutyName>연세수이비인후과의원</dutyName>
				<dutyTel1>02-2613-0075</dutyTel1>
				<dutyTime1c>1830</dutyTime1c>
				<dutyTime1s>900</dutyTime1s>
				<wgs84Lat>37.49072413856</wgs84Lat>
				<wgs84Lon>126.855733621373</wgs84Lon>
			</item>
			<item>
				<dutyName>연세수치과의원</dutyName>
				<dutyTel1>02-2617-1233</dutyTel1>
				<dutyTime1c>1900</dutyTime1c>
				<dutyTime1s>1000</dutyTime1s>
				<wgs84Lat>37.4968265748823</wgs84Lat>
				<wgs84Lon>126.845005993999</wgs84Lon>
			</item>
			<item>
				<dutyName>연세안과의원</dutyName>
				<dutyTel1>02-2684-5119</dutyTel1>
				<dutyTime1c>1900</dutyTime1c>
				<dutyTime1s>900</dutyTime1s>
				<wgs84Lat>37.5026426260017</wgs84Lat>
				<wgs84Lon>126.849938419944</wgs84Lon>
			</item>
			<item>
				<dutyName>연세안치과의원</dutyName>
				<dutyTel1>02-2635-2754</dutyTel1>
				<dutyTime1c>1900</dutyTime1c>
				<dutyTime1s>1000</dutyTime1s>
				<wgs84Lat>37.5095945610365</wgs84Lat>
				<wgs84Lon>126.88519726532</wgs84Lon>
			</item>
			<item>
				<dutyName>연세연합의원</dutyName>
				<dutyTel1>02-2685-0075</dutyTel1>
				<dutyTime1c>1830</dutyTime1c>
				<dutyTime1s>900</dutyTime1s>
				<wgs84Lat>37.4935169650863</wgs84Lat>
				<wgs84Lon>126.844157950718</wgs84Lon>
			</item>
			<item>
				<dutyName>연세오치과의원</dutyName>
				<dutyTel1>02-855-2413</dutyTel1>
				<dutyTime1c>1800</dutyTime1c>
				<dutyTime1s>1000</dutyTime1s>
				<wgs84Lat>37.4893553539246</wgs84Lat>
				<wgs84Lon>126.889783218242</wgs84Lon>
			</item>
			<item>
				<dutyName>연세의원</dutyName>
				<dutyTel1>02-838-6421</dutyTel1>
				<dutyTime1c>1900</dutyTime1c>
				<dutyTime1s>900</dutyTime1s>
				<wgs84Lat>37.4870472222222</wgs84Lat>
				<wgs84Lon>126.887761111111</wgs84Lon>
			</item>
			<item>
				<dutyName>연세이비인후과의원</dutyName>
				<dutyTel1>02-3666-7575</dutyTel1>
				<dutyTime1c>1830</dutyTime1c>
				<dutyTime1s>930</dutyTime1s>
				<wgs84Lat>37.4958614964198</wgs84Lat>
				<wgs84Lon>126.842883153854</wgs84Lon>
			</item>
			<item>
				<dutyName>연세재활의학과의원</dutyName>
				<dutyTel1>02-2681-4114</dutyTel1>
				<dutyTime1c>1900</dutyTime1c>
				<dutyTime1s>900</dutyTime1s>
				<wgs84Lat>37.5013419369922</wgs84Lat>
				<wgs84Lon>126.850599804951</wgs84Lon>
			</item>
			<item>
				<dutyName>연세정신건강의학과의원</dutyName>
				<dutyTel1>02-855-9996</dutyTel1>
				<dutyTime1c>1900</dutyTime1c>
				<dutyTime1s>900</dutyTime1s>
				<wgs84Lat>37.4835327960573</wgs84Lat>
				<wgs84Lon>126.899752242102</wgs84Lon>
			</item>
			<item>
				<dutyName>연세정인내과의원</dutyName>
				<dutyTel1>02-2612-8700</dutyTel1>
				<dutyTime1c>1800</dutyTime1c>
				<dutyTime1s>830</dutyTime1s>
				<wgs84Lat>37.4939960433726</wgs84Lat>
				<wgs84Lon>126.858255807555</wgs84Lon>
			</item>
			<item>
				<dutyName>연세정형외과의원</dutyName>
				<dutyTel1>02-865-4001</dutyTel1>
				<dutyTime1c>1830</dutyTime1c>
				<dutyTime1s>900</dutyTime1s>
				<wgs84Lat>37.4958595940775</wgs84Lat>
				<wgs84Lon>126.888807394619</wgs84Lon>
			</item>
			<item>
				<dutyName>연세치과의원</dutyName>
				<dutyTel1>02-862-0451</dutyTel1>
				<dutyTime1c>1830</dutyTime1c>
				<dutyTime1s>1000</dutyTime1s>
				<wgs84Lat>37.494465954167</wgs84Lat>
				<wgs84Lon>126.882522165588</wgs84Lon>
			</item>
			<item>
				<dutyName>연세타임치과의원</dutyName>
				<dutyTel1>02-2611-7733</dutyTel1>
				<dutyTime1c>1830</dutyTime1c>
				<dutyTime1s>930</dutyTime1s>
				<wgs84Lat>37.5030928294272</wgs84Lat>
				<wgs84Lon>126.850094146886</wgs84Lon>
			</item>
			<item>
				<dutyName>연세튼튼소아청소년과의원</dutyName>
				<dutyTel1>02-2685-7582</dutyTel1>
				<dutyTime1c>1830</dutyTime1c>
				<dutyTime1s>900</dutyTime1s>
				<wgs84Lat>37.480579867081</wgs84Lat>
				<wgs84Lon>126.839784497961</wgs84Lon>
			</item>
			<item>
				<dutyName>연세퍼시픽치과의원</dutyName>
				<dutyTel1>02-2621-2875</dutyTel1>
				<dutyTime1c>1900</dutyTime1c>
				<dutyTime1s>1000</dutyTime1s>
				<wgs84Lat>37.4852299287571</wgs84Lat>
				<wgs84Lon>126.894936144019</wgs84Lon>
			</item>
			<item>
				<dutyName>연세푸른이비인후과의원</dutyName>
				<dutyTel1>02-2636-7550</dutyTel1>
				<dutyTime1c>1900</dutyTime1c>
				<dutyTime1s>900</dutyTime1s>
				<wgs84Lat>37.5063925667</wgs84Lat>
				<wgs84Lon>126.8834263478</wgs84Lon>
			</item>
			<item>
				<dutyName>연세필의원</dutyName>
				<dutyTel1>02-2619-3130</dutyTel1>
				<dutyTime1c>1830</dutyTime1c>
				<dutyTime1s>930</dutyTime1s>
				<wgs84Lat>37.4913997624025</wgs84Lat>
				<wgs84Lon>126.824971000884</wgs84Lon>
			</item>
			<item>
				<dutyName>연세한결치과의원</dutyName>
				<dutyTel1>02-869-6928</dutyTel1>
				<dutyTime1c>1800</dutyTime1c>
				<dutyTime1s>900</dutyTime1s>
				<wgs84Lat>37.4918720374774</wgs84Lat>
				<wgs84Lon>126.87642005409</wgs84Lon>
			</item>
			<item>
				<dutyName>연우당한의원</dutyName>
				<dutyTel1>02-865-8275</dutyTel1>
				<dutyTime1c>1900</dutyTime1c>
				<dutyTime1s>930</dutyTime1s>
				<wgs84Lat>37.4897718203</wgs84Lat>
				<wgs84Lon>126.8882012958</wgs84Lon>
			</item>
			<item>
				<dutyName>연한의원</dutyName>
				<dutyTel1>02-852-4161</dutyTel1>
				<dutyTime1c>1830</dutyTime1c>
				<dutyTime1s>900</dutyTime1s>
				<wgs84Lat>37.4936306889</wgs84Lat>
				<wgs84Lon>126.8833919074</wgs84Lon>
			</item>
			<item>
				<dutyName>연희산부인과의원</dutyName>
				<dutyTel1>02-2625-5002</dutyTel1>
				<dutyTime1c>1900</dutyTime1c>
				<dutyTime1s>900</dutyTime1s>
				<wgs84Lat>37.4957078018126</wgs84Lat>
				<wgs84Lon>126.842489946869</wgs84Lon>
			</item>
			<item>
				<dutyName>열린성모이비인후과의원</dutyName>
				<dutyTel1>02-866-7778</dutyTel1>
				<dutyTime1c>1830</dutyTime1c>
				<dutyTime1s>910</dutyTime1s>
				<wgs84Lat>37.4958127770546</wgs84Lat>
				<wgs84Lon>126.888792044426</wgs84Lon>
			</item>
			<item>
				<dutyName>열린연세정형외과의원</dutyName>
				<dutyTel1>02-2617-8222</dutyTel1>
				<dutyTime1c>1900</dutyTime1c>
				<dutyTime1s>900</dutyTime1s>
				<wgs84Lat>37.5021971954088</wgs84Lat>
				<wgs84Lon>126.848661950015</wgs84Lon>
			</item>
			<item>
				<dutyName>열린이비인후과의원</dutyName>
				<dutyTel1>02-2689-5075</dutyTel1>
				<dutyTime1c>2000</dutyTime1c>
				<dutyTime1s>900</dutyTime1s>
				<wgs84Lat>37.4939307562578</wgs84Lat>
				<wgs84Lon>126.858181995143</wgs84Lon>
			</item>
			<item>
				<dutyName>열린치과의원</dutyName>
				<dutyTel1>02-2682-2876</dutyTel1>
				<dutyTime1c>1830</dutyTime1c>
				<dutyTime1s>930</dutyTime1s>
				<wgs84Lat>37.4920827688804</wgs84Lat>
				<wgs84Lon>126.855667705307</wgs84Lon>
			</item>
			<item>
				<dutyName>영민한의원</dutyName>
				<dutyTel1>02-858-1075</dutyTel1>
				<dutyTime1c>1900</dutyTime1c>
				<dutyTime1s>930</dutyTime1s>
				<wgs84Lat>37.5000163542555</wgs84Lat>
				<wgs84Lon>126.882726078949</wgs84Lon>
			</item>
			<item>
				<dutyName>예산부인과의원</dutyName>
				<dutyTel1>02-2633-8782</dutyTel1>
				<dutyTime1c>1900</dutyTime1c>
				<dutyTime1s>1000</dutyTime1s>
				<wgs84Lat>37.5105393156659</wgs84Lat>
				<wgs84Lon>126.889453054548</wgs84Lon>
			</item>
			<item>
				<dutyName>예스병원</dutyName>
				<dutyTel1>1577-1680</dutyTel1>
				<dutyTime1c>1800</dutyTime1c>
				<dutyTime1s>900</dutyTime1s>
				<wgs84Lat>37.4916881257822</wgs84Lat>
				<wgs84Lon>126.883399450499</wgs84Lon>
			</item>
			<item>
				<dutyName>오디한의원</dutyName>
				<dutyTel1>02-2617-3375</dutyTel1>
				<dutyTime1c>1900</dutyTime1c>
				<dutyTime1s>930</dutyTime1s>
				<wgs84Lat>37.4911695641672</wgs84Lat>
				<wgs84Lon>126.840566984384</wgs84Lon>
			</item>
			<item>
				<dutyName>오류중앙의원</dutyName>
				<dutyTel1>02-2612-3256</dutyTel1>
				<dutyTime1c>1900</dutyTime1c>
				<dutyTime1s>900</dutyTime1s>
				<wgs84Lat>37.4942670978388</wgs84Lat>
				<wgs84Lon>126.839144627709</wgs84Lon>
			</item>
			<item>
				<dutyName>오복만세치과의원</dutyName>
				<dutyTel1>02-2025-7222</dutyTel1>
				<dutyTime1c>2000</dutyTime1c>
				<dutyTime1s>1000</dutyTime1s>
				<wgs84Lat>37.4854750816521</wgs84Lat>
				<wgs84Lon>126.894262493074</wgs84Lon>
			</item>
			<item>
				<dutyName>오형태내과의원</dutyName>
				<dutyTel1>02-2683-6363</dutyTel1>
				<dutyTime1c>1830</dutyTime1c>
				<dutyTime1s>900</dutyTime1s>
				<wgs84Lat>37.5026863956</wgs84Lat>
				<wgs84Lon>126.8447586264</wgs84Lon>
			</item>
			<item>
				<dutyName>온수의원</dutyName>
				<dutyTel1>02-2688-5575</dutyTel1>
				<dutyTime1c>1850</dutyTime1c>
				<dutyTime1s>900</dutyTime1s>
				<wgs84Lat>37.4924559083226</wgs84Lat>
				<wgs84Lon>126.82079696327</wgs84Lon>
			</item>
			<item>
				<dutyName>온화한의원</dutyName>
				<dutyTel1>02-2682-1079</dutyTel1>
				<dutyTime1c>1900</dutyTime1c>
				<dutyTime1s>930</dutyTime1s>
				<wgs84Lat>37.5034272730357</wgs84Lat>
				<wgs84Lon>126.863969639716</wgs84Lon>
			</item>
			<item>
				<dutyName>우리가족치과의원</dutyName>
				<dutyTel1>02-2611-2835</dutyTel1>
				<dutyTime1c>1830</dutyTime1c>
				<dutyTime1s>930</dutyTime1s>
				<wgs84Lat>37.4861765427</wgs84Lat>
				<wgs84Lon>126.839501182</wgs84Lon>
			</item>
			<item>
				<dutyName>우리들의원</dutyName>
				<dutyTel1>02-2066-2601</dutyTel1>
				<dutyTime1c>1900</dutyTime1c>
				<dutyTime1s>900</dutyTime1s>
				<wgs84Lat>37.4911611111111</wgs84Lat>
				<wgs84Lon>126.841788888889</wgs84Lon>
			</item>
			<item>
				<dutyName>우리모두들치과병원</dutyName>
				<dutyTel1>02-852-0028</dutyTel1>
				<dutyTime1c>1800</dutyTime1c>
				<dutyTime1s>900</dutyTime1s>
				<wgs84Lat>37.5023261022875</wgs84Lat>
				<wgs84Lon>126.882372190202</wgs84Lon>
			</item>
			<item>
				<dutyName>우리의원</dutyName>
				<dutyTel1>02-867-8811</dutyTel1>
				<dutyTime1c>1810</dutyTime1c>
				<dutyTime1s>900</dutyTime1s>
				<wgs84Lat>37.5014809414197</wgs84Lat>
				<wgs84Lon>126.886886697315</wgs84Lon>
			</item>
			<item>
				<dutyName>우리정형외과의원</dutyName>
				<dutyTel1>02-2060-1124</dutyTel1>
				<dutyTime1c>1900</dutyTime1c>
				<dutyTime1s>900</dutyTime1s>
				<wgs84Lat>37.5079822889484</wgs84Lat>
				<wgs84Lon>126.863567781114</wgs84Lon>
			</item>
			<item>
				<dutyName>운당한의원</dutyName>
				<dutyTel1>02-2689-9883</dutyTel1>
				<dutyTime1c>1900</dutyTime1c>
				<dutyTime1s>900</dutyTime1s>
				<wgs84Lat>37.5030537598182</wgs84Lat>
				<wgs84Lon>126.844576935705</wgs84Lon>
			</item>
			<item>
				<dutyName>워싱턴올리브치과의원</dutyName>
				<dutyTel1>02-3666-2875</dutyTel1>
				<dutyTime1c>1800</dutyTime1c>
				<dutyTime1s>1000</dutyTime1s>
				<wgs84Lat>37.4979568080655</wgs84Lat>
				<wgs84Lon>126.864345943072</wgs84Lon>
			</item>
			<item>
				<dutyName>월드치과의원</dutyName>
				<dutyTel1>02-2684-2866</dutyTel1>
				<dutyTime1c>1900</dutyTime1c>
				<dutyTime1s>1000</dutyTime1s>
				<wgs84Lat>37.4945007232484</wgs84Lat>
				<wgs84Lon>126.858624180825</wgs84Lon>
			</item>
			<item>
				<dutyName>웰치과의원</dutyName>
				<dutyTel1>02-2675-2210</dutyTel1>
				<dutyTime1c>2000</dutyTime1c>
				<dutyTime1s>1000</dutyTime1s>
				<wgs84Lat>37.4982868980534</wgs84Lat>
				<wgs84Lon>126.872731874914</wgs84Lon>
			</item>
			<item>
				<dutyName>웰티스치과의원</dutyName>
				<dutyTel1>02-864-2828</dutyTel1>
				<dutyTime1c>1830</dutyTime1c>
				<dutyTime1s>930</dutyTime1s>
				<wgs84Lat>37.4902402998</wgs84Lat>
				<wgs84Lon>126.8844103287</wgs84Lon>
			</item>
			<item>
				<dutyName>유동철치과의원</dutyName>
				<dutyTel1>02-2684-3399</dutyTel1>
				<dutyTime1c>1830</dutyTime1c>
				<dutyTime1s>1000</dutyTime1s>
				<wgs84Lat>37.4904286422</wgs84Lat>
				<wgs84Lon>126.8557613277</wgs84Lon>
			</item>
			<item>
				<dutyName>유디치과의원</dutyName>
				<dutyTel1>02-868-4114</dutyTel1>
				<dutyTime1c>1830</dutyTime1c>
				<dutyTime1s>930</dutyTime1s>
				<wgs84Lat>37.486407286946</wgs84Lat>
				<wgs84Lon>126.893668108094</wgs84Lon>
			</item>
			<item>
				<dutyName>유로진의원</dutyName>
				<dutyTel1>02-981-0488</dutyTel1>
				<dutyTime1c>1900</dutyTime1c>
				<dutyTime1s>930</dutyTime1s>
				<wgs84Lat>37.5091643019873</wgs84Lat>
				<wgs84Lon>126.887473554679</wgs84Lon>
			</item>
			<item>
				<dutyName>유일한의원</dutyName>
				<dutyTel1>02-2612-7511</dutyTel1>
				<dutyTime1c>1800</dutyTime1c>
				<dutyTime1s>930</dutyTime1s>
				<wgs84Lat>37.4965119546797</wgs84Lat>
				<wgs84Lon>126.844192437612</wgs84Lon>
			</item>
			<item>
				<dutyName>유치과의원</dutyName>
				<dutyTel1>02-862-5284</dutyTel1>
				<dutyTime1c>1800</dutyTime1c>
				<dutyTime1s>900</dutyTime1s>
				<wgs84Lat>37.4827757318</wgs84Lat>
				<wgs84Lon>126.8875016814</wgs84Lon>
			</item>
			<item>
				<dutyName>윤소아청소년과의원</dutyName>
				<dutyTel1>02-857-9900</dutyTel1>
				<dutyTime1c>1830</dutyTime1c>
				<dutyTime1s>900</dutyTime1s>
				<wgs84Lat>37.4982230835114</wgs84Lat>
				<wgs84Lon>126.884280435401</wgs84Lon>
			</item>
			<item>
				<dutyName>윤인탁치과의원</dutyName>
				<dutyTel1>02-857-7303</dutyTel1>
				<dutyTime1c>1800</dutyTime1c>
				<dutyTime1s>930</dutyTime1s>
				<wgs84Lat>37.4863230635506</wgs84Lat>
				<wgs84Lon>126.896187385091</wgs84Lon>
			</item>
			<item>
				<dutyName>윤치과의원</dutyName>
				<dutyTel1>02-2612-6110</dutyTel1>
				<dutyTime1c>1830</dutyTime1c>
				<dutyTime1s>930</dutyTime1s>
				<wgs84Lat>37.4934844931459</wgs84Lat>
				<wgs84Lon>126.844130879063</wgs84Lon>
			</item>
			<item>
				<dutyName>윤치과의원</dutyName>
				<dutyTel1>02-2683-7774</dutyTel1>
				<dutyTime1c>1830</dutyTime1c>
				<dutyTime1s>1000</dutyTime1s>
				<wgs84Lat>37.5026715442655</wgs84Lat>
				<wgs84Lon>126.850006218197</wgs84Lon>
			</item>
			<item>
				<dutyName>윤한의원</dutyName>
				<dutyTel1>02-838-1070</dutyTel1>
				<dutyTime1c>1800</dutyTime1c>
				<dutyTime1s>1000</dutyTime1s>
				<wgs84Lat>37.4916355615949</wgs84Lat>
				<wgs84Lon>126.888687010424</wgs84Lon>
			</item>
			<item>
				<dutyName>의료법인개봉현대의원</dutyName>
				<dutyTel1>02-2686-6808</dutyTel1>
				<dutyTime1c>1800</dutyTime1c>
				<dutyTime1s>800</dutyTime1s>
				<wgs84Lat>37.4967657204019</wgs84Lat>
				<wgs84Lon>126.856748808689</wgs84Lon>
			</item>
			<item>
				<dutyName>의료법인고려수의료재단고려수요양병원</dutyName>
				<dutyTel1>02-1577-2588</dutyTel1>
				<dutyTime1c>1800</dutyTime1c>
				<dutyTime1s>900</dutyTime1s>
				<wgs84Lat>37.5018917195689</wgs84Lat>
				<wgs84Lon>126.891598618238</wgs84Lon>
			</item>
			<item>
				<dutyName>의료법인다나의료재단구로다나병원</dutyName>
				<dutyTel1>02-2613-8001</dutyTel1>
				<dutyTime1c>1800</dutyTime1c>
				<dutyTime1s>900</dutyTime1s>
				<wgs84Lat>37.4969604359218</wgs84Lat>
				<wgs84Lon>126.856829857912</wgs84Lon>
			</item>
			<item>
				<dutyName>의료법인미소들의료재단미소들노인전문병원</dutyName>
				<dutyTel1>02-3666-1114</dutyTel1>
				<dutyTime1c>1800</dutyTime1c>
				<dutyTime1s>900</dutyTime1s>
				<wgs84Lat>37.5028979038829</wgs84Lat>
				<wgs84Lon>126.841197993112</wgs84Lon>
			</item>
			<item>
				<dutyName>의료법인씨티의료재단씨티병원</dutyName>
				<dutyTel1>02-2615-5005</dutyTel1>
				<dutyTime1c>1800</dutyTime1c>
				<dutyTime1s>900</dutyTime1s>
				<wgs84Lat>37.4943597756678</wgs84Lat>
				<wgs84Lon>126.841048713001</wgs84Lon>
			</item>
			<item>
				<dutyName>의료법인어울림의료재단정성요양병원</dutyName>
				<dutyTel1>02-863-8636</dutyTel1>
				<dutyTime1c>1800</dutyTime1c>
				<dutyTime1s>900</dutyTime1s>
				<wgs84Lat>37.4789437456616</wgs84Lat>
				<wgs84Lon>126.894054183478</wgs84Lon>
			</item>
			<item>
				<dutyName>의료법인열린의료재단오경식의원</dutyName>
				<dutyTel1>02-861-4658</dutyTel1>
				<dutyTime1c>1700</dutyTime1c>
				<dutyTime1s>900</dutyTime1s>
				<wgs84Lat>37.4977293066</wgs84Lat>
				<wgs84Lon>126.8918534248</wgs84Lon>
			</item>
			<item>
				<dutyName>의료법인우리아이들의료재단우리아이들병원</dutyName>
				<dutyTel1>02-858-0100</dutyTel1>
				<dutyTime1c>1800</dutyTime1c>
				<dutyTime1s>900</dutyTime1s>
				<wgs84Lat>37.50208478567</wgs84Lat>
				<wgs84Lon>126.882521854795</wgs84Lon>
			</item>
			<item>
				<dutyName>이(e)스타치과의원</dutyName>
				<dutyTel1>02-856-5400</dutyTel1>
				<dutyTime1c>1830</dutyTime1c>
				<dutyTime1s>930</dutyTime1s>
				<wgs84Lat>37.5055806053097</wgs84Lat>
				<wgs84Lon>126.889842548355</wgs84Lon>
			</item>
			<item>
				<dutyName>이가온치과의원</dutyName>
				<dutyTel1>02-2675-6525</dutyTel1>
				<dutyTime1c>1830</dutyTime1c>
				<dutyTime1s>930</dutyTime1s>
				<wgs84Lat>37.506486210798</wgs84Lat>
				<wgs84Lon>126.883371935025</wgs84Lon>
			</item>
			<item>
				<dutyName>이광희치과의원</dutyName>
				<dutyTel1>02-2688-7575</dutyTel1>
				<dutyTime1c>1800</dutyTime1c>
				<dutyTime1s>930</dutyTime1s>
				<wgs84Lat>37.5011304976904</wgs84Lat>
				<wgs84Lon>126.863091694832</wgs84Lon>
			</item>
			<item>
				<dutyName>이기천이비인후과의원</dutyName>
				<dutyTel1>02-2625-5075</dutyTel1>
				<dutyTime1c>1900</dutyTime1c>
				<dutyTime1s>900</dutyTime1s>
				<wgs84Lat>37.5031156047395</wgs84Lat>
				<wgs84Lon>126.862481885022</wgs84Lon>
			</item>
			<item>
				<dutyName>이기현안과의원</dutyName>
				<dutyTel1>02-2612-0110</dutyTel1>
				<dutyTime1c>1730</dutyTime1c>
				<dutyTime1s>900</dutyTime1s>
				<wgs84Lat>37.4975176089483</wgs84Lat>
				<wgs84Lon>126.855643675677</wgs84Lon>
			</item>
			<item>
				<dutyName>이담치과의원</dutyName>
				<dutyTel1>02-2025-2875</dutyTel1>
				<dutyTime1c>1800</dutyTime1c>
				<dutyTime1s>930</dutyTime1s>
				<wgs84Lat>37.4837775420502</wgs84Lat>
				<wgs84Lon>126.899040176429</wgs84Lon>
			</item>
			<item>
				<dutyName>이디치과의원</dutyName>
				<dutyTel1>02-6344-3939</dutyTel1>
				<dutyTime1c>1900</dutyTime1c>
				<dutyTime1s>1000</dutyTime1s>
				<wgs84Lat>37.4849283909</wgs84Lat>
				<wgs84Lon>126.8965392788</wgs84Lon>
			</item>
			<item>
				<dutyName>이레소아청소년과의원</dutyName>
				<dutyTel1>02-830-0107</dutyTel1>
				<dutyTime1c>1900</dutyTime1c>
				<dutyTime1s>830</dutyTime1s>
				<wgs84Lat>37.4895221631</wgs84Lat>
				<wgs84Lon>126.8910104203</wgs84Lon>
			</item>
			<item>
				<dutyName>이미지치과의원</dutyName>
				<dutyTel1>02-2685-2875</dutyTel1>
				<dutyTime1c>1900</dutyTime1c>
				<dutyTime1s>1000</dutyTime1s>
				<wgs84Lat>37.4909834394</wgs84Lat>
				<wgs84Lon>126.8415217407</wgs84Lon>
			</item>
			<item>
				<dutyName>이수양내과의원</dutyName>
				<dutyTel1>02-2687-2074</dutyTel1>
				<dutyTime1c>1830</dutyTime1c>
				<dutyTime1s>900</dutyTime1s>
				<wgs84Lat>37.4965265984372</wgs84Lat>
				<wgs84Lon>126.844359751425</wgs84Lon>
			</item>
			<item>
				<dutyName>이시원치과의원</dutyName>
				<dutyTel1>02-2686-8915</dutyTel1>
				<dutyTime1c>1800</dutyTime1c>
				<dutyTime1s>1000</dutyTime1s>
				<wgs84Lat>37.4965119546797</wgs84Lat>
				<wgs84Lon>126.844192437612</wgs84Lon>
			</item>
			<item>
				<dutyName>이아소내과의원</dutyName>
				<dutyTel1>02-2066-8866</dutyTel1>
				<dutyTime1c>1800</dutyTime1c>
				<dutyTime1s>830</dutyTime1s>
				<wgs84Lat>37.5030831949576</wgs84Lat>
				<wgs84Lon>126.862504563303</wgs84Lon>
			</item>
			<item>
				<dutyName>이연합의원</dutyName>
				<dutyTel1>02-2689-8026</dutyTel1>
				<dutyTime1c>2000</dutyTime1c>
				<dutyTime1s>930</dutyTime1s>
				<wgs84Lat>37.4946016895949</wgs84Lat>
				<wgs84Lon>126.858669220666</wgs84Lon>
			</item>
			<item>
				<dutyName>이영우내과의원</dutyName>
				<dutyTel1>02-2636-7582</dutyTel1>
				<dutyTime1c>1800</dutyTime1c>
				<dutyTime1s>830</dutyTime1s>
				<wgs84Lat>37.506195268384</wgs84Lat>
				<wgs84Lon>126.8772288553</wgs84Lon>
			</item>
			<item>
				<dutyName>이영훈치과의원</dutyName>
				<dutyTel1>02-2614-2541</dutyTel1>
				<dutyTime1c>1900</dutyTime1c>
				<dutyTime1s>930</dutyTime1s>
				<wgs84Lat>37.5032194984682</wgs84Lat>
				<wgs84Lon>126.861947888939</wgs84Lon>
			</item>
			<item>
				<dutyName>이웃사랑치과의원</dutyName>
				<dutyTel1>02-859-8582</dutyTel1>
				<dutyTime1c>1800</dutyTime1c>
				<dutyTime1s>900</dutyTime1s>
				<wgs84Lat>37.5004692575623</wgs84Lat>
				<wgs84Lon>126.888931744162</wgs84Lon>
			</item>
			<item>
				<dutyName>이이비인후과의원</dutyName>
				<dutyTel1>02-2614-0481</dutyTel1>
				<dutyTime1c>1800</dutyTime1c>
				<dutyTime1s>900</dutyTime1s>
				<wgs84Lat>37.4976288941238</wgs84Lat>
				<wgs84Lon>126.855596588694</wgs84Lon>
			</item>
			<item>
				<dutyName>이장훈내과의원</dutyName>
				<dutyTel1>02-2615-7212</dutyTel1>
				<dutyTime1c>1800</dutyTime1c>
				<dutyTime1s>845</dutyTime1s>
				<wgs84Lat>37.4925152565513</wgs84Lat>
				<wgs84Lon>126.855671396218</wgs84Lon>
			</item>
			<item>
				<dutyName>이재성치과의원</dutyName>
				<dutyTel1>02-854-2065</dutyTel1>
				<dutyTime1c>1800</dutyTime1c>
				<dutyTime1s>1000</dutyTime1s>
				<wgs84Lat>37.4915920683349</wgs84Lat>
				<wgs84Lon>126.892319125146</wgs84Lon>
			</item>
			<item>
				<dutyName>이정록한의원</dutyName>
				<dutyTel1>02-2611-0705</dutyTel1>
				<dutyTime1c>1900</dutyTime1c>
				<dutyTime1s>900</dutyTime1s>
				<wgs84Lat>37.496956797583</wgs84Lat>
				<wgs84Lon>126.829644249811</wgs84Lon>
			</item>
			<item>
				<dutyName>이즈플러스치과의원</dutyName>
				<dutyTel1>02-864-1100</dutyTel1>
				<dutyTime1c>1830</dutyTime1c>
				<dutyTime1s>930</dutyTime1s>
				<wgs84Lat>37.4844868998</wgs84Lat>
				<wgs84Lon>126.8945046962</wgs84Lon>
			</item>
			<item>
				<dutyName>이지신경외과의원</dutyName>
				<dutyTel1>02-866-9201</dutyTel1>
				<dutyTime1c>1900</dutyTime1c>
				<dutyTime1s>900</dutyTime1s>
				<wgs84Lat>37.4902672799</wgs84Lat>
				<wgs84Lon>126.8862149623</wgs84Lon>
			</item>
			<item>
				<dutyName>이튼튼치과의원</dutyName>
				<dutyTel1>02-3476-2824</dutyTel1>
				<dutyTime1c>1800</dutyTime1c>
				<dutyTime1s>1000</dutyTime1s>
				<wgs84Lat>37.4821481475</wgs84Lat>
				<wgs84Lon>126.8989309959</wgs84Lon>
			</item>
			<item>
				<dutyName>이편한치과의원</dutyName>
				<dutyTel1>02-2685-4490</dutyTel1>
				<dutyTime1c>1900</dutyTime1c>
				<dutyTime1s>930</dutyTime1s>
				<wgs84Lat>37.5049361111111</wgs84Lat>
				<wgs84Lon>126.855955555556</wgs84Lon>
			</item>
			<item>
				<dutyName>이화가정의학과의원</dutyName>
				<dutyTel1>02-388-7575</dutyTel1>
				<dutyTime1c>1830</dutyTime1c>
