<?xml version="1.0" encoding="UTF-8" standalone="yes"?>
<response xmlns:xsi="http://www.w3.org/2001/XMLSchema-instance">
	<body>
		<items>
			<item>
				<dutyName>E&amp;I치과의원</dutyName>
				<dutyTel1>02-966-2875</dutyTel1>
				<dutyTime1c>1800</dutyTime1c>
				<dutyTime1s>900</dutyTime1s>
				<wgs84Lat>37.5752731984145</wgs84Lat>
				<wgs84Lon>127.037850694164</wgs84Lon>
			</item>
			<item>
				<dutyName>EB치과의원</dutyName>
				<dutyTel1>02-3394-7555</dutyTel1>
				<dutyTime1c>1800</dutyTime1c>
				<dutyTime1s>930</dutyTime1s>
				<wgs84Lat>37.5754481516573</wgs84Lat>
				<wgs84Lon>127.072282771155</wgs84Lon>
			</item>
			<item>
				<dutyName>NYU이문치과의원</dutyName>
				<dutyTel1>02-968-3208</dutyTel1>
				<dutyTime1c>1900</dutyTime1c>
				<dutyTime1s>930</dutyTime1s>
				<wgs84Lat>37.5978892916765</wgs84Lat>
				<wgs84Lon>127.060894675623</wgs84Lon>
			</item>
			<item>
				<dutyName>가은한의원</dutyName>
				<dutyTel1>02-456-6619</dutyTel1>
				<dutyTime1c>1900</dutyTime1c>
				<dutyTime1s>1000</dutyTime1s>
				<wgs84Lat>37.5730424428542</wgs84Lat>
				<wgs84Lon>127.047530405991</wgs84Lon>
			</item>
			<item>
				<dutyName>가톨릭대학교성바오로병원</dutyName>
				<dutyTel1>02-958-2114</dutyTel1>
				<dutyTime1c>1700</dutyTime1c>
				<dutyTime1s>830</dutyTime1s>
				<wgs84Lat>37.5792536537401</wgs84Lat>
				<wgs84Lon>127.043490515245</wgs84Lon>
			</item>
			<item>
				<dutyName>강가정의학과의원</dutyName>
				<dutyTel1>02-2244-2335</dutyTel1>
				<dutyTime1c>1900</dutyTime1c>
				<dutyTime1s>900</dutyTime1s>
				<wgs84Lat>37.5742685122195</wgs84Lat>
				<wgs84Lon>127.045706392487</wgs84Lon>
			</item>
			<item>
				<dutyName>강남성모안과의원</dutyName>
				<dutyTel1>02-2242-4275</dutyTel1>
				<dutyTime1c>1830</dutyTime1c>
				<dutyTime1s>900</dutyTime1s>
				<wgs84Lat>37.5740406111924</wgs84Lat>
				<wgs84Lon>127.057909372569</wgs84Lon>
			</item>
			<item>
				<dutyName>강덕내과의원</dutyName>
				<dutyTel1>02-966-4364</dutyTel1>
				<dutyTime1c>1800</dutyTime1c>
				<dutyTime1s>900</dutyTime1s>
				<wgs84Lat>37.5833703967127</wgs84Lat>
				<wgs84Lon>127.044389222177</wgs84Lon>
			</item>
			<item>
				<dutyName>강북밝은안과의원</dutyName>
				<dutyTel1>02-962-0075</dutyTel1>
				<dutyTime1c>1830</dutyTime1c>
				<dutyTime1s>900</dutyTime1s>
				<wgs84Lat>37.5792133092835</wgs84Lat>
				<wgs84Lon>127.04293352266</wgs84Lon>
			</item>
			<item>
				<dutyName>강북으뜸내과의원</dutyName>
				<dutyTel1>02-2248-1191</dutyTel1>
				<dutyTime1c>1830</dutyTime1c>
				<dutyTime1s>830</dutyTime1s>
				<wgs84Lat>37.5746251141756</wgs84Lat>
				<wgs84Lon>127.057968382612</wgs84Lon>
			</item>
			<item>
				<dutyName>강신구가정의학과의원</dutyName>
				<dutyTel1>02-966-7511</dutyTel1>
				<dutyTime1c>1900</dutyTime1c>
				<dutyTime1s>900</dutyTime1s>
				<wgs84Lat>37.6003259689386</wgs84Lat>
				<wgs84Lon>127.069465837211</wgs84Lon>
			</item>
			<item>
				<dutyName>강신삼신경정신과의원</dutyName>
				<dutyTel1>02-969-9491</dutyTel1>
				<dutyTime1c>1830</dutyTime1c>
				<dutyTime1s>930</dutyTime1s>
				<wgs84Lat>37.5808245229</wgs84Lat>
				<wgs84Lon>127.0447322298</wgs84Lon>
			</item>
			<item>
				<dutyName>강재활의학과닥터포유의원</dutyName>
				<dutyTel1>02-2249-7533</dutyTel1>
				<dutyTime1c>1900</dutyTime1c>
				<dutyTime1s>900</dutyTime1s>
				<wgs84Lat>37.5714489836</wgs84Lat>
				<wgs84Lon>127.0702141828</wgs84Lon>
			</item>
			<item>
				<dutyName>거북이한의원</dutyName>
				<dutyTel1>02-2216-1010</dutyTel1>
				<dutyTime1c>2100</dutyTime1c>
				<dutyTime1s>1200</dutyTime1s>
				<wgs84Lat>37.5672934322402</wgs84Lat>
				<wgs84Lon>127.052796842132</wgs84Lon>
			</item>
			<item>
				<dutyName>거창당한의원</dutyName>
				<dutyTel1>02-965-2151</dutyTel1>
				<dutyTime1c>1800</dutyTime1c>
				<dutyTime1s>1000</dutyTime1s>
				<wgs84Lat>37.5788716006367</wgs84Lat>
				<wgs84Lon>127.036733790133</wgs84Lon>
			</item>
			<item>
				<dutyName>건강한우리내과의원</dutyName>
				<dutyTel1>02-967-0011</dutyTel1>
				<dutyTime1c>2000</dutyTime1c>
				<dutyTime1s>800</dutyTime1s>
				<wgs84Lat>37.5792011565121</wgs84Lat>
				<wgs84Lon>127.042919651217</wgs84Lon>
			</item>
			<item>
				<dutyName>경남한의원</dutyName>
				<dutyTel1>02-967-4815</dutyTel1>
				<dutyTime1c>1800</dutyTime1c>
				<dutyTime1s>900</dutyTime1s>
				<wgs84Lat>37.6002027299955</wgs84Lat>
				<wgs84Lon>127.061485414834</wgs84Lon>
			</item>
			<item>
				<dutyName>경동요양병원</dutyName>
				<dutyTel1>02-964-1961</dutyTel1>
				<dutyTime1c>1830</dutyTime1c>
				<dutyTime1s>900</dutyTime1s>
				<wgs84Lat>37.5829440191692</wgs84Lat>
				<wgs84Lon>127.043773435047</wgs84Lon>
			</item>
			<item>
				<dutyName>경동한의원</dutyName>
				<dutyTel1>02-966-1600</dutyTel1>
				<dutyTime1c>1800</dutyTime1c>
				<dutyTime1s>1000</dutyTime1s>
				<wgs84Lat>17.6623555555556</wgs84Lat>
				<wgs84Lon>8.45091111111111</wgs84Lon>
			</item>
			<item>
				<dutyName>경빈산부인과의원</dutyName>
				<dutyTel1>02-966-0213</dutyTel1>
				<dutyTime1c>1830</dutyTime1c>
				<dutyTime1s>930</dutyTime1s>
				<wgs84Lat>37.6031711906924</wgs84Lat>
				<wgs84Lon>127.066410818356</wgs84Lon>
			</item>
			<item>
				<dutyName>경송한의원</dutyName>
				<dutyTel1>02-2244-7505</dutyTel1>
				<dutyTime1c>1900</dutyTime1c>
				<dutyTime1s>1000</dutyTime1s>
				<wgs84Lat>37.5690235102466</wgs84Lat>
				<wgs84Lon>127.056796188035</wgs84Lon>
			</item>
			<item>
				<dutyName>경안한의원</dutyName>
				<dutyTel1>02-965-6668</dutyTel1>
				<dutyTime1c>1800</dutyTime1c>
				<dutyTime1s>1000</dutyTime1s>
				<wgs84Lat>37.5790795128789</wgs84Lat>
				<wgs84Lon>127.036222388993</wgs84Lon>
			</item>
			<item>
				<dutyName>경희당한의원</dutyName>
				<dutyTel1>02-968-4529</dutyTel1>
				<dutyTime1c>1900</dutyTime1c>
				<dutyTime1s>900</dutyTime1s>
				<wgs84Lat>37.5795343584845</wgs84Lat>
				<wgs84Lon>127.037947701497</wgs84Lon>
			</item>
			<item>
				<dutyName>경희대학교병원</dutyName>
				<dutyTel1>02-958-8114</dutyTel1>
				<dutyTime1c>1700</dutyTime1c>
				<dutyTime1s>900</dutyTime1s>
				<wgs84Lat>37.5938765502235</wgs84Lat>
				<wgs84Lon>127.051832233903</wgs84Lon>
			</item>
			<item>
				<dutyName>경희대학교치과병원</dutyName>
				<dutyTel1>02-958-8114</dutyTel1>
				<dutyTime1c>1730</dutyTime1c>
				<dutyTime1s>900</dutyTime1s>
				<wgs84Lat>37.594280912896</wgs84Lat>
				<wgs84Lon>127.053258736634</wgs84Lon>
			</item>
			<item>
				<dutyName>경희대학교한방병원</dutyName>
				<dutyTel1>02-958-8114</dutyTel1>
				<dutyTime1c>1730</dutyTime1c>
				<dutyTime1s>900</dutyTime1s>
				<wgs84Lat>37.5938585305414</wgs84Lat>
				<wgs84Lon>127.051832221772</wgs84Lon>
			</item>
			<item>
				<dutyName>경희믿음한의원</dutyName>
				<dutyTel1>02-967-0075</dutyTel1>
				<dutyTime1c>1830</dutyTime1c>
				<dutyTime1s>900</dutyTime1s>
				<wgs84Lat>37.5900615818401</wgs84Lat>
				<wgs84Lon>127.056326955828</wgs84Lon>
			</item>
			<item>
				<dutyName>경희용한의원</dutyName>
				<dutyTel1>02-959-9669</dutyTel1>
				<dutyTime1c>1900</dutyTime1c>
				<dutyTime1s>900</dutyTime1s>
				<wgs84Lat>37.5913038310147</wgs84Lat>
				<wgs84Lon>127.055649135417</wgs84Lon>
			</item>
			<item>
				<dutyName>경희인덕한의원</dutyName>
				<dutyTel1>02-967-4600</dutyTel1>
				<dutyTime1c>1800</dutyTime1c>
				<dutyTime1s>1000</dutyTime1s>
				<wgs84Lat>37.5817173849</wgs84Lat>
				<wgs84Lon>127.0369889876</wgs84Lon>
			</item>
			<item>
				<dutyName>경희일생한의원</dutyName>
				<dutyTel1>02-2249-7582</dutyTel1>
				<dutyTime1c>2100</dutyTime1c>
				<dutyTime1s>900</dutyTime1s>
				<wgs84Lat>37.5719963606</wgs84Lat>
				<wgs84Lon>127.0709301104</wgs84Lon>
			</item>
			<item>
				<dutyName>경희장수한의원</dutyName>
				<dutyTel1>02-313-1075</dutyTel1>
				<dutyTime1c>1800</dutyTime1c>
				<dutyTime1s>930</dutyTime1s>
				<wgs84Lat>37.5947368399</wgs84Lat>
				<wgs84Lon>127.058894659</wgs84Lon>
			</item>
			<item>
				<dutyName>경희장안한의원</dutyName>
				<dutyTel1>02-2249-8883</dutyTel1>
				<dutyTime1c>1900</dutyTime1c>
				<dutyTime1s>930</dutyTime1s>
				<wgs84Lat>37.5636737770095</wgs84Lat>
				<wgs84Lon>127.066426500442</wgs84Lon>
			</item>
			<item>
				<dutyName>경희팔팔한의원</dutyName>
				<dutyTel1>02-959-1088</dutyTel1>
				<dutyTime1c>2000</dutyTime1c>
				<dutyTime1s>800</dutyTime1s>
				<wgs84Lat>37.5797829812</wgs84Lat>
				<wgs84Lon>127.044713493</wgs84Lon>
			</item>
			<item>
				<dutyName>경희홍제한의원</dutyName>
				<dutyTel1>02-969-3334</dutyTel1>
				<dutyTime1c>1800</dutyTime1c>
				<dutyTime1s>900</dutyTime1s>
				<wgs84Lat>37.5948926068</wgs84Lat>
				<wgs84Lon>127.0642756165</wgs84Lon>
			</item>
			<item>
				<dutyName>고려당한의원</dutyName>
				<dutyTel1>02-969-9838</dutyTel1>
				<dutyTime1c>1800</dutyTime1c>
				<dutyTime1s>1000</dutyTime1s>
				<wgs84Lat>37.5789927745</wgs84Lat>
				<wgs84Lon>127.0370057531</wgs84Lon>
			</item>
			<item>
				<dutyName>고려한의원</dutyName>
				<dutyTel1>02-926-2625</dutyTel1>
				<dutyTime1c>1800</dutyTime1c>
				<dutyTime1s>930</dutyTime1s>
				<wgs84Lat>37.5853227658903</wgs84Lat>
				<wgs84Lon>127.032172209944</wgs84Lon>
			</item>
			<item>
				<dutyName>고운얼굴치과의원</dutyName>
				<dutyTel1>02-2243-2770</dutyTel1>
				<dutyTime1c>1800</dutyTime1c>
				<dutyTime1s>900</dutyTime1s>
				<wgs84Lat>37.5651786177</wgs84Lat>
				<wgs84Lon>127.0556342023</wgs84Lon>
			</item>
			<item>
				<dutyName>고은산부인과의원</dutyName>
				<dutyTel1>02-960-2164</dutyTel1>
				<dutyTime1c>1900</dutyTime1c>
				<dutyTime1s>930</dutyTime1s>
				<wgs84Lat>37.5902083333333</wgs84Lat>
				<wgs84Lon>127.056183333333</wgs84Lon>
			</item>
			<item>
				<dutyName>고치과의원</dutyName>
				<dutyTel1>02-965-1887</dutyTel1>
				<dutyTime1c>1830</dutyTime1c>
				<dutyTime1s>1000</dutyTime1s>
				<wgs84Lat>37.595383840149</wgs84Lat>
				<wgs84Lon>127.0622287927</wgs84Lon>
			</item>
			<item>
				<dutyName>곤치과의원</dutyName>
				<dutyTel1>02-2249-0300</dutyTel1>
				<dutyTime1c>2100</dutyTime1c>
				<dutyTime1s>1000</dutyTime1s>
				<wgs84Lat>37.5725288408945</wgs84Lat>
				<wgs84Lon>127.072420337254</wgs84Lon>
			</item>
			<item>
				<dutyName>곽치과의원</dutyName>
				<dutyTel1>02-965-2875</dutyTel1>
				<dutyTime1c>1700</dutyTime1c>
				<dutyTime1s>900</dutyTime1s>
				<wgs84Lat>37.5810730367201</wgs84Lat>
				<wgs84Lon>127.045144491317</wgs84Lon>
			</item>
			<item>
				<dutyName>광덕한의원</dutyName>
				<dutyTel1>02-966-1759</dutyTel1>
				<dutyTime1c>1800</dutyTime1c>
				<dutyTime1s>930</dutyTime1s>
				<wgs84Lat>37.5835542652</wgs84Lat>
				<wgs84Lon>127.0498965074</wgs84Lon>
			</item>
			<item>
				<dutyName>광명당한의원</dutyName>
				<dutyTel1>02-966-0542</dutyTel1>
				<dutyTime1c>1800</dutyTime1c>
				<dutyTime1s>1000</dutyTime1s>
				<wgs84Lat>37.5790396054748</wgs84Lat>
				<wgs84Lon>127.037060137348</wgs84Lon>
			</item>
			<item>
				<dutyName>굿모닝박내과의원</dutyName>
				<dutyTel1>02-2245-0310</dutyTel1>
				<dutyTime1c>1800</dutyTime1c>
				<dutyTime1s>900</dutyTime1s>
				<wgs84Lat>37.5615781116357</wgs84Lat>
				<wgs84Lon>127.066333984045</wgs84Lon>
			</item>
			<item>
				<dutyName>굿모닝소아청소년과의원</dutyName>
				<dutyTel1>02-957-7550</dutyTel1>
				<dutyTime1c>2000</dutyTime1c>
				<dutyTime1s>1000</dutyTime1s>
				<wgs84Lat>37.574548504367</wgs84Lat>
				<wgs84Lon>127.038769508968</wgs84Lon>
			</item>
			<item>
				<dutyName>굿모닝치과의원</dutyName>
				<dutyTel1>02-969-3776</dutyTel1>
				<dutyTime1c>1830</dutyTime1c>
				<dutyTime1s>930</dutyTime1s>
				<wgs84Lat>37.5784269019515</wgs84Lat>
				<wgs84Lon>127.037159436118</wgs84Lon>
			</item>
			<item>
				<dutyName>굿모닝치과의원</dutyName>
				<dutyTel1>02-2214-2875</dutyTel1>
				<dutyTime1c>1900</dutyTime1c>
				<dutyTime1s>1000</dutyTime1s>
				<wgs84Lat>37.5897812190801</wgs84Lat>
				<wgs84Lon>127.062173657985</wgs84Lon>
			</item>
			<item>
				<dutyName>궁산부인과의원</dutyName>
				<dutyTel1>02-2244-8855</dutyTel1>
				<dutyTime1c>1900</dutyTime1c>
				<dutyTime1s>930</dutyTime1s>
				<wgs84Lat>37.5739820770388</wgs84Lat>
				<wgs84Lon>127.057854969887</wgs84Lon>
			</item>
			<item>
				<dutyName>권용만내과의원</dutyName>
				<dutyTel1>02-2215-9396</dutyTel1>
				<dutyTime1c>1830</dutyTime1c>
				<dutyTime1s>900</dutyTime1s>
				<wgs84Lat>37.5695820571512</wgs84Lat>
				<wgs84Lon>127.063986720472</wgs84Lon>
			</item>
			<item>
				<dutyName>그린산부인과의원</dutyName>
				<dutyTel1>02-2242-8991</dutyTel1>
				<dutyTime1c>1800</dutyTime1c>
				<dutyTime1s>1000</dutyTime1s>
				<wgs84Lat>37.5895999261081</wgs84Lat>
				<wgs84Lon>127.061367974866</wgs84Lon>
			</item>
			<item>
				<dutyName>금강한의원</dutyName>
				<dutyTel1>02-6370-2220</dutyTel1>
				<dutyTime1c>1900</dutyTime1c>
				<dutyTime1s>1000</dutyTime1s>
				<wgs84Lat>37.5786507269846</wgs84Lat>
				<wgs84Lon>127.035936895945</wgs84Lon>
			</item>
			<item>
				<dutyName>금재한의원</dutyName>
				<dutyTel1>02-959-1800</dutyTel1>
				<dutyTime1c>1700</dutyTime1c>
				<dutyTime1s>1000</dutyTime1s>
				<wgs84Lat>37.5815983562487</wgs84Lat>
				<wgs84Lon>127.037287831518</wgs84Lon>
			</item>
			<item>
				<dutyName>길의원</dutyName>
				<dutyTel1>02-2248-8522</dutyTel1>
				<dutyTime1c>1800</dutyTime1c>
				<dutyTime1s>830</dutyTime1s>
				<wgs84Lat>37.571106055111</wgs84Lat>
				<wgs84Lon>127.057941059483</wgs84Lon>
			</item>
			<item>
				<dutyName>김기혁치과의원</dutyName>
				<dutyTel1>02-966-2951</dutyTel1>
				<dutyTime1c>1800</dutyTime1c>
				<dutyTime1s>900</dutyTime1s>
				<wgs84Lat>37.5986329263562</wgs84Lat>
				<wgs84Lon>127.061315705441</wgs84Lon>
			</item>
			<item>
				<dutyName>김병훈내과의원</dutyName>
				<dutyTel1>02-2245-7572</dutyTel1>
				<dutyTime1c>1830</dutyTime1c>
				<dutyTime1s>900</dutyTime1s>
				<wgs84Lat>37.5774032547538</wgs84Lat>
				<wgs84Lon>127.059011971636</wgs84Lon>
			</item>
			<item>
				<dutyName>김선호치과의원</dutyName>
				<dutyTel1>02-2213-3675</dutyTel1>
				<dutyTime1c>1830</dutyTime1c>
				<dutyTime1s>1000</dutyTime1s>
				<wgs84Lat>37.5727531344727</wgs84Lat>
				<wgs84Lon>127.057817816027</wgs84Lon>
			</item>
			<item>
				<dutyName>김성현이비인후과의원</dutyName>
				<dutyTel1>02-2249-3666</dutyTel1>
				<dutyTime1c>1830</dutyTime1c>
				<dutyTime1s>900</dutyTime1s>
				<wgs84Lat>37.5774104582353</wgs84Lat>
				<wgs84Lon>127.059021033627</wgs84Lon>
			</item>
			<item>
				<dutyName>김성희이비인후과의원</dutyName>
				<dutyTel1>02-2247-0100</dutyTel1>
				<dutyTime1c>1800</dutyTime1c>
				<dutyTime1s>910</dutyTime1s>
				<wgs84Lat>37.5768876960357</wgs84Lat>
				<wgs84Lon>127.058027047254</wgs84Lon>
			</item>
			<item>
				<dutyName>김승일마취과의원</dutyName>
				<dutyTel1>02-927-2471</dutyTel1>
				<dutyTime1c>1830</dutyTime1c>
				<dutyTime1s>900</dutyTime1s>
				<wgs84Lat>37.5736857138034</wgs84Lat>
				<wgs84Lon>127.031482337374</wgs84Lon>
			</item>
			<item>
				<dutyName>김영대마취통증의학과의원</dutyName>
				<dutyTel1>02-957-6958</dutyTel1>
				<dutyTime1c>1900</dutyTime1c>
				<dutyTime1s>900</dutyTime1s>
				<wgs84Lat>37.5809387310099</wgs84Lat>
				<wgs84Lon>127.045294982082</wgs84Lon>
			</item>
			<item>
				<dutyName>김영학이비인후과의원</dutyName>
				<dutyTel1>02-963-0110</dutyTel1>
				<dutyTime1c>1800</dutyTime1c>
				<dutyTime1s>930</dutyTime1s>
				<wgs84Lat>37.5822052067726</wgs84Lat>
				<wgs84Lon>127.047359261273</wgs84Lon>
			</item>
			<item>
				<dutyName>김영화정신과의원</dutyName>
				<dutyTel1>02-2243-8636</dutyTel1>
				<dutyTime1c>1800</dutyTime1c>
				<dutyTime1s>1000</dutyTime1s>
				<wgs84Lat>37.5667025895779</wgs84Lat>
				<wgs84Lon>127.056712908068</wgs84Lon>
			</item>
			<item>
				<dutyName>김재수치과의원</dutyName>
				<dutyTel1>02-960-2277</dutyTel1>
				<dutyTime1c>1830</dutyTime1c>
				<dutyTime1s>930</dutyTime1s>
				<wgs84Lat>37.5820863363107</wgs84Lat>
				<wgs84Lon>127.04720521906</wgs84Lon>
			</item>
			<item>
				<dutyName>김정길한의원</dutyName>
				<dutyTel1>02-2245-7585</dutyTel1>
				<dutyTime1c>1900</dutyTime1c>
				<dutyTime1s>900</dutyTime1s>
				<wgs84Lat>37.5899694186521</wgs84Lat>
				<wgs84Lon>127.06060678115</wgs84Lon>
			</item>
			<item>
				<dutyName>김정열한의원</dutyName>
				<dutyTel1>02-962-1104</dutyTel1>
				<dutyTime1c>1800</dutyTime1c>
				<dutyTime1s>1030</dutyTime1s>
				<wgs84Lat>37.5807115598</wgs84Lat>
				<wgs84Lon>127.0379847519</wgs84Lon>
			</item>
			<item>
				<dutyName>김표한정신건강의학과의원</dutyName>
				<dutyTel1>02-2212-2040</dutyTel1>
				<dutyTime1c>1800</dutyTime1c>
				<dutyTime1s>900</dutyTime1s>
				<wgs84Lat>37.590664921633</wgs84Lat>
				<wgs84Lon>127.06302877269</wgs84Lon>
			</item>
			<item>
				<dutyName>김한욱치과의원</dutyName>
				<dutyTel1>02-926-9215</dutyTel1>
				<dutyTime1c>1830</dutyTime1c>
				<dutyTime1s>930</dutyTime1s>
				<wgs84Lat>37.5749342211823</wgs84Lat>
				<wgs84Lon>127.025094826738</wgs84Lon>
			</item>
			<item>
				<dutyName>김현우내과의원</dutyName>
				<dutyTel1>02-2215-9964</dutyTel1>
				<dutyTime1c>1830</dutyTime1c>
				<dutyTime1s>830</dutyTime1s>
				<wgs84Lat>37.5762216693773</wgs84Lat>
				<wgs84Lon>127.057956003248</wgs84Lon>
			</item>
			<item>
				<dutyName>김흥기산부인과의원</dutyName>
				<dutyTel1>02-957-2224</dutyTel1>
				<dutyTime1c>1800</dutyTime1c>
				<dutyTime1s>930</dutyTime1s>
				<wgs84Lat>37.5799217135514</wgs84Lat>
				<wgs84Lon>127.04357666509</wgs84Lon>
			</item>
			<item>
				<dutyName>나무치과의원</dutyName>
				<dutyTel1>02-3394-6100</dutyTel1>
				<dutyTime1c>2030</dutyTime1c>
				<dutyTime1s>930</dutyTime1s>
				<wgs84Lat>37.5749927582967</wgs84Lat>
				<wgs84Lon>127.049745666527</wgs84Lon>
			</item>
			<item>
				<dutyName>나은여성의원</dutyName>
				<dutyTel1>02-957-5541</dutyTel1>
				<dutyTime1c>1800</dutyTime1c>
				<dutyTime1s>900</dutyTime1s>
				<wgs84Lat>37.5752781331031</wgs84Lat>
				<wgs84Lon>127.037827897668</wgs84Lon>
			</item>
			<item>
				<dutyName>날개병원</dutyName>
				<dutyTel1>02-959-9191</dutyTel1>
				<dutyTime1c>1800</dutyTime1c>
				<dutyTime1s>900</dutyTime1s>
				<wgs84Lat>37.5816257910247</wgs84Lat>
				<wgs84Lon>127.029498772214</wgs84Lon>
			</item>
			<item>
				<dutyName>남산정형외과의원</dutyName>
				<dutyTel1>02-2245-7765</dutyTel1>
				<dutyTime1c>1900</dutyTime1c>
				<dutyTime1s>900</dutyTime1s>
				<wgs84Lat>37.5718046155136</wgs84Lat>
				<wgs84Lon>127.065980908241</wgs84Lon>
			</item>
			<item>
				<dutyName>남삼극비뇨기과의원</dutyName>
				<dutyTel1>02-2212-3787</dutyTel1>
				<dutyTime1c>1830</dutyTime1c>
				<dutyTime1s>930</dutyTime1s>
				<wgs84Lat>37.5917126214921</wgs84Lat>
				<wgs84Lon>127.066596324867</wgs84Lon>
			</item>
			<item>
				<dutyName>남송엠정신과의원</dutyName>
				<dutyTel1>02-2212-1774</dutyTel1>
				<dutyTime1c>1845</dutyTime1c>
				<dutyTime1s>930</dutyTime1s>
				<wgs84Lat>37.5657989112877</wgs84Lat>
				<wgs84Lon>127.054760844542</wgs84Lon>
			</item>
			<item>
				<dutyName>남일한의원</dutyName>
				<dutyTel1>02-965-8716</dutyTel1>
				<dutyTime1c>1900</dutyTime1c>
				<dutyTime1s>900</dutyTime1s>
				<wgs84Lat>37.5730710107983</wgs84Lat>
				<wgs84Lon>127.056323800978</wgs84Lon>
			</item>
			<item>
				<dutyName>내인당한의원</dutyName>
				<dutyTel1>02-966-2725</dutyTel1>
				<dutyTime1c>1800</dutyTime1c>
				<dutyTime1s>900</dutyTime1s>
				<wgs84Lat>37.578073807895</wgs84Lat>
				<wgs84Lon>127.059037758623</wgs84Lon>
			</item>
			<item>
				<dutyName>노재철노정민내과의원</dutyName>
				<dutyTel1>02-965-0264</dutyTel1>
				<dutyTime1c>1700</dutyTime1c>
				<dutyTime1s>800</dutyTime1s>
				<wgs84Lat>37.5816900820517</wgs84Lat>
				<wgs84Lon>127.046738542898</wgs84Lon>
			</item>
			<item>
				<dutyName>녹수한의원</dutyName>
				<dutyTel1>02-633-3951</dutyTel1>
				<dutyTime1c>1830</dutyTime1c>
				<dutyTime1s>900</dutyTime1s>
				<wgs84Lat>37.5682258726711</wgs84Lat>
				<wgs84Lon>127.06595513349</wgs84Lon>
			</item>
			<item>
				<dutyName>농림한의원</dutyName>
				<dutyTel1>02-957-9961</dutyTel1>
				<dutyTime1c>1800</dutyTime1c>
				<dutyTime1s>1000</dutyTime1s>
				<wgs84Lat>37.5825581379658</wgs84Lat>
				<wgs84Lon>127.037722747773</wgs84Lon>
			</item>
			<item>
				<dutyName>느티나무한의원</dutyName>
				<dutyTel1>02-2248-0991</dutyTel1>
				<dutyTime1c>1800</dutyTime1c>
				<dutyTime1s>930</dutyTime1s>
				<wgs84Lat>37.5789792700284</wgs84Lat>
				<wgs84Lon>127.070438138096</wgs84Lon>
			</item>
			<item>
				<dutyName>늘솜치과의원</dutyName>
				<dutyTel1>02-2247-7768</dutyTel1>
				<dutyTime1c>1830</dutyTime1c>
				<dutyTime1s>1000</dutyTime1s>
				<wgs84Lat>37.5745419078446</wgs84Lat>
				<wgs84Lon>127.046997065114</wgs84Lon>
			</item>
			<item>
				<dutyName>늘편한의원</dutyName>
				<dutyTel1>02-2212-7536</dutyTel1>
				<dutyTime1c>1800</dutyTime1c>
				<dutyTime1s>830</dutyTime1s>
				<wgs84Lat>37.5724234293</wgs84Lat>
				<wgs84Lon>127.0678696139</wgs84Lon>
			</item>
			<item>
				<dutyName>늘푸른치과의원</dutyName>
				<dutyTel1>02-2212-2887</dutyTel1>
				<dutyTime1c>1800</dutyTime1c>
				<dutyTime1s>930</dutyTime1s>
				<wgs84Lat>37.5789380937</wgs84Lat>
				<wgs84Lon>127.0701397044</wgs84Lon>
			</item>
			<item>
				<dutyName>늘푸른한의원</dutyName>
				<dutyTel1>02-2247-1075</dutyTel1>
				<dutyTime1c>1900</dutyTime1c>
				<dutyTime1s>1000</dutyTime1s>
				<wgs84Lat>37.5750418739527</wgs84Lat>
				<wgs84Lon>127.05738939346</wgs84Lon>
			</item>
			<item>
				<dutyName>다산한의원</dutyName>
				<dutyTel1>02-2215-7575</dutyTel1>
				<dutyTime1c>1830</dutyTime1c>
				<dutyTime1s>900</dutyTime1s>
				<wgs84Lat>37.5782047321425</wgs84Lat>
				<wgs84Lon>127.052736716944</wgs84Lon>
			</item>
			<item>
				<dutyName>다솜누리경희한의원</dutyName>
				<dutyTel1>02-2217-1075</dutyTel1>
				<dutyTime1c>1830</dutyTime1c>
				<dutyTime1s>930</dutyTime1s>
				<wgs84Lat>37.5773960468616</wgs84Lat>
				<wgs84Lon>127.059011966094</wgs84Lon>
			</item>
			<item>
				<dutyName>다일천사병원</dutyName>
				<dutyTel1>02-2213-8004</dutyTel1>
				<dutyTime1c>1800</dutyTime1c>
				<dutyTime1s>1300</dutyTime1s>
				<wgs84Lat>37.5766752174581</wgs84Lat>
				<wgs84Lon>127.047618751117</wgs84Lon>
			</item>
			<item>
				<dutyName>다정산부인과의원</dutyName>
				<dutyTel1>02-2247-2967</dutyTel1>
				<dutyTime1c>1830</dutyTime1c>
				<dutyTime1s>830</dutyTime1s>
				<wgs84Lat>37.5623552418285</wgs84Lat>
				<wgs84Lon>127.065497202027</wgs84Lon>
			</item>
			<item>
				<dutyName>닥터김마취통증의학과의원·한의원</dutyName>
				<dutyTel1>02-2135-7975</dutyTel1>
				<dutyTime1c>1900</dutyTime1c>
				<dutyTime1s>900</dutyTime1s>
				<wgs84Lat>37.5984798354</wgs84Lat>
				<wgs84Lon>127.0618735167</wgs84Lon>
			</item>
			<item>
				<dutyName>닥터김마취통증의학과의원·한의원</dutyName>
				<dutyTel1>02-2135-7975</dutyTel1>
				<dutyTime1c>1900</dutyTime1c>
				<dutyTime1s>900</dutyTime1s>
				<wgs84Lat>37.5984798354</wgs84Lat>
				<wgs84Lon>127.0618735167</wgs84Lon>
			</item>
			<item>
				<dutyName>답십리우리한의원</dutyName>
				<dutyTel1>02-2244-8275</dutyTel1>
				<dutyTime1c>1800</dutyTime1c>
				<dutyTime1s>900</dutyTime1s>
				<wgs84Lat>37.5682556106789</wgs84Lat>
				<wgs84Lon>127.057316291476</wgs84Lon>
			</item>
			<item>
				<dutyName>대운한의원</dutyName>
				<dutyTel1>02-962-1700</dutyTel1>
				<dutyTime1c>1730</dutyTime1c>
				<dutyTime1s>1000</dutyTime1s>
				<wgs84Lat>37.5790392987237</wgs84Lat>
				<wgs84Lon>127.038024678315</wgs84Lon>
			</item>
			<item>
				<dutyName>대지한의원</dutyName>
				<dutyTel1>02-966-2081</dutyTel1>
				<dutyTime1c>1800</dutyTime1c>
				<dutyTime1s>1000</dutyTime1s>
				<wgs84Lat>37.5794790048</wgs84Lat>
				<wgs84Lon>127.0379705406</wgs84Lon>
			</item>
			<item>
				<dutyName>대한민국요양병원</dutyName>
				<dutyTel1>02-2213-9991</dutyTel1>
				<dutyTime1c>1800</dutyTime1c>
				<dutyTime1s>900</dutyTime1s>
				<wgs84Lat>37.5782951694</wgs84Lat>
				<wgs84Lon>127.0724847692</wgs84Lon>
			</item>
			<item>
				<dutyName>더감동치과의원</dutyName>
				<dutyTel1>02-2242-2828</dutyTel1>
				<dutyTime1c>2030</dutyTime1c>
				<dutyTime1s>930</dutyTime1s>
				<wgs84Lat>37.571903977666</wgs84Lat>
				<wgs84Lon>127.074633868927</wgs84Lon>
			</item>
			<item>
				<dutyName>더시카고어린세상치과의원</dutyName>
				<dutyTel1>02-2233-0075</dutyTel1>
				<dutyTime1c>1800</dutyTime1c>
				<dutyTime1s>930</dutyTime1s>
				<wgs84Lat>37.5750786885083</wgs84Lat>
				<wgs84Lon>127.023600594837</wgs84Lon>
			</item>
			<item>
				<dutyName>더원외과의원</dutyName>
				<dutyTel1>02-967-7575</dutyTel1>
				<dutyTime1c>1900</dutyTime1c>
				<dutyTime1s>900</dutyTime1s>
				<wgs84Lat>37.5787280851667</wgs84Lat>
				<wgs84Lon>127.041796609218</wgs84Lon>
			</item>
			<item>
				<dutyName>덕화당한의원</dutyName>
				<dutyTel1>02-2246-8200</dutyTel1>
				<dutyTime1c>1800</dutyTime1c>
				<dutyTime1s>900</dutyTime1s>
				<wgs84Lat>37.5725104304308</wgs84Lat>
				<wgs84Lon>127.07305423467</wgs84Lon>
			</item>
			<item>
				<dutyName>도도성형외과의원</dutyName>
				<dutyTel1>02-2213-3377</dutyTel1>
				<dutyTime1c>1900</dutyTime1c>
				<dutyTime1s>1000</dutyTime1s>
				<wgs84Lat>37.5615204433785</wgs84Lat>
				<wgs84Lon>127.06634298862</wgs84Lon>
			</item>
			<item>
				<dutyName>도연정신건강의학과의원</dutyName>
				<dutyTel1>02-2242-8992</dutyTel1>
				<dutyTime1c>1800</dutyTime1c>
				<dutyTime1s>1030</dutyTime1s>
				<wgs84Lat>37.5895659614572</wgs84Lat>
				<wgs84Lon>127.061275951681</wgs84Lon>
			</item>
			<item>
				<dutyName>도일한의원</dutyName>
				<dutyTel1>02-963-8875</dutyTel1>
				<dutyTime1c>1900</dutyTime1c>
				<dutyTime1s>900</dutyTime1s>
				<wgs84Lat>37.5787828822223</wgs84Lat>
				<wgs84Lon>127.039659260307</wgs84Lon>
			</item>
			<item>
				<dutyName>동광당한의원</dutyName>
				<dutyTel1>02-960-3721</dutyTel1>
				<dutyTime1c>1800</dutyTime1c>
				<dutyTime1s>1000</dutyTime1s>
				<wgs84Lat>37.5815225295</wgs84Lat>
				<wgs84Lon>127.0377496813</wgs84Lon>
			</item>
			<item>
				<dutyName>동광한의원</dutyName>
				<dutyTel1>02-968-3553</dutyTel1>
				<dutyTime1c>1800</dutyTime1c>
				<dutyTime1s>930</dutyTime1s>
				<wgs84Lat>37.5788415449504</wgs84Lat>
				<wgs84Lon>127.036552863969</wgs84Lon>
			</item>
			<item>
				<dutyName>동대문구보건소</dutyName>
				<dutyTel1>02-2127-5370</dutyTel1>
				<dutyTime1c>1800</dutyTime1c>
				<dutyTime1s>900</dutyTime1s>
				<wgs84Lat>37.5746813506217</wgs84Lat>
				<wgs84Lon>127.040254814717</wgs84Lon>
			</item>
			<item>
				<dutyName>동대문나눔치과의원</dutyName>
				<dutyTel1>02-955-2804</dutyTel1>
				<dutyTime1c>1900</dutyTime1c>
				<dutyTime1s>930</dutyTime1s>
				<wgs84Lat>37.5785884053</wgs84Lat>
				<wgs84Lon>127.0392470787</wgs84Lon>
			</item>
			<item>
				<dutyName>동명한의원</dutyName>
				<dutyTel1>02-967-3323</dutyTel1>
				<dutyTime1c>1800</dutyTime1c>
				<dutyTime1s>1000</dutyTime1s>
				<wgs84Lat>37.5783905611986</wgs84Lat>
				<wgs84Lon>127.038092273248</wgs84Lon>
			</item>
			<item>
				<dutyName>동방한의원</dutyName>
				<dutyTel1>02-960-2870</dutyTel1>
				<dutyTime1c>1700</dutyTime1c>
				<dutyTime1s>1000</dutyTime1s>
				<wgs84Lat>37.57935</wgs84Lat>
				<wgs84Lon>127.041461111111</wgs84Lon>
			</item>
			<item>
				<dutyName>동방한의원</dutyName>
				<dutyTel1>02-555-8448</dutyTel1>
				<dutyTime1c>1900</dutyTime1c>
				<dutyTime1s>1000</dutyTime1s>
				<wgs84Lat>37.500965359</wgs84Lat>
				<wgs84Lon>127.0266713994</wgs84Lon>
			</item>
			<item>
				<dutyName>동보한의원</dutyName>
				<dutyTel1>02-965-5858</dutyTel1>
				<dutyTime1c>1800</dutyTime1c>
				<dutyTime1s>1000</dutyTime1s>
				<wgs84Lat>37.5788118878</wgs84Lat>
				<wgs84Lon>127.0391385156</wgs84Lon>
			</item>
			<item>
				<dutyName>동부한의원</dutyName>
				<dutyTel1>02-2245-3103</dutyTel1>
				<dutyTime1c>1900</dutyTime1c>
				<dutyTime1s>1000</dutyTime1s>
				<wgs84Lat>37.5669003939566</wgs84Lat>
				<wgs84Lon>127.053271969708</wgs84Lon>
			</item>
			<item>
				<dutyName>동산내과의원</dutyName>
				<dutyTel1>02-2245-6078</dutyTel1>
				<dutyTime1c>1800</dutyTime1c>
				<dutyTime1s>1000</dutyTime1s>
				<wgs84Lat>37.5618391620626</wgs84Lat>
				<wgs84Lon>127.066764399919</wgs84Lon>
			</item>
			<item>
				<dutyName>동서울병원</dutyName>
				<dutyTel1>02-926-9171</dutyTel1>
				<dutyTime1c>1800</dutyTime1c>
				<dutyTime1s>900</dutyTime1s>
				<wgs84Lat>37.5760441403447</wgs84Lat>
				<wgs84Lon>127.025606862945</wgs84Lon>
			</item>
			<item>
				<dutyName>동안비전내과의원</dutyName>
				<dutyTel1>02-969-0119</dutyTel1>
				<dutyTime1c>2000</dutyTime1c>
				<dutyTime1s>830</dutyTime1s>
				<wgs84Lat>37.5946717121</wgs84Lat>
				<wgs84Lon>127.0594064196</wgs84Lon>
			</item>
			<item>
				<dutyName>동양한의원</dutyName>
				<dutyTel1>02-2266-3414</dutyTel1>
				<dutyTime1c>1800</dutyTime1c>
				<dutyTime1s>1000</dutyTime1s>
				<wgs84Lat>37.5726818096441</wgs84Lat>
				<wgs84Lon>127.056255608903</wgs84Lon>
			</item>
			<item>
				<dutyName>동의당한의원</dutyName>
				<dutyTel1>02-968-2089</dutyTel1>
				<dutyTime1c>900</dutyTime1c>
				<dutyTime1s>900</dutyTime1s>
				<wgs84Lat>37.5960561474001</wgs84Lat>
				<wgs84Lon>127.065254986834</wgs84Lon>
			</item>
			<item>
				<dutyName>동의생한의원</dutyName>
				<dutyTel1>02-2242-5567</dutyTel1>
				<dutyTime1c>1900</dutyTime1c>
				<dutyTime1s>930</dutyTime1s>
				<wgs84Lat>37.5638291150377</wgs84Lat>
				<wgs84Lon>127.065779193679</wgs84Lon>
			</item>
			<item>
				<dutyName>동인내과의원</dutyName>
				<dutyTel1>02-2245-0875</dutyTel1>
				<dutyTime1c>1830</dutyTime1c>
				<dutyTime1s>900</dutyTime1s>
				<wgs84Lat>37.5658185334251</wgs84Lat>
				<wgs84Lon>127.054787942117</wgs84Lon>
			</item>
			<item>
				<dutyName>동중당한의원</dutyName>
				<dutyTel1>02-966-4145</dutyTel1>
				<dutyTime1c>1800</dutyTime1c>
				<dutyTime1s>1000</dutyTime1s>
				<wgs84Lat>37.5837438187576</wgs84Lat>
				<wgs84Lon>127.037777665236</wgs84Lon>
			</item>
			<item>
				<dutyName>동진한의원</dutyName>
				<dutyTel1>02-967-2664</dutyTel1>
				<dutyTime1c>1900</dutyTime1c>
				<dutyTime1s>930</dutyTime1s>
				<wgs84Lat>37.5796163222868</wgs84Lat>
				<wgs84Lon>127.03680230457</wgs84Lon>
			</item>
			<item>
				<dutyName>동천한의원</dutyName>
				<dutyTel1>02-2244-9156</dutyTel1>
				<dutyTime1c>1830</dutyTime1c>
				<dutyTime1s>930</dutyTime1s>
				<wgs84Lat>37.5779643674185</wgs84Lat>
				<wgs84Lon>127.067978357659</wgs84Lon>
			</item>
			<item>
				<dutyName>동호권가정의학과의원</dutyName>
				<dutyTel1>02-963-6868</dutyTel1>
				<dutyTime1c>1830</dutyTime1c>
				<dutyTime1s>900</dutyTime1s>
				<wgs84Lat>37.5875242604781</wgs84Lat>
				<wgs84Lon>127.038082931035</wgs84Lon>
			</item>
			<item>
				<dutyName>두산치과의원</dutyName>
				<dutyTel1>02-921-2828</dutyTel1>
				<dutyTime1c>1730</dutyTime1c>
				<dutyTime1s>1000</dutyTime1s>
				<wgs84Lat>37.5785328169664</wgs84Lat>
				<wgs84Lon>127.032409269092</wgs84Lon>
			</item>
			<item>
				<dutyName>디알드림치과의원</dutyName>
				<dutyTel1>02-922-2875</dutyTel1>
				<dutyTime1c>1830</dutyTime1c>
				<dutyTime1s>1000</dutyTime1s>
				<wgs84Lat>37.5767011665621</wgs84Lat>
				<wgs84Lon>127.025842485776</wgs84Lon>
			</item>
			<item>
				<dutyName>디엠치과의원</dutyName>
				<dutyTel1>02-2213-2875</dutyTel1>
				<dutyTime1c>1830</dutyTime1c>
				<dutyTime1s>930</dutyTime1s>
				<wgs84Lat>37.575681969613</wgs84Lat>
				<wgs84Lon>127.04759978115</wgs84Lon>
			</item>
			<item>
				<dutyName>딸기소아청소년과의원</dutyName>
				<dutyTel1>02-2244-4525</dutyTel1>
				<dutyTime1c>1900</dutyTime1c>
				<dutyTime1s>900</dutyTime1s>
				<wgs84Lat>37.5753808217206</wgs84Lat>
				<wgs84Lon>127.073305639329</wgs84Lon>
			</item>
			<item>
				<dutyName>라이프치과의원</dutyName>
				<dutyTel1>02-962-4262</dutyTel1>
				<dutyTime1c>2130</dutyTime1c>
				<dutyTime1s>930</dutyTime1s>
				<wgs84Lat>37.5978025200299</wgs84Lat>
				<wgs84Lon>127.061433594487</wgs84Lon>
			</item>
			<item>
				<dutyName>라이프한의원</dutyName>
				<dutyTel1>02-957-7510</dutyTel1>
				<dutyTime1c>1900</dutyTime1c>
				<dutyTime1s>930</dutyTime1s>
				<wgs84Lat>37.5957338593</wgs84Lat>
				<wgs84Lon>127.0614047175</wgs84Lon>
			</item>
			<item>
				<dutyName>라임소아청소년과의원</dutyName>
				<dutyTel1>02-6338-8275</dutyTel1>
				<dutyTime1c>1800</dutyTime1c>
				<dutyTime1s>830</dutyTime1s>
				<wgs84Lat>37.5983767867115</wgs84Lat>
				<wgs84Lon>127.061827333595</wgs84Lon>
			</item>
			<item>
				<dutyName>라플레르의원</dutyName>
				<dutyTel1>02-960-1401</dutyTel1>
				<dutyTime1c>1900</dutyTime1c>
				<dutyTime1s>1000</dutyTime1s>
				<wgs84Lat>37.5798415166132</wgs84Lat>
				<wgs84Lon>127.046058168889</wgs84Lon>
			</item>
			<item>
				<dutyName>라환도외과의원</dutyName>
				<dutyTel1>02-968-5700</dutyTel1>
				<dutyTime1c>1800</dutyTime1c>
				<dutyTime1s>900</dutyTime1s>
				<wgs84Lat>37.5793150381882</wgs84Lat>
				<wgs84Lon>127.043162264197</wgs84Lon>
			</item>
			<item>
				<dutyName>래미안서울치과의원</dutyName>
				<dutyTel1>02-882-2825</dutyTel1>
				<dutyTime1c>1830</dutyTime1c>
				<dutyTime1s>930</dutyTime1s>
				<wgs84Lat>37.5713988273184</wgs84Lat>
				<wgs84Lon>127.056191232609</wgs84Lon>
			</item>
			<item>
				<dutyName>로마린다부부치과의원</dutyName>
				<dutyTel1>02-2244-2275</dutyTel1>
				<dutyTime1c>1800</dutyTime1c>
				<dutyTime1s>900</dutyTime1s>
				<wgs84Lat>37.5918490991</wgs84Lat>
				<wgs84Lon>127.0674298078</wgs84Lon>
			</item>
			<item>
				<dutyName>류훈치과의원</dutyName>
				<dutyTel1>02-925-2601</dutyTel1>
				<dutyTime1c>1800</dutyTime1c>
				<dutyTime1s>1000</dutyTime1s>
				<wgs84Lat>37.5756552243963</wgs84Lat>
				<wgs84Lon>127.02409887409</wgs84Lon>
			</item>
			<item>
				<dutyName>리즈의원</dutyName>
				<dutyTel1>02-967-2012</dutyTel1>
				<dutyTime1c>1800</dutyTime1c>
				<dutyTime1s>900</dutyTime1s>
				<wgs84Lat>37.5817477225938</wgs84Lat>
				<wgs84Lon>127.046797448119</wgs84Lon>
			</item>
			<item>
				<dutyName>린여성병원</dutyName>
				<dutyTel1>02-2244-1212</dutyTel1>
				<dutyTime1c>1730</dutyTime1c>
				<dutyTime1s>900</dutyTime1s>
				<wgs84Lat>37.5722817227213</wgs84Lat>
				<wgs84Lon>127.069843672463</wgs84Lon>
			</item>
			<item>
				<dutyName>림플란트치과의원</dutyName>
				<dutyTel1>02-967-2228</dutyTel1>
				<dutyTime1c>1800</dutyTime1c>
				<dutyTime1s>900</dutyTime1s>
				<wgs84Lat>37.578448405456</wgs84Lat>
				<wgs84Lon>127.037539826212</wgs84Lon>
			</item>
			<item>
				<dutyName>마산한의원</dutyName>
				<dutyTel1>02-966-6910</dutyTel1>
				<dutyTime1c>1800</dutyTime1c>
				<dutyTime1s>930</dutyTime1s>
				<wgs84Lat>37.5891240319821</wgs84Lat>
				<wgs84Lon>127.054356755238</wgs84Lon>
			</item>
			<item>
				<dutyName>마음과마음정신건강의학과의원</dutyName>
				<dutyTel1>02-6959-0456</dutyTel1>
				<dutyTime1c>1830</dutyTime1c>
				<dutyTime1s>930</dutyTime1s>
				<wgs84Lat>37.5752768323</wgs84Lat>
				<wgs84Lon>127.0377691689</wgs84Lon>
			</item>
			<item>
				<dutyName>마음아람한의원</dutyName>
				<dutyTel1>02-2212-8676</dutyTel1>
				<dutyTime1c>1900</dutyTime1c>
				<dutyTime1s>1000</dutyTime1s>
				<wgs84Lat>37.5748794119</wgs84Lat>
				<wgs84Lon>127.0500944838</wgs84Lon>
			</item>
			<item>
				<dutyName>마이덴치과의원</dutyName>
				<dutyTel1>02-2231-2875</dutyTel1>
				<dutyTime1c>1900</dutyTime1c>
				<dutyTime1s>1000</dutyTime1s>
				<wgs84Lat>37.5732678155263</wgs84Lat>
				<wgs84Lon>127.046321404528</wgs84Lon>
			</item>
			<item>
				<dutyName>만보당한의원</dutyName>
				<dutyTel1>02-963-3777</dutyTel1>
				<dutyTime1c>1810</dutyTime1c>
				<dutyTime1s>850</dutyTime1s>
				<wgs84Lat>37.5746354050972</wgs84Lat>
				<wgs84Lon>127.037515271601</wgs84Lon>
			</item>
			<item>
				<dutyName>맑은수병원</dutyName>
				<dutyTel1>02-2681-0119</dutyTel1>
				<dutyTime1c>1800</dutyTime1c>
				<dutyTime1s>900</dutyTime1s>
				<wgs84Lat>37.5638833032039</wgs84Lat>
				<wgs84Lon>127.06554834168</wgs84Lon>
			</item>
			<item>
				<dutyName>맑은숲한의원</dutyName>
				<dutyTel1>02-2214-1075</dutyTel1>
				<dutyTime1c>1900</dutyTime1c>
				<dutyTime1s>930</dutyTime1s>
				<wgs84Lat>37.5725252297</wgs84Lat>
				<wgs84Lon>127.0724384249</wgs84Lon>
			</item>
			<item>
				<dutyName>메디홈즈의원</dutyName>
				<dutyTel1>02-956-2155</dutyTel1>
				<dutyTime1c>1900</dutyTime1c>
				<dutyTime1s>900</dutyTime1s>
				<wgs84Lat>37.5904162818877</wgs84Lat>
				<wgs84Lon>127.055801330043</wgs84Lon>
			</item>
			<item>
				<dutyName>멘토스병원</dutyName>
				<dutyTel1>02-2214-5100</dutyTel1>
				<dutyTime1c>1800</dutyTime1c>
				<dutyTime1s>930</dutyTime1s>
				<wgs84Lat>37.5665667826074</wgs84Lat>
				<wgs84Lon>127.06162073061</wgs84Lon>
			</item>
			<item>
				<dutyName>명가한의원</dutyName>
				<dutyTel1>02-2235-1075</dutyTel1>
				<dutyTime1c>1830</dutyTime1c>
				<dutyTime1s>830</dutyTime1s>
				<wgs84Lat>37.5690437849</wgs84Lat>
				<wgs84Lon>127.0663044713</wgs84Lon>
			</item>
			<item>
				<dutyName>명성한의원</dutyName>
				<dutyTel1>02-965-4696</dutyTel1>
				<dutyTime1c>1900</dutyTime1c>
				<dutyTime1s>930</dutyTime1s>
				<wgs84Lat>37.5788142495103</wgs84Lat>
				<wgs84Lon>127.042711404453</wgs84Lon>
			</item>
			<item>
				<dutyName>명천한의원</dutyName>
				<dutyTel1>02-2247-9116</dutyTel1>
				<dutyTime1c>1830</dutyTime1c>
				<dutyTime1s>930</dutyTime1s>
				<wgs84Lat>37.5772109140224</wgs84Lat>
				<wgs84Lon>127.058518592606</wgs84Lon>
			</item>
			<item>
				<dutyName>명치과의원</dutyName>
				<dutyTel1>02-967-3364</dutyTel1>
				<dutyTime1c>1800</dutyTime1c>
				<dutyTime1s>1000</dutyTime1s>
				<wgs84Lat>37.5819962779739</wgs84Lat>
				<wgs84Lon>127.047101008431</wgs84Lon>
			</item>
			<item>
				<dutyName>목화한의원</dutyName>
				<dutyTel1>02-967-5005</dutyTel1>
				<dutyTime1c>1830</dutyTime1c>
				<dutyTime1s>1030</dutyTime1s>
				<wgs84Lat>37.5800127666024</wgs84Lat>
				<wgs84Lon>127.0367798576</wgs84Lon>
			</item>
			<item>
				<dutyName>무궁한의원</dutyName>
				<dutyTel1>02-2213-7975</dutyTel1>
				<dutyTime1c>1830</dutyTime1c>
				<dutyTime1s>930</dutyTime1s>
				<wgs84Lat>37.5806641828375</wgs84Lat>
				<wgs84Lon>127.070494564186</wgs84Lon>
			</item>
			<item>
				<dutyName>문경당한의원</dutyName>
				<dutyTel1>02-965-9539</dutyTel1>
				<dutyTime1c>1730</dutyTime1c>
				<dutyTime1s>1000</dutyTime1s>
				<wgs84Lat>37.5794361277585</wgs84Lat>
				<wgs84Lon>127.036788630718</wgs84Lon>
			</item>
			<item>
				<dutyName>문성규치과의원</dutyName>
				<dutyTel1>02-2247-3399</dutyTel1>
				<dutyTime1c>1830</dutyTime1c>
				<dutyTime1s>930</dutyTime1s>
				<wgs84Lat>37.5623588490225</wgs84Lat>
				<wgs84Lon>127.065483643793</wgs84Lon>
			</item>
			<item>
				<dutyName>문창현내과의원</dutyName>
				<dutyTel1>02-2212-4395</dutyTel1>
				<dutyTime1c>1800</dutyTime1c>
				<dutyTime1s>900</dutyTime1s>
				<wgs84Lat>37.5901979744414</wgs84Lat>
				<wgs84Lon>127.061771550252</wgs84Lon>
			</item>
			<item>
				<dutyName>미도치과의원</dutyName>
				<dutyTel1>02-963-3075</dutyTel1>
				<dutyTime1c>1730</dutyTime1c>
				<dutyTime1s>930</dutyTime1s>
				<wgs84Lat>37.5773472222222</wgs84Lat>
				<wgs84Lon>127.038683333333</wgs84Lon>
			</item>
			<item>
				<dutyName>미래로으랏차정형외과의원</dutyName>
				<dutyTel1>02-965-7582</dutyTel1>
				<dutyTime1c>1900</dutyTime1c>
				<dutyTime1s>900</dutyTime1s>
				<wgs84Lat>37.5787280851667</wgs84Lat>
				<wgs84Lon>127.041796609218</wgs84Lon>
			</item>
			<item>
				<dutyName>미래이비인후과의원</dutyName>
				<dutyTel1>02-960-0075</dutyTel1>
				<dutyTime1c>1830</dutyTime1c>
				<dutyTime1s>930</dutyTime1s>
				<wgs84Lat>37.575897778647</wgs84Lat>
				<wgs84Lon>127.038579868949</wgs84Lon>
			</item>
			<item>
				<dutyName>미명성한의원</dutyName>
				<dutyTel1>02-495-4108</dutyTel1>
				<dutyTime1c>1700</dutyTime1c>
				<dutyTime1s>1000</dutyTime1s>
				<wgs84Lat>37.5786792059</wgs84Lat>
				<wgs84Lon>127.0370780514</wgs84Lon>
			</item>
			<item>
				<dutyName>미몽피부과의원</dutyName>
				<dutyTel1>02-957-7537</dutyTel1>
				<dutyTime1c>2030</dutyTime1c>
				<dutyTime1s>930</dutyTime1s>
				<wgs84Lat>37.59015</wgs84Lat>
				<wgs84Lon>127.056322222222</wgs84Lon>
			</item>
			<item>
				<dutyName>미서울치과의원</dutyName>
				<dutyTel1>02-2244-2894</dutyTel1>
				<dutyTime1c>1800</dutyTime1c>
				<dutyTime1s>900</dutyTime1s>
				<wgs84Lat>37.573147087187</wgs84Lat>
				<wgs84Lon>127.072121695664</wgs84Lon>
			</item>
			<item>
				<dutyName>미소진의원</dutyName>
				<dutyTel1>02-963-0901</dutyTel1>
				<dutyTime1c>1900</dutyTime1c>
				<dutyTime1s>930</dutyTime1s>
				<wgs84Lat>37.5957888888889</wgs84Lat>
				<wgs84Lon>127.062347222222</wgs84Lon>
			</item>
			<item>
				<dutyName>미주마취통증의학과의원</dutyName>
				<dutyTel1>02-965-6688</dutyTel1>
				<dutyTime1c>1830</dutyTime1c>
				<dutyTime1s>930</dutyTime1s>
				<wgs84Lat>37.5818269414946</wgs84Lat>
				<wgs84Lon>127.046974107363</wgs84Lon>
			</item>
			<item>
				<dutyName>미주부부치과의원</dutyName>
				<dutyTel1>02-962-0003</dutyTel1>
				<dutyTime1c>1900</dutyTime1c>
				<dutyTime1s>930</dutyTime1s>
				<wgs84Lat>37.5824357462773</wgs84Lat>
				<wgs84Lon>127.0476492286</wgs84Lon>
			</item>
			<item>
				<dutyName>미즈아이산부인과의원</dutyName>
				<dutyTel1>02-965-7770</dutyTel1>
				<dutyTime1c>1800</dutyTime1c>
				<dutyTime1s>900</dutyTime1s>
				<wgs84Lat>37.5833869427</wgs84Lat>
				<wgs84Lon>127.0447473488</wgs84Lon>
			</item>
			<item>
				<dutyName>미즈아이소아과의원</dutyName>
				<dutyTel1>02-965-7780</dutyTel1>
				<dutyTime1c>1800</dutyTime1c>
				<dutyTime1s>900</dutyTime1s>
				<wgs84Lat>37.5833869427182</wgs84Lat>
				<wgs84Lon>127.044747348825</wgs84Lon>
			</item>
			<item>
				<dutyName>민병근피부과의원</dutyName>
				<dutyTel1>02-2212-5300</dutyTel1>
				<dutyTime1c>1830</dutyTime1c>
				<dutyTime1s>940</dutyTime1s>
				<wgs84Lat>37.5769102097528</wgs84Lat>
				<wgs84Lon>127.058049705888</wgs84Lon>
			</item>
			<item>
				<dutyName>민재활의학과의원</dutyName>
				<dutyTel1>02-2246-7744</dutyTel1>
				<dutyTime1c>1800</dutyTime1c>
				<dutyTime1s>900</dutyTime1s>
				<wgs84Lat>37.5891969710835</wgs84Lat>
				<wgs84Lon>127.060027066834</wgs84Lon>
			</item>
			<item>
				<dutyName>바른정형외과의원</dutyName>
				<dutyTel1>02-957-7741</dutyTel1>
				<dutyTime1c>1900</dutyTime1c>
				<dutyTime1s>900</dutyTime1s>
				<wgs84Lat>37.6031760367599</wgs84Lat>
				<wgs84Lon>127.062276596772</wgs84Lon>
			</item>
			<item>
				<dutyName>바른케이(K)치과의원</dutyName>
				<dutyTel1>02-2248-2775</dutyTel1>
				<dutyTime1c>2100</dutyTime1c>
				<dutyTime1s>930</dutyTime1s>
				<wgs84Lat>37.5753136081</wgs84Lat>
				<wgs84Lon>127.0458654953</wgs84Lon>
			</item>
			<item>
				<dutyName>박광선치과의원</dutyName>
				<dutyTel1>02-2242-2875</dutyTel1>
				<dutyTime1c>1800</dutyTime1c>
				<dutyTime1s>900</dutyTime1s>
				<wgs84Lat>37.5918490991</wgs84Lat>
				<wgs84Lon>127.0674298078</wgs84Lon>
			</item>
			<item>
				<dutyName>박신경정신과의원</dutyName>
				<dutyTel1>02-923-7610</dutyTel1>
				<dutyTime1c>1800</dutyTime1c>
				<dutyTime1s>1100</dutyTime1s>
				<wgs84Lat>37.5769305555556</wgs84Lat>
				<wgs84Lon>127.026630555556</wgs84Lon>
			</item>
			<item>
				<dutyName>박영수한의원</dutyName>
				<dutyTel1>02-2212-0576</dutyTel1>
				<dutyTime1c>1800</dutyTime1c>
				<dutyTime1s>930</dutyTime1s>
				<wgs84Lat>37.5897329169831</wgs84Lat>
				<wgs84Lon>127.062042927192</wgs84Lon>
			</item>
			<item>
				<dutyName>박이비인후과의원</dutyName>
				<dutyTel1>02-2212-0770</dutyTel1>
				<dutyTime1c>1800</dutyTime1c>
				<dutyTime1s>930</dutyTime1s>
				<wgs84Lat>37.5780708294533</wgs84Lat>
				<wgs84Lon>127.057250989229</wgs84Lon>
			</item>
			<item>
				<dutyName>박일랑내과의원</dutyName>
				<dutyTel1>02-2213-8252</dutyTel1>
				<dutyTime1c>1800</dutyTime1c>
				<dutyTime1s>930</dutyTime1s>
				<wgs84Lat>37.570954561264</wgs84Lat>
				<wgs84Lon>127.074302042689</wgs84Lon>
			</item>
			<item>
				<dutyName>반디한의원</dutyName>
				<dutyTel1>02-2212-1775</dutyTel1>
				<dutyTime1c>1800</dutyTime1c>
				<dutyTime1s>900</dutyTime1s>
				<wgs84Lat>37.5727616633</wgs84Lat>
				<wgs84Lon>127.068802685</wgs84Lon>
			</item>
			<item>
				<dutyName>반석치과의원</dutyName>
				<dutyTel1>02-963-7528</dutyTel1>
				<dutyTime1c>1900</dutyTime1c>
				<dutyTime1s>1000</dutyTime1s>
				<wgs84Lat>37.6010365256664</wgs84Lat>
				<wgs84Lon>127.068447310379</wgs84Lon>
			</item>
			<item>
				<dutyName>반짝반짝어린이치과의원</dutyName>
				<dutyTel1>02-6677-0023</dutyTel1>
				<dutyTime1c>1800</dutyTime1c>
				<dutyTime1s>1000</dutyTime1s>
				<wgs84Lat>37.5772109140224</wgs84Lat>
				<wgs84Lon>127.058518592606</wgs84Lon>
			</item>
			<item>
				<dutyName>발효명가서초한의원</dutyName>
				<dutyTel1>02-2212-2776</dutyTel1>
				<dutyTime1c>1830</dutyTime1c>
				<dutyTime1s>900</dutyTime1s>
				<wgs84Lat>37.5809918049322</wgs84Lat>
				<wgs84Lon>127.071060933048</wgs84Lon>
			</item>
			<item>
				<dutyName>밝은성모안과의원</dutyName>
				<dutyTel1>02-965-1515</dutyTel1>
				<dutyTime1c>1830</dutyTime1c>
				<dutyTime1s>930</dutyTime1s>
				<wgs84Lat>37.5978991540449</wgs84Lat>
				<wgs84Lon>127.060988670877</wgs84Lon>
			</item>
			<item>
				<dutyName>방이비인후과의원</dutyName>
				<dutyTel1>02-964-0133</dutyTel1>
				<dutyTime1c>1840</dutyTime1c>
				<dutyTime1s>900</dutyTime1s>
				<wgs84Lat>37.5982653985239</wgs84Lat>
				<wgs84Lon>127.061170467662</wgs84Lon>
			</item>
			<item>
				<dutyName>백년치과의원</dutyName>
				<dutyTel1>02-3394-7828</dutyTel1>
				<dutyTime1c>1830</dutyTime1c>
				<dutyTime1s>900</dutyTime1s>
				<wgs84Lat>37.5719963606</wgs84Lat>
				<wgs84Lon>127.0709301104</wgs84Lon>
			</item>
			<item>
				<dutyName>백봉한의원</dutyName>
				<dutyTel1>02-964-7778</dutyTel1>
				<dutyTime1c>1800</dutyTime1c>
				<dutyTime1s>1000</dutyTime1s>
				<wgs84Lat>37.5789060720973</wgs84Lat>
				<wgs84Lon>127.037648757182</wgs84Lon>
			</item>
			<item>
				<dutyName>백비뇨기과의원</dutyName>
				<dutyTel1>02-966-9466</dutyTel1>
				<dutyTime1c>1800</dutyTime1c>
				<dutyTime1s>900</dutyTime1s>
				<wgs84Lat>37.5794992324854</wgs84Lat>
				<wgs84Lon>127.042077821158</wgs84Lon>
			</item>
			<item>
				<dutyName>백서영비뇨기과의원</dutyName>
				<dutyTel1>02-2243-3063</dutyTel1>
				<dutyTime1c>1830</dutyTime1c>
				<dutyTime1s>930</dutyTime1s>
				<wgs84Lat>37.5721441965303</wgs84Lat>
				<wgs84Lon>127.070802356843</wgs84Lon>
			</item>
			<item>
				<dutyName>백운당한의원</dutyName>
				<dutyTel1>02-922-7799</dutyTel1>
				<dutyTime1c>1800</dutyTime1c>
				<dutyTime1s>1030</dutyTime1s>
				<wgs84Lat>37.5759960498898</wgs84Lat>
				<wgs84Lon>127.030778046306</wgs84Lon>
			</item>
			<item>
				<dutyName>변상윤정형외과의원</dutyName>
				<dutyTel1>02-2248-4197</dutyTel1>
				<dutyTime1c>1800</dutyTime1c>
				<dutyTime1s>900</dutyTime1s>
				<wgs84Lat>37.5730577920303</wgs84Lat>
				<wgs84Lon>127.057134054487</wgs84Lon>
			</item>
			<item>
				<dutyName>보건당한의원</dutyName>
				<dutyTel1>02-967-9929</dutyTel1>
				<dutyTime1c>1800</dutyTime1c>
				<dutyTime1s>1000</dutyTime1s>
				<wgs84Lat>37.5788738461</wgs84Lat>
				<wgs84Lon>127.0369966376</wgs84Lon>
			</item>
			<item>
				<dutyName>보람산부인과의원</dutyName>
				<dutyTel1>02-965-3655</dutyTel1>
				<dutyTime1c>1800</dutyTime1c>
				<dutyTime1s>930</dutyTime1s>
				<wgs84Lat>37.5936747120232</wgs84Lat>
				<wgs84Lon>127.058605103127</wgs84Lon>
			</item>
			<item>
				<dutyName>보생당한의원</dutyName>
				<dutyTel1>02-967-7873</dutyTel1>
				<dutyTime1c>1800</dutyTime1c>
				<dutyTime1s>1000</dutyTime1s>
				<wgs84Lat>37.5793855051</wgs84Lat>
				<wgs84Lon>127.0373319911</wgs84Lon>
			</item>
			<item>
				<dutyName>보스톤클래식치과의원</dutyName>
				<dutyTel1>02-3707-1875</dutyTel1>
				<dutyTime1c>1900</dutyTime1c>
				<dutyTime1s>1000</dutyTime1s>
				<wgs84Lat>37.580637223506</wgs84Lat>
				<wgs84Lon>127.048042091723</wgs84Lon>
			</item>
			<item>
				<dutyName>보아스이비인후과의원</dutyName>
				<dutyTel1>02-928-4124</dutyTel1>
				<dutyTime1c>1900</dutyTime1c>
				<dutyTime1s>900</dutyTime1s>
				<wgs84Lat>37.5777507355</wgs84Lat>
				<wgs84Lon>127.0324768544</wgs84Lon>
			</item>
			<item>
				<dutyName>보인내과의원</dutyName>
				<dutyTel1>02-966-0242</dutyTel1>
				<dutyTime1c>1830</dutyTime1c>
				<dutyTime1s>900</dutyTime1s>
				<wgs84Lat>37.5974277777778</wgs84Lat>
				<wgs84Lon>127.060630555556</wgs84Lon>
			</item>
			<item>
				<dutyName>보인한의원</dutyName>
				<dutyTel1>02-966-0241</dutyTel1>
				<dutyTime1c>1800</dutyTime1c>
				<dutyTime1s>1000</dutyTime1s>
				<wgs84Lat>37.5879916666667</wgs84Lat>
				<wgs84Lon>127.034641666667</wgs84Lon>
			</item>
			<item>
				<dutyName>보화당한의원</dutyName>
				<dutyTel1>02-960-7500</dutyTel1>
				<dutyTime1c>1800</dutyTime1c>
				<dutyTime1s>900</dutyTime1s>
				<wgs84Lat>37.5819151876175</wgs84Lat>
				<wgs84Lon>127.038293303873</wgs84Lon>
			</item>
			<item>
				<dutyName>봄날애의원</dutyName>
				<dutyTel1>02-2216-8275</dutyTel1>
				<dutyTime1c>1900</dutyTime1c>
				<dutyTime1s>1000</dutyTime1s>
				<wgs84Lat>37.5718773149</wgs84Lat>
				<wgs84Lon>127.0711201704</wgs84Lon>
			</item>
			<item>
				<dutyName>봄소아청소년과의원</dutyName>
				<dutyTel1>02-951-9898</dutyTel1>
				<dutyTime1c>1900</dutyTime1c>
				<dutyTime1s>900</dutyTime1s>
				<wgs84Lat>37.5917126215</wgs84Lat>
				<wgs84Lon>127.0665963249</wgs84Lon>
			</item>
			<item>
				<dutyName>부강한의원</dutyName>
				<dutyTel1>02-963-7945</dutyTel1>
				<dutyTime1c>1800</dutyTime1c>
				<dutyTime1s>1000</dutyTime1s>
				<wgs84Lat>37.5808593060718</wgs84Lat>
				<wgs84Lon>127.038025603915</wgs84Lon>
			</item>
			<item>
				<dutyName>부모마음치과의원</dutyName>
				<dutyTel1>02-965-0603</dutyTel1>
				<dutyTime1c>1900</dutyTime1c>
				<dutyTime1s>1000</dutyTime1s>
				<wgs84Lat>37.5787623685921</wgs84Lat>
				<wgs84Lon>127.036204121975</wgs84Lon>
			</item>
			<item>
				<dutyName>부부치과의원</dutyName>
				<dutyTel1>02-965-1143</dutyTel1>
				<dutyTime1c>1830</dutyTime1c>
				<dutyTime1s>930</dutyTime1s>
				<wgs84Lat>37.5829488777514</wgs84Lat>
				<wgs84Lon>127.043994995579</wgs84Lon>
			</item>
			<item>
				<dutyName>부부치과의원</dutyName>
				<dutyTel1>02-966-1355</dutyTel1>
				<dutyTime1c>2100</dutyTime1c>
				<dutyTime1s>930</dutyTime1s>
				<wgs84Lat>37.6032817282878</wgs84Lat>
				<wgs84Lon>127.061849411852</wgs84Lon>
			</item>
			<item>
				<dutyName>부산한의원</dutyName>
				<dutyTel1>02-967-0111</dutyTel1>
				<dutyTime1c>1700</dutyTime1c>
				<dutyTime1s>1100</dutyTime1s>
				<wgs84Lat>37.5784269019515</wgs84Lat>
				<wgs84Lon>127.037159436118</wgs84Lon>
			</item>
			<item>
				<dutyName>부치과의원</dutyName>
				<dutyTel1>02-965-6923</dutyTel1>
				<dutyTime1c>1700</dutyTime1c>
				<dutyTime1s>1000</dutyTime1s>
				<wgs84Lat>37.5934038161829</wgs84Lat>
				<wgs84Lon>127.057992312066</wgs84Lon>
			</item>
			<item>
				<dutyName>부흥한의원</dutyName>
				<dutyTel1>02-967-8857</dutyTel1>
				<dutyTime1c>1800</dutyTime1c>
				<dutyTime1s>1000</dutyTime1s>
				<wgs84Lat>37.5788629978688</wgs84Lat>
				<wgs84Lon>127.037100804975</wgs84Lon>
			</item>
			<item>
				<dutyName>불로장생한의원</dutyName>
				<dutyTel1>02-966-7588</dutyTel1>
				<dutyTime1c>1800</dutyTime1c>
				<dutyTime1s>900</dutyTime1s>
				<wgs84Lat>37.5784955852</wgs84Lat>
				<wgs84Lon>127.0364938059</wgs84Lon>
			</item>
			<item>
				<dutyName>불암한의원</dutyName>
				<dutyTel1>02-966-0916</dutyTel1>
				<dutyTime1c>1800</dutyTime1c>
				<dutyTime1s>900</dutyTime1s>
				<wgs84Lat>37.5797672600369</wgs84Lat>
				<wgs84Lon>127.038165408411</wgs84Lon>
			</item>
			<item>
				<dutyName>브레인요양병원</dutyName>
				<dutyTel1>02-2211-2211</dutyTel1>
				<dutyTime1c>1800</dutyTime1c>
				<dutyTime1s>900</dutyTime1s>
				<wgs84Lat>37.5754695921</wgs84Lat>
				<wgs84Lon>127.0725816495</wgs84Lon>
			</item>
			<item>
				<dutyName>빛치과의원</dutyName>
				<dutyTel1>02-957-0811</dutyTel1>
				<dutyTime1c>1830</dutyTime1c>
				<dutyTime1s>1000</dutyTime1s>
				<wgs84Lat>37.5957981692033</wgs84Lat>
				<wgs84Lon>127.062469194716</wgs84Lon>
			</item>
			<item>
				<dutyName>사단법인대한민국재향소방동우회복지의원</dutyName>
				<dutyTel1>02-933-9119</dutyTel1>
				<dutyTime1c>1900</dutyTime1c>
				<dutyTime1s>900</dutyTime1s>
				<wgs84Lat>37.5761594233</wgs84Lat>
				<wgs84Lon>127.0258106709</wgs84Lon>
			</item>
			<item>
				<dutyName>사랑내과의원</dutyName>
				<dutyTel1>02-962-9175</dutyTel1>
				<dutyTime1c>1830</dutyTime1c>
				<dutyTime1s>900</dutyTime1s>
				<wgs84Lat>37.5904404207324</wgs84Lat>
				<wgs84Lon>127.05540331439</wgs84Lon>
			</item>
			<item>
				<dutyName>사랑이가득한치과의원</dutyName>
				<dutyTel1>02-2216-2808</dutyTel1>
				<dutyTime1c>1800</dutyTime1c>
				<dutyTime1s>930</dutyTime1s>
				<wgs84Lat>37.5843090848262</wgs84Lat>
				<wgs84Lon>127.068315156331</wgs84Lon>
			</item>
			<item>
				<dutyName>산들한의원</dutyName>
				<dutyTel1>02-2244-0675</dutyTel1>
				<dutyTime1c>2030</dutyTime1c>
				<dutyTime1s>900</dutyTime1s>
				<wgs84Lat>37.5751174885</wgs84Lat>
				<wgs84Lon>127.0495874933</wgs84Lon>
			</item>
			<item>
				<dutyName>삼성서울가정의원</dutyName>
				<dutyTel1>02-962-7575</dutyTel1>
				<dutyTime1c>1900</dutyTime1c>
				<dutyTime1s>900</dutyTime1s>
				<wgs84Lat>37.6054467045049</wgs84Lat>
				<wgs84Lon>127.064467048382</wgs84Lon>
			</item>
			<item>
				<dutyName>삼육서울병원</dutyName>
				<dutyTel1>1577-3675</dutyTel1>
				<dutyTime1c>1700</dutyTime1c>
				<dutyTime1s>900</dutyTime1s>
				<wgs84Lat>37.5879920013054</wgs84Lat>
				<wgs84Lon>127.065328826682</wgs84Lon>
			</item>
			<item>
				<dutyName>삼육치과병원</dutyName>
				<dutyTel1>02-3407-2875</dutyTel1>
				<dutyTime1c>1730</dutyTime1c>
				<dutyTime1s>830</dutyTime1s>
				<wgs84Lat>37.5874741393736</wgs84Lat>
				<wgs84Lon>127.063249648961</wgs84Lon>
			</item>
			<item>
				<dutyName>삼화한의원</dutyName>
				<dutyTel1>02-966-9913</dutyTel1>
				<dutyTime1c>1830</dutyTime1c>
				<dutyTime1s>930</dutyTime1s>
				<wgs84Lat>37.5786429818725</wgs84Lat>
				<wgs84Lon>127.037648624712</wgs84Lon>
			</item>
			<item>
				<dutyName>상록한의원</dutyName>
				<dutyTel1>02-969-3159</dutyTel1>
				<dutyTime1c>1800</dutyTime1c>
				<dutyTime1s>1000</dutyTime1s>
				<wgs84Lat>37.5785996209868</wgs84Lat>
				<wgs84Lon>127.038001813043</wgs84Lon>
			</item>
			<item>
				<dutyName>새서울안과의원</dutyName>
				<dutyTel1>02-2247-7501</dutyTel1>
				<dutyTime1c>1800</dutyTime1c>
				<dutyTime1s>900</dutyTime1s>
				<wgs84Lat>37.573190307995</wgs84Lat>
				<wgs84Lon>127.072196841425</wgs84Lon>
			</item>
			<item>
				<dutyName>새서울외과의원</dutyName>
				<dutyTel1>02-2242-3631</dutyTel1>
				<dutyTime1c>1800</dutyTime1c>
				<dutyTime1s>900</dutyTime1s>
				<wgs84Lat>37.5731948302701</wgs84Lat>
				<wgs84Lon>127.072168545744</wgs84Lon>
			</item>
			<item>
				<dutyName>새서울이비인후과의원</dutyName>
				<dutyTel1>02-2248-0298</dutyTel1>
				<dutyTime1c>1800</dutyTime1c>
				<dutyTime1s>900</dutyTime1s>
				<wgs84Lat>37.5731903183781</wgs84Lat>
				<wgs84Lon>127.072179861408</wgs84Lon>
			</item>
			<item>
				<dutyName>새서울정형외과의원</dutyName>
				<dutyTel1>02-2243-4852</dutyTel1>
				<dutyTime1c>1800</dutyTime1c>
				<dutyTime1s>900</dutyTime1s>
				<wgs84Lat>37.5731453078109</wgs84Lat>
				<wgs84Lon>127.072122065221</wgs84Lon>
			</item>
			<item>
				<dutyName>새서울치과의원</dutyName>
				<dutyTel1>02-2243-5507</dutyTel1>
				<dutyTime1c>1830</dutyTime1c>
				<dutyTime1s>930</dutyTime1s>
				<wgs84Lat>37.5728970573447</wgs84Lat>
				<wgs84Lon>127.071424515443</wgs84Lon>
			</item>
			<item>
				<dutyName>새하얀서울치과의원</dutyName>
				<dutyTel1>02-3295-0753</dutyTel1>
				<dutyTime1c>1800</dutyTime1c>
				<dutyTime1s>930</dutyTime1s>
				<wgs84Lat>37.6031950472</wgs84Lat>
				<wgs84Lon>127.0662487033</wgs84Lon>
			</item>
			<item>
				<dutyName>샤렌의원</dutyName>
				<dutyTel1>02-962-3232</dutyTel1>
				<dutyTime1c>1900</dutyTime1c>
				<dutyTime1s>900</dutyTime1s>
				<wgs84Lat>37.5974027777778</wgs84Lat>
				<wgs84Lon>127.060958333333</wgs84Lon>
			</item>
			<item>
				<dutyName>서영한의원</dutyName>
				<dutyTel1>02-966-1177</dutyTel1>
				<dutyTime1c>1800</dutyTime1c>
				<dutyTime1s>900</dutyTime1s>
				<wgs84Lat>37.5786767736</wgs84Lat>
				<wgs84Lon>127.0331383943</wgs84Lon>
			</item>
			<item>
				<dutyName>서울경희한의원</dutyName>
				<dutyTel1>02-2212-7886</dutyTel1>
				<dutyTime1c>1800</dutyTime1c>
				<dutyTime1s>930</dutyTime1s>
				<wgs84Lat>37.5740216680899</wgs84Lat>
				<wgs84Lon>127.057954638479</wgs84Lon>
			</item>
			<item>
				<dutyName>서울그린정신건강의학과의원</dutyName>
				<dutyTel1>02-2248-4860</dutyTel1>
				<dutyTime1c>1800</dutyTime1c>
				<dutyTime1s>1000</dutyTime1s>
				<wgs84Lat>37.5917126214921</wgs84Lat>
				<wgs84Lon>127.066596324867</wgs84Lon>
			</item>
			<item>
				<dutyName>서울나은병원</dutyName>
				<dutyTel1>1544-6003</dutyTel1>
				<dutyTime1c>1730</dutyTime1c>
				<dutyTime1s>900</dutyTime1s>
				<wgs84Lat>37.5786006534954</wgs84Lat>
				<wgs84Lon>127.038852906406</wgs84Lon>
			</item>
			<item>
				<dutyName>서울남치과의원</dutyName>
				<dutyTel1>02-3394-8156</dutyTel1>
				<dutyTime1c>1800</dutyTime1c>
				<dutyTime1s>1000</dutyTime1s>
				<wgs84Lat>37.5718773149</wgs84Lat>
				<wgs84Lon>127.0711201704</wgs84Lon>
			</item>
			<item>
				<dutyName>서울내과·외과의원</dutyName>
				<dutyTel1>02-2214-8275</dutyTel1>
				<dutyTime1c>1800</dutyTime1c>
				<dutyTime1s>800</dutyTime1s>
				<wgs84Lat>37.5788108380701</wgs84Lat>
				<wgs84Lon>127.042186093418</wgs84Lon>
			</item>
			<item>
				<dutyName>서울라인성형외과</dutyName>
				<dutyTel1>02-2214-8001</dutyTel1>
				<dutyTime1c>1830</dutyTime1c>
				<dutyTime1s>930</dutyTime1s>
				<wgs84Lat>37.5666479858864</wgs84Lat>
				<wgs84Lon>127.053570615046</wgs84Lon>
			</item>
			<item>
				<dutyName>서울리더스치과의원</dutyName>
				<dutyTel1>02-2245-1332</dutyTel1>
				<dutyTime1c>1800</dutyTime1c>
				<dutyTime1s>900</dutyTime1s>
				<wgs84Lat>37.5727926948497</wgs84Lat>
				<wgs84Lon>127.074109129671</wgs84Lon>
			</item>
			<item>
				<dutyName>서울린소아청소년과의원</dutyName>
				<dutyTel1>02-2245-4522</dutyTel1>
				<dutyTime1c>1800</dutyTime1c>
				<dutyTime1s>900</dutyTime1s>
				<wgs84Lat>37.5722527056</wgs84Lat>
				<wgs84Lon>127.0701560739</wgs84Lon>
			</item>
			<item>
				<dutyName>서울명병원</dutyName>
				<dutyTel1>02-965-2800</dutyTel1>
				<dutyTime1c>1800</dutyTime1c>
				<dutyTime1s>900</dutyTime1s>
				<wgs84Lat>37.5773851094944</wgs84Lat>
				<wgs84Lon>127.037924194658</wgs84Lon>
			</item>
			<item>
				<dutyName>서울미치과의원</dutyName>
				<dutyTel1>02-2249-8564</dutyTel1>
				<dutyTime1c>1900</dutyTime1c>
				<dutyTime1s>1000</dutyTime1s>
				<wgs84Lat>37.5724052983393</wgs84Lat>
				<wgs84Lon>127.07405026241</wgs84Lon>
			</item>
			<item>
				<dutyName>서울베스트안과의원</dutyName>
				<dutyTel1>02-966-0225</dutyTel1>
				<dutyTime1c>1830</dutyTime1c>
				<dutyTime1s>900</dutyTime1s>
				<wgs84Lat>37.5794848121</wgs84Lat>
				<wgs84Lon>127.0421004343</wgs84Lon>
			</item>
			<item>
				<dutyName>서울베스트정형외과의원</dutyName>
				<dutyTel1>02-960-8001</dutyTel1>
				<dutyTime1c>1900</dutyTime1c>
				<dutyTime1s>900</dutyTime1s>
				<wgs84Lat>37.5946717121</wgs84Lat>
				<wgs84Lon>127.0594064196</wgs84Lon>
			</item>
			<item>
				<dutyName>서울성모마취통증의학과의원</dutyName>
				<dutyTel1>02-2246-1307</dutyTel1>
				<dutyTime1c>1830</dutyTime1c>
				<dutyTime1s>900</dutyTime1s>
				<wgs84Lat>37.5686041451</wgs84Lat>
				<wgs84Lon>127.0662225824</wgs84Lon>
			</item>
			<item>
				<dutyName>서울성모이비인후과의원</dutyName>
				<dutyTel1>02-2212-2662</dutyTel1>
				<dutyTime1c>1900</dutyTime1c>
				<dutyTime1s>900</dutyTime1s>
				<wgs84Lat>37.574044889356</wgs84Lat>
				<wgs84Lon>127.057945304561</wgs84Lon>
			</item>
			<item>
				<dutyName>서울성심병원</dutyName>
				<dutyTel1>02-966-1616</dutyTel1>
				<dutyTime1c>1740</dutyTime1c>
				<dutyTime1s>900</dutyTime1s>
				<wgs84Lat>37.5841912920987</wgs84Lat>
				<wgs84Lon>127.04983805982</wgs84Lon>
			</item>
			<item>
				<dutyName>서울수이비인후과의원</dutyName>
				<dutyTel1>02-966-5075</dutyTel1>
				<dutyTime1c>1800</dutyTime1c>
				<dutyTime1s>900</dutyTime1s>
				<wgs84Lat>37.5794848121</wgs84Lat>
				<wgs84Lon>127.0421004343</wgs84Lon>
			</item>
			<item>
				<dutyName>서울아람치과의원</dutyName>
				<dutyTel1>02-6239-2875</dutyTel1>
				<dutyTime1c>1830</dutyTime1c>
				<dutyTime1s>930</dutyTime1s>
				<wgs84Lat>37.5777507355</wgs84Lat>
				<wgs84Lon>127.0324768544</wgs84Lon>
			</item>
			<item>
				<dutyName>서울아산재활의학과의원</dutyName>
				<dutyTel1>02-2212-8200</dutyTel1>
				<dutyTime1c>1830</dutyTime1c>
				<dutyTime1s>900</dutyTime1s>
				<wgs84Lat>37.5754463160019</wgs84Lat>
				<wgs84Lon>127.072273293746</wgs84Lon>
			</item>
			<item>
				<dutyName>서울안과의원</dutyName>
				<dutyTel1>02-2243-1221</dutyTel1>
				<dutyTime1c>1830</dutyTime1c>
				<dutyTime1s>930</dutyTime1s>
				<wgs84Lat>37.5664611111111</wgs84Lat>
				<wgs84Lon>127.053797222222</wgs84Lon>
			</item>
			<item>
				<dutyName>서울에이스요양병원</dutyName>
				<dutyTel1>02-961-4700</dutyTel1>
				<dutyTime1c>1800</dutyTime1c>
				<dutyTime1s>900</dutyTime1s>
				<wgs84Lat>37.5736478500978</wgs84Lat>
				<wgs84Lon>127.037718537806</wgs84Lon>
			</item>
			<item>
				<dutyName>서울에이스치과의원</dutyName>
				<dutyTel1>02-2244-9355</dutyTel1>
				<dutyTime1c>1830</dutyTime1c>
				<dutyTime1s>1000</dutyTime1s>
				<wgs84Lat>37.5788924849</wgs84Lat>
				<wgs84Lon>127.0680158642</wgs84Lon>
			</item>
			<item>
				<dutyName>서울엔(N)비뇨기과의원</dutyName>
				<dutyTel1>02-6933-9020</dutyTel1>
				<dutyTime1c>2000</dutyTime1c>
				<dutyTime1s>900</dutyTime1s>
				<wgs84Lat>37.5792011581001</wgs84Lat>
				<wgs84Lon>127.042915122883</wgs84Lon>
			</item>
			<item>
				<dutyName>서울연세의원</dutyName>
				<dutyTel1>02-966-1612</dutyTel1>
				<dutyTime1c>2200</dutyTime1c>
				<dutyTime1s>800</dutyTime1s>
				<wgs84Lat>37.6033702218645</wgs84Lat>
				<wgs84Lon>127.062235423896</wgs84Lon>
			</item>
			<item>
				<dutyName>서울오세오안과의원</dutyName>
				<dutyTel1>02-2242-5350</dutyTel1>
				<dutyTime1c>1800</dutyTime1c>
				<dutyTime1s>930</dutyTime1s>
				<wgs84Lat>37.5631910420211</wgs84Lat>
				<wgs84Lon>127.066071802613</wgs84Lon>
			</item>
			<item>
				<dutyName>서울완수치과의원</dutyName>
				<dutyTel1>02-2244-2879</dutyTel1>
				<dutyTime1c>1800</dutyTime1c>
				<dutyTime1s>930</dutyTime1s>
				<wgs84Lat>37.5670160532229</wgs84Lat>
				<wgs84Lon>127.056885195805</wgs84Lon>
			</item>
			<item>
				<dutyName>서울원치과의원</dutyName>
				<dutyTel1>02-2242-2279</dutyTel1>
				<dutyTime1c>1830</dutyTime1c>
				<dutyTime1s>930</dutyTime1s>
				<wgs84Lat>37.5817034047377</wgs84Lat>
				<wgs84Lon>127.07120143467</wgs84Lon>
			</item>
			<item>
				<dutyName>서울유앤치과의원</dutyName>
				<dutyTel1>02-2244-4477</dutyTel1>
				<dutyTime1c>1830</dutyTime1c>
				<dutyTime1s>930</dutyTime1s>
				<wgs84Lat>37.5917126214921</wgs84Lat>
				<wgs84Lon>127.066596324867</wgs84Lon>
			</item>
			<item>
				<dutyName>서울윤치과의원</dutyName>
				<dutyTel1>02-2212-6822</dutyTel1>
				<dutyTime1c>1800</dutyTime1c>
				<dutyTime1s>930</dutyTime1s>
				<wgs84Lat>37.5718141408</wgs84Lat>
				<wgs84Lon>127.0742172103</wgs84Lon>
			</item>
			<item>
				<dutyName>서울이비인후과의원</dutyName>
				<dutyTel1>02-2214-8240</dutyTel1>
				<dutyTime1c>1900</dutyTime1c>
				<dutyTime1s>900</dutyTime1s>
				<wgs84Lat>37.57720008717</wgs84Lat>
				<wgs84Lon>127.058541246083</wgs84Lon>
			</item>
			<item>
				<dutyName>서울이안치과의원</dutyName>
				<dutyTel1>02-957-2752</dutyTel1>
				<dutyTime1c>1900</dutyTime1c>
				<dutyTime1s>1000</dutyTime1s>
				<wgs84Lat>37.5955494241777</wgs84Lat>
				<wgs84Lon>127.062609376252</wgs84Lon>
			</item>
			<item>
				<dutyName>서울익산한의원</dutyName>
				<dutyTel1>02-968-2001</dutyTel1>
				<dutyTime1c>1730</dutyTime1c>
				<dutyTime1s>1000</dutyTime1s>
				<wgs84Lat>37.5792235826</wgs84Lat>
				<wgs84Lon>127.0365122747</wgs84Lon>
			</item>
			<item>
				<dutyName>서울인치과의원</dutyName>
				<dutyTel1>02-933-7528</dutyTel1>
				<dutyTime1c>1830</dutyTime1c>
				<dutyTime1s>930</dutyTime1s>
				<wgs84Lat>37.5830553198</wgs84Lat>
				<wgs84Lon>127.0535417015</wgs84Lon>
			</item>
			<item>
				<dutyName>서울재활의학과의원</dutyName>
				<dutyTel1>02-3394-8275</dutyTel1>
				<dutyTime1c>1830</dutyTime1c>
				<dutyTime1s>900</dutyTime1s>
				<wgs84Lat>37.5658088070224</wgs84Lat>
				<wgs84Lon>127.054784642151</wgs84Lon>
			</item>
			<item>
				<dutyName>서울정형외과의원</dutyName>
				<dutyTel1>02-957-9226</dutyTel1>
				<dutyTime1c>1900</dutyTime1c>
				<dutyTime1s>800</dutyTime1s>
				<wgs84Lat>37.5821348330796</wgs84Lat>
				<wgs84Lon>127.038895713462</wgs84Lon>
			</item>
			<item>
				<dutyName>서울치과의원</dutyName>
				<dutyTel1>02-961-8556</dutyTel1>
				<dutyTime1c>1800</dutyTime1c>
				<dutyTime1s>900</dutyTime1s>
				<wgs84Lat>37.5807199750663</wgs84Lat>
				<wgs84Lon>127.044818208041</wgs84Lon>
			</item>
			<item>
				<dutyName>서울키즈파파치과의원</dutyName>
				<dutyTel1>02-2244-2808</dutyTel1>
				<dutyTime1c>1830</dutyTime1c>
				<dutyTime1s>1000</dutyTime1s>
				<wgs84Lat>37.5718773148894</wgs84Lat>
				<wgs84Lon>127.071120170431</wgs84Lon>
			</item>
			<item>
				<dutyName>서울특별시동부병원</dutyName>
				<dutyTel1>02-920-9307</dutyTel1>
				<dutyTime1c>1730</dutyTime1c>
				<dutyTime1s>900</dutyTime1s>
				<wgs84Lat>37.5753988646488</wgs84Lat>
				<wgs84Lon>127.031402575255</wgs84Lon>
			</item>
			<item>
				<dutyName>서울편안한요양병원</dutyName>
				<dutyTel1>02-2243-3388</dutyTel1>
				<dutyTime1c>1800</dutyTime1c>
				<dutyTime1s>900</dutyTime1s>
				<wgs84Lat>37.5690487704647</wgs84Lat>
				<wgs84Lon>127.056737325698</wgs84Lon>
			</item>
			<item>
				<dutyName>서울프라임치과의원</dutyName>
				<dutyTel1>02-960-2857</dutyTel1>
				<dutyTime1c>1830</dutyTime1c>
				<dutyTime1s>1000</dutyTime1s>
				<wgs84Lat>37.5957807032264</wgs84Lat>
				<wgs84Lon>127.061413835518</wgs84Lon>
			</item>
			<item>
				<dutyName>서울한림한의원</dutyName>
				<dutyTel1>02-2247-2288</dutyTel1>
				<dutyTime1c>1800</dutyTime1c>
				<dutyTime1s>930</dutyTime1s>
				<wgs84Lat>37.5682943850178</wgs84Lat>
				<wgs84Lon>127.05137596407</wgs84Lon>
			</item>
			<item>
				<dutyName>서울현정신건강의학과의원</dutyName>
				<dutyTel1>02-6949-5663</dutyTel1>
				<dutyTime1c>1900</dutyTime1c>
				<dutyTime1s>1000</dutyTime1s>
				<wgs84Lat>37.5955256159</wgs84Lat>
				<wgs84Lon>127.0598736226</wgs84Lon>
			</item>
			<item>
				<dutyName>선교한의원</dutyName>
				<dutyTel1>02-966-4325</dutyTel1>
				<dutyTime1c>1800</dutyTime1c>
				<dutyTime1s>1030</dutyTime1s>
				<wgs84Lat>37.5794618177197</wgs84Lat>
				<wgs84Lon>127.039414851883</wgs84Lon>
			</item>
			<item>
				<dutyName>선량안과의원</dutyName>
				<dutyTel1>02-2213-3938</dutyTel1>
				<dutyTime1c>1800</dutyTime1c>
				<dutyTime1s>900</dutyTime1s>
				<wgs84Lat>37.5718773149</wgs84Lat>
				<wgs84Lon>127.0711201704</wgs84Lon>
			</item>
			<item>
				<dutyName>선재한의원</dutyName>
				<dutyTel1>02-2247-7575</dutyTel1>
				<dutyTime1c>2100</dutyTime1c>
				<dutyTime1s>930</dutyTime1s>
				<wgs84Lat>37.5711094724146</wgs84Lat>
				<wgs84Lon>127.074397278164</wgs84Lon>
			</item>
			<item>
				<dutyName>선정형외과의원</dutyName>
				<dutyTel1>02-964-5782</dutyTel1>
				<dutyTime1c>1800</dutyTime1c>
				<dutyTime1s>900</dutyTime1s>
				<wgs84Lat>37.5763230828246</wgs84Lat>
				<wgs84Lon>127.03845781937</wgs84Lon>
			</item>
			<item>
				<dutyName>성가의원</dutyName>
				<dutyTel1>02-2212-7955</dutyTel1>
				<dutyTime1c>1900</dutyTime1c>
				<dutyTime1s>900</dutyTime1s>
				<wgs84Lat>37.5704185082204</wgs84Lat>
				<wgs84Lon>127.059608800411</wgs84Lon>
			</item>
			<item>
				<dutyName>성덕외과의원·성덕경희한의원</dutyName>
				<dutyTel1>02-2247-5700</dutyTel1>
				<dutyTime1c>1900</dutyTime1c>
				<dutyTime1s>900</dutyTime1s>
				<wgs84Lat>37.567061705085</wgs84Lat>
				<wgs84Lon>127.062626102884</wgs84Lon>
			</item>
			<item>
				<dutyName>성덕외과의원·성덕경희한의원</dutyName>
				<dutyTel1>02-2247-5700</dutyTel1>
				<dutyTime1c>1900</dutyTime1c>
				<dutyTime1s>900</dutyTime1s>
				<wgs84Lat>37.567061705085</wgs84Lat>
				<wgs84Lon>127.062626102884</wgs84Lon>
			</item>
			<item>
				<dutyName>성모정형외과의원</dutyName>
				<dutyTel1>02-2247-3451</dutyTel1>
				<dutyTime1c>1830</dutyTime1c>
				<dutyTime1s>930</dutyTime1s>
				<wgs84Lat>37.5754893200703</wgs84Lat>
				<wgs84Lon>127.048084395091</wgs84Lon>
			</item>
			<item>
				<dutyName>성모한의원</dutyName>
				<dutyTel1>02-2213-1075</dutyTel1>
				<dutyTime1c>1900</dutyTime1c>
				<dutyTime1s>930</dutyTime1s>
				<wgs84Lat>37.5809092069684</wgs84Lat>
				<wgs84Lon>127.07057177928</wgs84Lon>
			</item>
			<item>
				<dutyName>성소아청소년과의원</dutyName>
				<dutyTel1>02-2247-7559</dutyTel1>
				<dutyTime1c>1900</dutyTime1c>
				<dutyTime1s>900</dutyTime1s>
				<wgs84Lat>37.5812637664628</wgs84Lat>
				<wgs84Lon>127.071128569597</wgs84Lon>
			</item>
			<item>
				<dutyName>성신치과의원</dutyName>
				<dutyTel1>02-967-8854</dutyTel1>
				<dutyTime1c>1800</dutyTime1c>
				<dutyTime1s>930</dutyTime1s>
				<wgs84Lat>37.5900666666667</wgs84Lat>
				<wgs84Lon>127.056161111111</wgs84Lon>
			</item>
			<item>
				<dutyName>성완산부인과의원</dutyName>
				<dutyTel1>02-2212-7849</dutyTel1>
				<dutyTime1c>1800</dutyTime1c>
				<dutyTime1s>1000</dutyTime1s>
				<wgs84Lat>37.5714867440684</wgs84Lat>
				<wgs84Lon>127.070295397778</wgs84Lon>
			</item>
			<item>
				<dutyName>성요한의원</dutyName>
				<dutyTel1>02-928-6660</dutyTel1>
				<dutyTime1c>1700</dutyTime1c>
				<dutyTime1s>930</dutyTime1s>
				<wgs84Lat>37.5881288236</wgs84Lat>
				<wgs84Lon>127.0554655943</wgs84Lon>
			</item>
			<item>
				<dutyName>성은한의원</dutyName>
				<dutyTel1>02-960-5403</dutyTel1>
				<dutyTime1c>1800</dutyTime1c>
				<dutyTime1s>1000</dutyTime1s>
				<wgs84Lat>37.5774857026</wgs84Lat>
				<wgs84Lon>127.0389023516</wgs84Lon>
			</item>
			<item>
				<dutyName>성창한의원</dutyName>
				<dutyTel1>02-959-6000</dutyTel1>
				<dutyTime1c>1730</dutyTime1c>
				<dutyTime1s>1000</dutyTime1s>
				<wgs84Lat>37.5789636247</wgs84Lat>
				<wgs84Lon>127.0380065057</wgs84Lon>
			</item>
			<item>
				<dutyName>세명한의원</dutyName>
				<dutyTel1>02-962-2081</dutyTel1>
				<dutyTime1c>1800</dutyTime1c>
				<dutyTime1s>1000</dutyTime1s>
				<wgs84Lat>37.5941423989592</wgs84Lat>
				<wgs84Lon>127.05845940072</wgs84Lon>
			</item>
			<item>
				<dutyName>세브란스정형외과의원</dutyName>
				<dutyTel1>02-2215-6753</dutyTel1>
				<dutyTime1c>1900</dutyTime1c>
				<dutyTime1s>900</dutyTime1s>
				<wgs84Lat>37.5670138888889</wgs84Lat>
				<wgs84Lon>127.056961111111</wgs84Lon>
			</item>
			<item>
				<dutyName>세선부부한의원</dutyName>
				<dutyTel1>02-965-7575</dutyTel1>
				<dutyTime1c>1800</dutyTime1c>
				<dutyTime1s>1000</dutyTime1s>
				<wgs84Lat>37.58596475164</wgs84Lat>
				<wgs84Lon>127.051229578045</wgs84Lon>
			</item>
			<item>
				<dutyName>세영한의원</dutyName>
				<dutyTel1>02-960-7961</dutyTel1>
				<dutyTime1c>1800</dutyTime1c>
				<dutyTime1s>800</dutyTime1s>
				<wgs84Lat>37.5839675674006</wgs84Lat>
				<wgs84Lon>127.043710653827</wgs84Lon>
			</item>
			<item>
				<dutyName>소망담은한의원</dutyName>
				<dutyTel1>02-962-5180</dutyTel1>
				<dutyTime1c>1830</dutyTime1c>
				<dutyTime1s>900</dutyTime1s>
				<wgs84Lat>37.579508298</wgs84Lat>
				<wgs84Lon>127.0365078853</wgs84Lon>
			</item>
			<item>
				<dutyName>소망이비인후과의원</dutyName>
				<dutyTel1>02-2216-5052</dutyTel1>
				<dutyTime1c>1830</dutyTime1c>
				<dutyTime1s>900</dutyTime1s>
				<wgs84Lat>37.5784920135</wgs84Lat>
				<wgs84Lon>127.0687581458</wgs84Lon>
			</item>
			<item>
				<dutyName>소문난치과의원</dutyName>
				<dutyTel1>02-2244-2875</dutyTel1>
				<dutyTime1c>1830</dutyTime1c>
				<dutyTime1s>1000</dutyTime1s>
				<wgs84Lat>37.567836388</wgs84Lat>
				<wgs84Lon>127.0520502537</wgs84Lon>
			</item>
			<item>
				<dutyName>소생한의원</dutyName>
				<dutyTel1>02-953-9222</dutyTel1>
				<dutyTime1c>1800</dutyTime1c>
				<dutyTime1s>1000</dutyTime1s>
				<wgs84Lat>37.578532817</wgs84Lat>
				<wgs84Lon>127.0324092691</wgs84Lon>
			</item>
			<item>
				<dutyName>소창한의원</dutyName>
				<dutyTel1>02-960-0123</dutyTel1>
				<dutyTime1c>1800</dutyTime1c>
				<dutyTime1s>1000</dutyTime1s>
				<wgs84Lat>37.582326332365</wgs84Lat>
				<wgs84Lon>127.037383273669</wgs84Lon>
			</item>
			<item>
				<dutyName>소헌한의원</dutyName>
				<dutyTel1>02-923-2903</dutyTel1>
				<dutyTime1c>1800</dutyTime1c>
				<dutyTime1s>1000</dutyTime1s>
				<wgs84Lat>37.5750591153476</wgs84Lat>
				<wgs84Lon>127.030392770392</wgs84Lon>
			</item>
			<item>
				<dutyName>소화내과의원</dutyName>
				<dutyTel1>02-966-6520</dutyTel1>
				<dutyTime1c>1800</dutyTime1c>
				<dutyTime1s>830</dutyTime1s>
				<wgs84Lat>37.5778721545664</wgs84Lat>
				<wgs84Lon>127.036307841652</wgs84Lon>
			</item>
			<item>
				<dutyName>속튼튼내과의원</dutyName>
				<dutyTel1>02-3394-8175</dutyTel1>
				<dutyTime1c>1800</dutyTime1c>
				<dutyTime1s>900</dutyTime1s>
				<wgs84Lat>37.5718773149</wgs84Lat>
				<wgs84Lon>127.0711201704</wgs84Lon>
			</item>
			<item>
				<dutyName>속편한내과의원</dutyName>
				<dutyTel1>02-968-1088</dutyTel1>
				<dutyTime1c>1800</dutyTime1c>
				<dutyTime1s>800</dutyTime1s>
				<wgs84Lat>37.5753971175822</wgs84Lat>
				<wgs84Lon>127.037651359344</wgs84Lon>
			</item>
			<item>
				<dutyName>손안과의원</dutyName>
				<dutyTel1>02-2244-7300</dutyTel1>
				<dutyTime1c>1830</dutyTime1c>
				<dutyTime1s>930</dutyTime1s>
				<wgs84Lat>37.5772665419466</wgs84Lat>
				<wgs84Lon>127.058522819012</wgs84Lon>
			</item>
			<item>
				<dutyName>솔이비인후과의원</dutyName>
				<dutyTel1>02-2216-0075</dutyTel1>
				<dutyTime1c>1830</dutyTime1c>
				<dutyTime1s>900</dutyTime1s>
				<wgs84Lat>37.5789434178391</wgs84Lat>
				<wgs84Lon>127.0701165944</wgs84Lon>
			</item>
			<item>
				<dutyName>송강한의원</dutyName>
				<dutyTel1>02-6456-7177</dutyTel1>
				<dutyTime1c>1800</dutyTime1c>
				<dutyTime1s>930</dutyTime1s>
				<wgs84Lat>37.5784679775247</wgs84Lat>
				<wgs84Lon>127.036670203987</wgs84Lon>
			</item>
			<item>
				<dutyName>송이비인후과의원</dutyName>
				<dutyTel1>02-2238-7130</dutyTel1>
				<dutyTime1c>1830</dutyTime1c>
				<dutyTime1s>900</dutyTime1s>
				<wgs84Lat>37.5664588586755</wgs84Lat>
				<wgs84Lon>127.053851280024</wgs84Lon>
			</item>
			<item>
				<dutyName>송지영정신건강의학과의원</dutyName>
				<dutyTel1>02-962-6300</dutyTel1>
				<dutyTime1c>1800</dutyTime1c>
				<dutyTime1s>900</dutyTime1s>
				<wgs84Lat>37.5910058121</wgs84Lat>
				<wgs84Lon>127.0532484768</wgs84Lon>
			</item>
			<item>
				<dutyName>수비뇨기과의원</dutyName>
				<dutyTel1>02-963-7533</dutyTel1>
				<dutyTime1c>1900</dutyTime1c>
				<dutyTime1s>930</dutyTime1s>
				<wgs84Lat>37.5978586240893</wgs84Lat>
				<wgs84Lon>127.060960328408</wgs84Lon>
			</item>
			<item>
				<dutyName>수생한의원</dutyName>
				<dutyTel1>02-963-3211</dutyTel1>
				<dutyTime1c>1800</dutyTime1c>
				<dutyTime1s>1000</dutyTime1s>
				<wgs84Lat>37.5785996209868</wgs84Lat>
				<wgs84Lon>127.038001813043</wgs84Lon>
			</item>
			<item>
				<dutyName>수운내과의원</dutyName>
				<dutyTel1>02-965-3263</dutyTel1>
				<dutyTime1c>1800</dutyTime1c>
				<dutyTime1s>900</dutyTime1s>
				<wgs84Lat>37.58685152</wgs84Lat>
				<wgs84Lon>127.0415747092</wgs84Lon>
			</item>
			<item>
				<dutyName>수이비인후과의원</dutyName>
				<dutyTel1>02-2216-6122</dutyTel1>
				<dutyTime1c>1900</dutyTime1c>
				<dutyTime1s>930</dutyTime1s>
				<wgs84Lat>37.5723888293984</wgs84Lat>
				<wgs84Lon>127.074470971475</wgs84Lon>
			</item>
			<item>
				<dutyName>수재활의학과의원</dutyName>
				<dutyTel1>02-2248-8275</dutyTel1>
				<dutyTime1c>1800</dutyTime1c>
				<dutyTime1s>900</dutyTime1s>
				<wgs84Lat>37.5789157195417</wgs84Lat>
				<wgs84Lon>127.068137694286</wgs84Lon>
			</item>
			<item>
				<dutyName>수치과의원</dutyName>
				<dutyTel1>02-966-2804</dutyTel1>
				<dutyTime1c>1830</dutyTime1c>
				<dutyTime1s>930</dutyTime1s>
				<wgs84Lat>37.5806348643987</wgs84Lat>
				<wgs84Lon>127.044768041192</wgs84Lon>
			</item>
			<item>
				<dutyName>시카고치과병원</dutyName>
				<dutyTel1>02-2232-7875</dutyTel1>
				<dutyTime1c>2000</dutyTime1c>
				<dutyTime1s>930</dutyTime1s>
				<wgs84Lat>37.5750462583402</wgs84Lat>
				<wgs84Lon>127.02359150767</wgs84Lon>
			</item>
			<item>
				<dutyName>신강한의원</dutyName>
				<dutyTel1>02-552-5558</dutyTel1>
				<dutyTime1c>1800</dutyTime1c>
				<dutyTime1s>900</dutyTime1s>
				<wgs84Lat>37.5615600943438</wgs84Lat>
				<wgs84Lon>127.066329441171</wgs84Lon>
			</item>
			<item>
				<dutyName>신망애한의원</dutyName>
				<dutyTel1>02-967-9667</dutyTel1>
				<dutyTime1c>1900</dutyTime1c>
				<dutyTime1s>830</dutyTime1s>
				<wgs84Lat>37.5829452786953</wgs84Lat>
				<wgs84Lon>127.043981407848</wgs84Lon>
			</item>
			<item>
				<dutyName>신우요양병원</dutyName>
				<dutyTel1>02-2214-7582</dutyTel1>
				<dutyTime1c>1800</dutyTime1c>
				<dutyTime1s>900</dutyTime1s>
				<wgs84Lat>37.5793501372826</wgs84Lat>
				<wgs84Lon>127.068106848159</wgs84Lon>
			</item>
			<item>
				<dutyName>신원당한의원</dutyName>
				<dutyTel1>02-960-4989</dutyTel1>
				<dutyTime1c>1800</dutyTime1c>
				<dutyTime1s>1000</dutyTime1s>
				<wgs84Lat>37.5792160454925</wgs84Lat>
				<wgs84Lon>127.04154757363</wgs84Lon>
			</item>
			<item>
				<dutyName>신재호내과의원</dutyName>
				<dutyTel1>02-968-6906</dutyTel1>
				<dutyTime1c>1800</dutyTime1c>
				<dutyTime1s>900</dutyTime1s>
				<wgs84Lat>37.5986222222222</wgs84Lat>
				<wgs84Lon>127.061211111111</wgs84Lon>
			</item>
			<item>
				<dutyName>신중앙한의원</dutyName>
				<dutyTel1>02-966-7900</dutyTel1>
				<dutyTime1c>1800</dutyTime1c>
				<dutyTime1s>1000</dutyTime1s>
				<wgs84Lat>37.5787623686</wgs84Lat>
				<wgs84Lon>127.036204122</wgs84Lon>
			</item>
			<item>
				<dutyName>신현대한의원</dutyName>
				<dutyTel1>02-962-0011</dutyTel1>
				<dutyTime1c>1800</dutyTime1c>
				<dutyTime1s>1000</dutyTime1s>
				<wgs84Lat>37.5784449281364</wgs84Lat>
				<wgs84Lon>127.037127767493</wgs84Lon>
			</item>
			<item>
				<dutyName>신현준치과의원</dutyName>
				<dutyTel1>02-2214-9056</dutyTel1>
				<dutyTime1c>1800</dutyTime1c>
				<dutyTime1s>930</dutyTime1s>
				<wgs84Lat>37.5898994462</wgs84Lat>
				<wgs84Lon>127.0606118745</wgs84Lon>
			</item>
			<item>
				<dutyName>실로암이비인후과의원</dutyName>
				<dutyTel1>02-963-1605</dutyTel1>
				<dutyTime1c>1800</dutyTime1c>
				<dutyTime1s>900</dutyTime1s>
				<wgs84Lat>37.5829596863229</wgs84Lat>
				<wgs84Lon>127.044004058845</wgs84Lon>
			</item>
			<item>
				<dutyName>아라현치과의원</dutyName>
				<dutyTel1>02-966-2877</dutyTel1>
				<dutyTime1c>1830</dutyTime1c>
				<dutyTime1s>930</dutyTime1s>
				<wgs84Lat>37.5953202748</wgs84Lat>
				<wgs84Lon>127.0597058722</wgs84Lon>
			</item>
			<item>
				<dutyName>아람소아청소년과의원</dutyName>
				<dutyTel1>02-2242-3388</dutyTel1>
				<dutyTime1c>1900</dutyTime1c>
				<dutyTime1s>900</dutyTime1s>
				<wgs84Lat>37.5724911137</wgs84Lat>
				<wgs84Lon>127.0555988898</wgs84Lon>
			</item>
			<item>
				<dutyName>아람한의원</dutyName>
				<dutyTel1>02-953-5508</dutyTel1>
				<dutyTime1c>1830</dutyTime1c>
				<dutyTime1s>1000</dutyTime1s>
				<wgs84Lat>37.5757955429518</wgs84Lat>
				<wgs84Lon>127.038579972524</wgs84Lon>
			</item>
			<item>
				<dutyName>아름나무한의원</dutyName>
				<dutyTel1>02-2212-2175</dutyTel1>
				<dutyTime1c>1900</dutyTime1c>
				<dutyTime1s>930</dutyTime1s>
				<wgs84Lat>37.5714507678317</wgs84Lat>
				<wgs84Lon>127.070186695928</wgs84Lon>
			</item>
			<item>
				<dutyName>아리랑한의원</dutyName>
				<dutyTel1>02-959-3396</dutyTel1>
				<dutyTime1c>1700</dutyTime1c>
				<dutyTime1s>900</dutyTime1s>
				<wgs84Lat>37.5784484055</wgs84Lat>
				<wgs84Lon>127.0375398262</wgs84Lon>
			</item>
			<item>
				<dutyName>아비쥬의원</dutyName>
				<dutyTel1>1544-0377</dutyTel1>
				<dutyTime1c>2030</dutyTime1c>
				<dutyTime1s>1030</dutyTime1s>
				<wgs84Lat>37.5806068672</wgs84Lat>
				<wgs84Lon>127.0483276943</wgs84Lon>
			</item>
			<item>
				<dutyName>아산연합의원</dutyName>
				<dutyTel1>02-959-9111</dutyTel1>
				<dutyTime1c>1900</dutyTime1c>
				<dutyTime1s>900</dutyTime1s>
				<wgs84Lat>37.5951922013</wgs84Lat>
				<wgs84Lon>127.0634152995</wgs84Lon>
			</item>
			<item>
				<dutyName>아산키즈소아청소년과의원</dutyName>
				<dutyTel1>02-2248-2408</dutyTel1>
				<dutyTime1c>1900</dutyTime1c>
				<dutyTime1s>900</dutyTime1s>
				<wgs84Lat>37.5697254271211</wgs84Lat>
				<wgs84Lon>127.07460420669</wgs84Lon>
			</item>
			<item>
				<dutyName>아이비동성치과의원</dutyName>
				<dutyTel1>02-2217-4522</dutyTel1>
				<dutyTime1c>1800</dutyTime1c>
				<dutyTime1s>930</dutyTime1s>
				<wgs84Lat>37.562155022213</wgs84Lat>
				<wgs84Lon>127.062531640071</wgs84Lon>
			</item>
			<item>
				<dutyName>아인스치과의원</dutyName>
				<dutyTel1>02-2249-2882</dutyTel1>
				<dutyTime1c>1830</dutyTime1c>
				<dutyTime1s>930</dutyTime1s>
				<wgs84Lat>37.5712342534154</wgs84Lat>
				<wgs84Lon>127.070661921648</wgs84Lon>
			</item>
			<item>
				<dutyName>아주정형외과의원</dutyName>
				<dutyTel1>02-968-5544</dutyTel1>
				<dutyTime1c>1830</dutyTime1c>
				<dutyTime1s>830</dutyTime1s>
				<wgs84Lat>37.5752768323012</wgs84Lat>
				<wgs84Lon>127.037769168896</wgs84Lon>
			</item>
			<item>
				<dutyName>안석주내과의원</dutyName>
				<dutyTel1>02-959-8275</dutyTel1>
				<dutyTime1c>1800</dutyTime1c>
				<dutyTime1s>800</dutyTime1s>
				<wgs84Lat>37.5787294280623</wgs84Lat>
				<wgs84Lon>127.041796370008</wgs84Lon>
			</item>
			<item>
				<dutyName>안암정형외과의원</dutyName>
				<dutyTel1>02-926-5311</dutyTel1>
				<dutyTime1c>1930</dutyTime1c>
				<dutyTime1s>830</dutyTime1s>
				<wgs84Lat>37.581910528697</wgs84Lat>
				<wgs84Lon>127.029403785303</wgs84Lon>
			</item>
			<item>
				<dutyName>안암한의원</dutyName>
				<dutyTel1>02-922-1075</dutyTel1>
				<dutyTime1c>1830</dutyTime1c>
				<dutyTime1s>900</dutyTime1s>
				<wgs84Lat>37.582583852</wgs84Lat>
				<wgs84Lon>127.0317951387</wgs84Lon>
			</item>
			<item>
				<dutyName>안영상의학과의원</dutyName>
				<dutyTel1>02-963-5005</dutyTel1>
				<dutyTime1c>1800</dutyTime1c>
				<dutyTime1s>900</dutyTime1s>
				<wgs84Lat>37.5820106797561</wgs84Lat>
				<wgs84Lon>127.047137245253</wgs84Lon>
			</item>
			<item>
				<dutyName>안창헌피부과의원</dutyName>
				<dutyTel1>02-966-6176</dutyTel1>
				<dutyTime1c>1800</dutyTime1c>
				<dutyTime1s>930</dutyTime1s>
				<wgs84Lat>37.5809012498138</wgs84Lat>
				<wgs84Lon>127.045596899442</wgs84Lon>
			</item>
			<item>
				<dutyName>애플치과의원</dutyName>
				<dutyTel1>02-2245-2804</dutyTel1>
				<dutyTime1c>1800</dutyTime1c>
				<dutyTime1s>930</dutyTime1s>
				<wgs84Lat>37.5712031778806</wgs84Lat>
				<wgs84Lon>127.074392841614</wgs84Lon>
			</item>
			<item>
				<dutyName>약초당한의원</dutyName>
				<dutyTel1>02-963-4400</dutyTel1>
				<dutyTime1c>1800</dutyTime1c>
				<dutyTime1s>1000</dutyTime1s>
				<wgs84Lat>37.5879916666667</wgs84Lat>
				<wgs84Lon>127.034641666667</wgs84Lon>
			</item>
			<item>
				<dutyName>양제한의원</dutyName>
				<dutyTel1>02-963-7140</dutyTel1>
				<dutyTime1c>1800</dutyTime1c>
				<dutyTime1s>1000</dutyTime1s>
				<wgs84Lat>37.5787053948401</wgs84Lat>
				<wgs84Lon>127.038128429868</wgs84Lon>
			</item>
			<item>
				<dutyName>에스엘의원</dutyName>
				<dutyTel1>02-2247-8277</dutyTel1>
				<dutyTime1c>2000</dutyTime1c>
				<dutyTime1s>1000</dutyTime1s>
				<wgs84Lat>37.5718264386553</wgs84Lat>
				<wgs84Lon>127.071808387284</wgs84Lon>
			</item>
			<item>
				<dutyName>에이블치과의원</dutyName>
				<dutyTel1>02-2234-2222</dutyTel1>
				<dutyTime1c>1900</dutyTime1c>
				<dutyTime1s>1000</dutyTime1s>
				<wgs84Lat>37.5963756042722</wgs84Lat>
				<wgs84Lon>127.060943244853</wgs84Lon>
			</item>
			<item>
				<dutyName>에이블치과의원</dutyName>
				<dutyTel1>02-3448-1100</dutyTel1>
				<dutyTime1c>1900</dutyTime1c>
				<dutyTime1s>1000</dutyTime1s>
				<wgs84Lat>37.5668296478</wgs84Lat>
				<wgs84Lon>127.0685663198</wgs84Lon>
			</item>
			<item>
				<dutyName>엘와이엔치과의원</dutyName>
				<dutyTel1>02-2246-7528</dutyTel1>
				<dutyTime1c>1800</dutyTime1c>
				<dutyTime1s>930</dutyTime1s>
				<wgs84Lat>37.5740216680899</wgs84Lat>
				<wgs84Lon>127.057954638479</wgs84Lon>
			</item>
			<item>
				<dutyName>엘플란트치과의원</dutyName>
				<dutyTel1>02-2215-2872</dutyTel1>
				<dutyTime1c>1900</dutyTime1c>
				<dutyTime1s>1000</dutyTime1s>
				<wgs84Lat>37.5766579558</wgs84Lat>
				<wgs84Lon>127.0615656502</wgs84Lon>
			</item>
			<item>
				<dutyName>여자의봄산부인과의원</dutyName>
				<dutyTel1>02-6959-6616</dutyTel1>
				<dutyTime1c>1900</dutyTime1c>
				<dutyTime1s>1000</dutyTime1s>
				<wgs84Lat>37.5791434949655</wgs84Lat>
				<wgs84Lon>127.042915090961</wgs84Lon>
			</item>
			<item>
				<dutyName>여해한의원</dutyName>
				<dutyTel1>02-482-7022</dutyTel1>
				<dutyTime1c>1900</dutyTime1c>
				<dutyTime1s>930</dutyTime1s>
				<wgs84Lat>37.5751346251872</wgs84Lat>
				<wgs84Lon>127.072250771231</wgs84Lon>
			</item>
			<item>
				<dutyName>연세누리소아청소년과의원</dutyName>
				<dutyTel1>02-2245-2635</dutyTel1>
				<dutyTime1c>1800</dutyTime1c>
				<dutyTime1s>900</dutyTime1s>
				<wgs84Lat>37.5746080331738</wgs84Lat>
				<wgs84Lon>127.060128557006</wgs84Lon>
			</item>
			<item>
				<dutyName>연세닥터스(Dr´s)외과의원·한의원</dutyName>
				<dutyTel1>02-2216-1191</dutyTel1>
				<dutyTime1c>2100</dutyTime1c>
				<dutyTime1s>900</dutyTime1s>
				<wgs84Lat>37.5720091665591</wgs84Lat>
				<wgs84Lon>127.073560853148</wgs84Lon>
			</item>
			<item>
				<dutyName>연세닥터스(Dr´s)외과의원·한의원</dutyName>
				<dutyTel1>02-2216-1191</dutyTel1>
				<dutyTime1c>2100</dutyTime1c>
				<dutyTime1s>900</dutyTime1s>
				<wgs84Lat>37.5720091637376</wgs84Lat>
				<wgs84Lon>127.073565381081</wgs84Lon>
			</item>
			<item>
				<dutyName>연세모아의원</dutyName>
				<dutyTel1>02-960-0376</dutyTel1>
				<dutyTime1c>1800</dutyTime1c>
				<dutyTime1s>900</dutyTime1s>
				<wgs84Lat>37.5832576117391</wgs84Lat>
				<wgs84Lon>127.043646817371</wgs84Lon>
			</item>
			<item>
				<dutyName>연세바른이치과의원</dutyName>
				<dutyTel1>02-2244-2872</dutyTel1>
				<dutyTime1c>1900</dutyTime1c>
				<dutyTime1s>1000</dutyTime1s>
				<wgs84Lat>37.5726928704321</wgs84Lat>
				<wgs84Lon>127.072320496282</wgs84Lon>
			</item>
			<item>
				<dutyName>연세밝은미소치과의원</dutyName>
				<dutyTel1>02-6219-2875</dutyTel1>
				<dutyTime1c>1830</dutyTime1c>
				<dutyTime1s>930</dutyTime1s>
				<wgs84Lat>37.565842182176</wgs84Lat>
				<wgs84Lon>127.054702038573</wgs84Lon>
			</item>
			<item>
				<dutyName>연세백석치과의원</dutyName>
				<dutyTel1>02-2212-9336</dutyTel1>
				<dutyTime1c>1830</dutyTime1c>
				<dutyTime1s>1000</dutyTime1s>
				<wgs84Lat>37.5692487410377</wgs84Lat>
				<wgs84Lon>127.063705489718</wgs84Lon>
			</item>
			<item>
				<dutyName>연세선경의원</dutyName>
				<dutyTel1>02-2212-1932</dutyTel1>
				<dutyTime1c>1900</dutyTime1c>
				<dutyTime1s>900</dutyTime1s>
				<wgs84Lat>37.5774104604408</wgs84Lat>
				<wgs84Lon>127.059016505402</wgs84Lon>
			</item>
			<item>
				<dutyName>연세신통마취과의원</dutyName>
				<dutyTel1>02-963-3375</dutyTel1>
				<dutyTime1c>1800</dutyTime1c>
				<dutyTime1s>900</dutyTime1s>
				<wgs84Lat>37.5817326537362</wgs84Lat>
				<wgs84Lon>127.044909406304</wgs84Lon>
			</item>
			<item>
				<dutyName>연세의원</dutyName>
				<dutyTel1>02-2243-7582</dutyTel1>
				<dutyTime1c>1830</dutyTime1c>
				<dutyTime1s>900</dutyTime1s>
				<wgs84Lat>37.5788992751874</wgs84Lat>
				<wgs84Lon>127.050142149425</wgs84Lon>
			</item>
			<item>
				<dutyName>연세이명수치과의원</dutyName>
				<dutyTel1>02-928-7277</dutyTel1>
				<dutyTime1c>1800</dutyTime1c>
				<dutyTime1s>930</dutyTime1s>
				<wgs84Lat>37.5793311009</wgs84Lat>
				<wgs84Lon>127.0249830722</wgs84Lon>
			</item>
			<item>
				<dutyName>연세이문소아청소년과의원</dutyName>
				<dutyTel1>02-962-3062</dutyTel1>
				<dutyTime1c>2200</dutyTime1c>
				<dutyTime1s>830</dutyTime1s>
				<wgs84Lat>37.6031490651</wgs84Lat>
				<wgs84Lon>127.0646813439</wgs84Lon>
			</item>
			<item>
				<dutyName>연세정내과의원</dutyName>
				<dutyTel1>02-924-6575</dutyTel1>
				<dutyTime1c>1830</dutyTime1c>
				<dutyTime1s>900</dutyTime1s>
				<wgs84Lat>37.5824833615864</wgs84Lat>
				<wgs84Lon>127.030178416902</wgs84Lon>
			</item>
			<item>
				<dutyName>연세정형외과의원</dutyName>
				<dutyTel1>02-2243-1651</dutyTel1>
				<dutyTime1c>1830</dutyTime1c>
				<dutyTime1s>900</dutyTime1s>
				<wgs84Lat>37.5648342050915</wgs84Lat>
				<wgs84Lon>127.066531642682</wgs84Lon>
			</item>
			<item>
				<dutyName>연세참이비인후과의원</dutyName>
				<dutyTel1>02-969-2500</dutyTel1>
				<dutyTime1c>1830</dutyTime1c>
				<dutyTime1s>900</dutyTime1s>
				<wgs84Lat>37.5822484365054</wgs84Lat>
				<wgs84Lon>127.047404572974</wgs84Lon>
			</item>
			<item>
				<dutyName>연세치과의원</dutyName>
				<dutyTel1>02-2245-7260</dutyTel1>
				<dutyTime1c>1730</dutyTime1c>
				<dutyTime1s>1000</dutyTime1s>
				<wgs84Lat>37.5897475400879</wgs84Lat>
				<wgs84Lon>127.061653423717</wgs84Lon>
			</item>
			<item>
				<dutyName>연세키즈소아청소년과의원</dutyName>
				<dutyTel1>02-2216-7575</dutyTel1>
				<dutyTime1c>1900</dutyTime1c>
				<dutyTime1s>900</dutyTime1s>
				<wgs84Lat>37.5721773702578</wgs84Lat>
				<wgs84Lon>127.051437289418</wgs84Lon>
			</item>
			<item>
				<dutyName>연세키즈주니어치과의원</dutyName>
				<dutyTel1>02-2246-7979</dutyTel1>
				<dutyTime1c>1830</dutyTime1c>
				<dutyTime1s>1000</dutyTime1s>
				<wgs84Lat>37.5728533663078</wgs84Lat>
				<wgs84Lon>127.072153479594</wgs84Lon>
			</item>
			<item>
				<dutyName>연세하늘재활의학과의원</dutyName>
				<dutyTel1>02-960-0080</dutyTel1>
				<dutyTime1c>1900</dutyTime1c>
				<dutyTime1s>900</dutyTime1s>
				<wgs84Lat>37.5808245229</wgs84Lat>
				<wgs84Lon>127.0447322298</wgs84Lon>
			</item>
			<item>
				<dutyName>연세휴치과의원</dutyName>
				<dutyTel1>02-2241-9700</dutyTel1>
				<dutyTime1c>2000</dutyTime1c>
				<dutyTime1s>900</dutyTime1s>
				<wgs84Lat>37.5654454656106</wgs84Lat>
				<wgs84Lon>127.055308418005</wgs84Lon>
			</item>
			<item>
				<dutyName>연세흰돌치과의원</dutyName>
				<dutyTel1>02-2215-9507</dutyTel1>
				<dutyTime1c>1830</dutyTime1c>
				<dutyTime1s>930</dutyTime1s>
				<wgs84Lat>37.5723454110295</wgs84Lat>
				<wgs84Lon>127.074747132213</wgs84Lon>
			</item>
			<item>
				<dutyName>연치과의원</dutyName>
				<dutyTel1>02-2244-4992</dutyTel1>
				<dutyTime1c>1830</dutyTime1c>
				<dutyTime1s>930</dutyTime1s>
				<wgs84Lat>37.5616105546888</wgs84Lat>
				<wgs84Lon>127.066320430338</wgs84Lon>
			</item>
			<item>
				<dutyName>열린내과의원</dutyName>
				<dutyTel1>02-960-3655</dutyTel1>
				<dutyTime1c>1900</dutyTime1c>
				<dutyTime1s>830</dutyTime1s>
				<wgs84Lat>37.6031298824114</wgs84Lat>
				<wgs84Lon>127.066765065866</wgs84Lon>
			</item>
			<item>
				<dutyName>열린비뇨기과의원</dutyName>
				<dutyTel1>02-967-8222</dutyTel1>
				<dutyTime1c>1830</dutyTime1c>
				<dutyTime1s>930</dutyTime1s>
				<wgs84Lat>37.5787280851667</wgs84Lat>
				<wgs84Lon>127.041796609218</wgs84Lon>
			</item>
			<item>
				<dutyName>열린치과의원</dutyName>
				<dutyTel1>02-964-4663</dutyTel1>
				<dutyTime1c>1800</dutyTime1c>
				<dutyTime1s>1000</dutyTime1s>
				<wgs84Lat>37.5948493489126</wgs84Lat>
				<wgs84Lon>127.06428918797</wgs84Lon>
			</item>
			<item>
				<dutyName>영동병원</dutyName>
				<dutyTel1>02-469-0019</dutyTel1>
				<dutyTime1c>1800</dutyTime1c>
				<dutyTime1s>900</dutyTime1s>
				<wgs84Lat>37.5632454704291</wgs84Lat>
				<wgs84Lon>127.058552941371</wgs84Lon>
			</item>
			<item>
				<dutyName>영동수치과의원</dutyName>
				<dutyTel1>02-2215-2835</dutyTel1>
				<dutyTime1c>1830</dutyTime1c>
				<dutyTime1s>930</dutyTime1s>
				<wgs84Lat>37.5632454704</wgs84Lat>
				<wgs84Lon>127.0585529414</wgs84Lon>
			</item>
			<item>
				<dutyName>영화당한의원</dutyName>
				<dutyTel1>02-962-3796</dutyTel1>
				<dutyTime1c>1750</dutyTime1c>
				<dutyTime1s>1000</dutyTime1s>
				<wgs84Lat>37.5786539658541</wgs84Lat>
				<wgs84Lon>127.037105229596</wgs84Lon>
			</item>
			<item>
				<dutyName>예담치과의원</dutyName>
				<dutyTel1>02-953-2804</dutyTel1>
				<dutyTime1c>1830</dutyTime1c>
				<dutyTime1s>930</dutyTime1s>
				<wgs84Lat>37.5827897109111</wgs84Lat>
				<wgs84Lon>127.030133254671</wgs84Lon>
			</item>
			<item>
				<dutyName>예일박의원</dutyName>
				<dutyTel1>02-3295-0119</dutyTel1>
				<dutyTime1c>2200</dutyTime1c>
				<dutyTime1s>900</dutyTime1s>
				<wgs84Lat>37.6028705507854</wgs84Lat>
				<wgs84Lon>127.066497554811</wgs84Lon>
			</item>
			<item>
				<dutyName>예일치과의원</dutyName>
				<dutyTel1>02-2249-6685</dutyTel1>
				<dutyTime1c>1800</dutyTime1c>
				<dutyTime1s>930</dutyTime1s>
				<wgs84Lat>37.5667025896</wgs84Lat>
				<wgs84Lon>127.0567129081</wgs84Lon>
			</item>
			<item>
				<dutyName>예진산부인과의원</dutyName>
				<dutyTel1>02-3295-5952</dutyTel1>
				<dutyTime1c>1800</dutyTime1c>
				<dutyTime1s>930</dutyTime1s>
				<wgs84Lat>37.5797692125435</wgs84Lat>
				<wgs84Lon>127.042961012303</wgs84Lon>
			</item>
			<item>
				<dutyName>오라클성형외과의원</dutyName>
				<dutyTel1>02-2244-7575</dutyTel1>
				<dutyTime1c>2000</dutyTime1c>
				<dutyTime1s>1000</dutyTime1s>
				<wgs84Lat>37.5714489836</wgs84Lat>
				<wgs84Lon>127.0702141828</wgs84Lon>
			</item>
			<item>
				<dutyName>오성한의원</dutyName>
				<dutyTel1>02-6959-8333</dutyTel1>
				<dutyTime1c>1800</dutyTime1c>
				<dutyTime1s>930</dutyTime1s>
				<wgs84Lat>37.5785884053</wgs84Lat>
				<wgs84Lon>127.0392470787</wgs84Lon>
			</item>
			<item>
				<dutyName>오창준외과의원</dutyName>
				<dutyTel1>02-960-3521</dutyTel1>
				<dutyTime1c>1800</dutyTime1c>
				<dutyTime1s>900</dutyTime1s>
				<wgs84Lat>37.5910984571</wgs84Lat>
				<wgs84Lon>127.037197439</wgs84Lon>
			</item>
			<item>
				<dutyName>온가족한의원</dutyName>
				<dutyTel1>02-959-1875</dutyTel1>
				<dutyTime1c>2100</dutyTime1c>
				<dutyTime1s>1000</dutyTime1s>
				<wgs84Lat>37.6034252607</wgs84Lat>
				<wgs84Lon>127.0670280398</wgs84Lon>
			</item>
			<item>
				<dutyName>온한의원</dutyName>
				<dutyTel1>02-2247-7582</dutyTel1>
				<dutyTime1c>1900</dutyTime1c>
				<dutyTime1s>930</dutyTime1s>
				<wgs84Lat>37.5630869608776</wgs84Lat>
				<wgs84Lon>127.065298637195</wgs84Lon>
			</item>
			<item>
				<dutyName>올리브치과의원</dutyName>
				<dutyTel1>02-973-2400</dutyTel1>
				<dutyTime1c>1800</dutyTime1c>
				<dutyTime1s>930</dutyTime1s>
				<wgs84Lat>37.5896714303</wgs84Lat>
				<wgs84Lon>127.0367347702</wgs84Lon>
			</item>
			<item>
				<dutyName>올치과의원</dutyName>
				<dutyTel1>02-969-1705</dutyTel1>
				<dutyTime1c>1900</dutyTime1c>
				<dutyTime1s>1000</dutyTime1s>
				<wgs84Lat>37.5903125965296</wgs84Lat>
				<wgs84Lon>127.055951843368</wgs84Lon>
			</item>
			<item>
				<dutyName>와이엠(YM)예미안치과의원</dutyName>
				<dutyTel1>02-2243-2885</dutyTel1>
				<dutyTime1c>1900</dutyTime1c>
				<dutyTime1s>930</dutyTime1s>
				<wgs84Lat>37.5624602883919</wgs84Lat>
				<wgs84Lon>127.064532966756</wgs84Lon>
			</item>
			<item>
				<dutyName>왕십리휴요양병원</dutyName>
				<dutyTel1>02-927-6501</dutyTel1>
				<dutyTime1c>1800</dutyTime1c>
				<dutyTime1s>830</dutyTime1s>
				<wgs84Lat>37.5721216457026</wgs84Lat>
				<wgs84Lon>127.03127450489</wgs84Lon>
			</item>
			<item>
				<dutyName>왕자한의원</dutyName>
				<dutyTel1>02-962-2877</dutyTel1>
				<dutyTime1c>1600</dutyTime1c>
				<dutyTime1s>1000</dutyTime1s>
				<wgs84Lat>37.5792317520751</wgs84Lat>
				<wgs84Lon>127.03754000374</wgs84Lon>
			</item>
			<item>
				<dutyName>용산한의원</dutyName>
				<dutyTel1>02-962-3178</dutyTel1>
				<dutyTime1c>1800</dutyTime1c>
				<dutyTime1s>1000</dutyTime1s>
				<wgs84Lat>37.5797421654572</wgs84Lat>
				<wgs84Lon>127.03773974627</wgs84Lon>
			</item>
			<item>
				<dutyName>우리가족치과의원</dutyName>
				<dutyTel1>02-2248-2804</dutyTel1>
				<dutyTime1c>1830</dutyTime1c>
				<dutyTime1s>930</dutyTime1s>
				<wgs84Lat>37.5784668216325</wgs84Lat>
				<wgs84Lon>127.068690218444</wgs84Lon>
			</item>
			<item>
				<dutyName>우리들의피부과의원</dutyName>
				<dutyTel1>02-957-7702</dutyTel1>
				<dutyTime1c>1830</dutyTime1c>
				<dutyTime1s>900</dutyTime1s>
				<wgs84Lat>37.5751988907091</wgs84Lat>
				<wgs84Lon>127.037682960224</wgs84Lon>
			</item>
			<item>
				<dutyName>우리외과의원</dutyName>
				<dutyTel1>02-2215-5275</dutyTel1>
				<dutyTime1c>1730</dutyTime1c>
				<dutyTime1s>900</dutyTime1s>
				<wgs84Lat>37.5752808847938</wgs84Lat>
				<wgs84Lon>127.046589997437</wgs84Lon>
			</item>
			<item>
				<dutyName>우리치과의원</dutyName>
				<dutyTel1>02-963-3073</dutyTel1>
				<dutyTime1c>1800</dutyTime1c>
				<dutyTime1s>930</dutyTime1s>
				<wgs84Lat>37.582138421605</wgs84Lat>
				<wgs84Lon>127.038931964435</wgs84Lon>
			</item>
			<item>
				<dutyName>우암치과의원</dutyName>
				<dutyTel1>02-962-2875</dutyTel1>
				<dutyTime1c>1830</dutyTime1c>
				<dutyTime1s>930</dutyTime1s>
				<wgs84Lat>37.6028241735149</wgs84Lat>
				<wgs84Lon>127.06564593135</wgs84Lon>
			</item>
			<item>
				<dutyName>우태형비뇨기과의원</dutyName>
				<dutyTel1>02-2243-5533</dutyTel1>
				<dutyTime1c>1830</dutyTime1c>
				<dutyTime1s>1000</dutyTime1s>
				<wgs84Lat>37.561574505195</wgs84Lat>
				<wgs84Lon>127.066338508189</wgs84Lon>
			</item>
			<item>
				<dutyName>원남한의원</dutyName>
				<dutyTel1>02-960-1101</dutyTel1>
				<dutyTime1c>1700</dutyTime1c>
				<dutyTime1s>1000</dutyTime1s>
				<wgs84Lat>37.5786610730952</wgs84Lat>
				<wgs84Lon>127.037435781181</wgs84Lon>
			</item>
			<item>
				<dutyName>원백제당한의원</dutyName>
				<dutyTel1>02-962-8000</dutyTel1>
				<dutyTime1c>1800</dutyTime1c>
				<dutyTime1s>1000</dutyTime1s>
				<wgs84Lat>37.5815225295</wgs84Lat>
				<wgs84Lon>127.0377496813</wgs84Lon>
			</item>
			<item>
				<dutyName>원의원</dutyName>
				<dutyTel1>02-2245-7709</dutyTel1>
				<dutyTime1c>1730</dutyTime1c>
				<dutyTime1s>930</dutyTime1s>
				<wgs84Lat>37.5856938691839</wgs84Lat>
				<wgs84Lon>127.052551812478</wgs84Lon>
			</item>
			<item>
				<dutyName>원창한의원</dutyName>
				<dutyTel1>02-966-3969</dutyTel1>
				<dutyTime1c>1800</dutyTime1c>
				<dutyTime1s>1000</dutyTime1s>
				<wgs84Lat>37.5796270471</wgs84Lat>
				<wgs84Lon>127.0370921066</wgs84Lon>
			</item>
			<item>
				<dutyName>웰비뇨기과의원</dutyName>
				<dutyTel1>02-2248-8245</dutyTel1>
				<dutyTime1c>1900</dutyTime1c>
				<dutyTime1s>930</dutyTime1s>
				<wgs84Lat>37.565842182176</wgs84Lat>
				<wgs84Lon>127.054702038573</wgs84Lon>
			</item>
			<item>
				<dutyName>웰치과의원</dutyName>
				<dutyTel1>02-2248-7575</dutyTel1>
				<dutyTime1c>1900</dutyTime1c>
				<dutyTime1s>930</dutyTime1s>
				<wgs84Lat>37.5678617617813</wgs84Lat>
				<wgs84Lon>127.072302605719</wgs84Lon>
			</item>
			<item>
				<dutyName>위성호내과의원</dutyName>
				<dutyTel1>02-2215-8463</dutyTel1>
				<dutyTime1c>1800</dutyTime1c>
				<dutyTime1s>800</dutyTime1s>
				<wgs84Lat>37.578166395982</wgs84Lat>
				<wgs84Lon>127.057640869149</wgs84Lon>
			</item>
			<item>
				<dutyName>유디치과의원</dutyName>
				<dutyTel1>02-957-2882</dutyTel1>
				<dutyTime1c>1830</dutyTime1c>
				<dutyTime1s>930</dutyTime1s>
				<wgs84Lat>37.5787280851667</wgs84Lat>
				<wgs84Lon>127.041796609218</wgs84Lon>
			</item>
			<item>
				<dutyName>유디치과의원</dutyName>
				<dutyTel1>02-953-2861</dutyTel1>
				<dutyTime1c>1830</dutyTime1c>
				<dutyTime1s>930</dutyTime1s>
				<wgs84Lat>37.5778115877187</wgs84Lat>
				<wgs84Lon>127.033953102618</wgs84Lon>
			</item>
			<item>
				<dutyName>유명한의원</dutyName>
				<dutyTel1>02-968-5251</dutyTel1>
				<dutyTime1c>1800</dutyTime1c>
				<dutyTime1s>1000</dutyTime1s>
				<wgs84Lat>37.5790392987237</wgs84Lat>
				<wgs84Lon>127.038024678315</wgs84Lon>
			</item>
			<item>
				<dutyName>유석천치과의원</dutyName>
				<dutyTel1>02-2246-0701</dutyTel1>
				<dutyTime1c>1800</dutyTime1c>
				<dutyTime1s>930</dutyTime1s>
				<wgs84Lat>37.5768472222222</wgs84Lat>
				<wgs84Lon>127.057877777778</wgs84Lon>
			</item>
			<item>
				<dutyName>유진내과의원</dutyName>
				<dutyTel1>02-969-7670</dutyTel1>
				<dutyTime1c>1800</dutyTime1c>
				<dutyTime1s>930</dutyTime1s>
				<wgs84Lat>37.5830016102711</wgs84Lat>
				<wgs84Lon>127.043959162157</wgs84Lon>
			</item>
			<item>
				<dutyName>유진여성의원</dutyName>
				<dutyTel1>02-966-4263</dutyTel1>
				<dutyTime1c>1800</dutyTime1c>
				<dutyTime1s>1000</dutyTime1s>
				<wgs84Lat>37.5984081174697</wgs84Lat>
				<wgs84Lon>127.061180438429</wgs84Lon>
			</item>
			<item>
				<dutyName>유치과의원</dutyName>
				<dutyTel1>02-921-2877</dutyTel1>
				<dutyTime1c>1800</dutyTime1c>
				<dutyTime1s>900</dutyTime1s>
				<wgs84Lat>37.5732796999239</wgs84Lat>
				<wgs84Lon>127.03156926366</wgs84Lon>
			</item>
			<item>
				<dutyName>유치과의원</dutyName>
				<dutyTel1>02-2212-7630</dutyTel1>
				<dutyTime1c>1830</dutyTime1c>
				<dutyTime1s>1030</dutyTime1s>
				<wgs84Lat>37.5725775612731</wgs84Lat>
				<wgs84Lon>127.051075321788</wgs84Lon>
			</item>
			<item>
				<dutyName>윤명진내과의원</dutyName>
				<dutyTel1>02-960-3577</dutyTel1>
				<dutyTime1c>1800</dutyTime1c>
				<dutyTime1s>900</dutyTime1s>
				<wgs84Lat>37.5946875068669</wgs84Lat>
				<wgs84Lon>127.063668533316</wgs84Lon>
			</item>
			<item>
				<dutyName>윤성욱치과의원</dutyName>
				<dutyTel1>02-2217-7818</dutyTel1>
				<dutyTime1c>1830</dutyTime1c>
				<dutyTime1s>930</dutyTime1s>
				<wgs84Lat>37.5669323123412</wgs84Lat>
				<wgs84Lon>127.06194685838</wgs84Lon>
			</item>
			<item>
				<dutyName>윤호치과의원</dutyName>
				<dutyTel1>02-2215-0277</dutyTel1>
				<dutyTime1c>1830</dutyTime1c>
				<dutyTime1s>930</dutyTime1s>
				<wgs84Lat>37.5664840865189</wgs84Lat>
				<wgs84Lon>127.053842263654</wgs84Lon>
			</item>
			<item>
				<dutyName>으뜸경희한의원</dutyName>
				<dutyTel1>02-452-7577</dutyTel1>
				<dutyTime1c>1930</dutyTime1c>
				<dutyTime1s>930</dutyTime1s>
				<wgs84Lat>37.5809855605</wgs84Lat>
				<wgs84Lon>127.0376769545</wgs84Lon>
			</item>
			<item>
				<dutyName>의료법인마리아의료재단마리아병원</dutyName>
				<dutyTel1>02-2234-6555</dutyTel1>
				<dutyTime1c>1700</dutyTime1c>
				<dutyTime1s>800</dutyTime1s>
				<wgs84Lat>37.5741640744363</wgs84Lat>
				<wgs84Lon>127.025411497756</wgs84Lon>
			</item>
			<item>
				<dutyName>의료법인의연의료재단경일의원</dutyName>
				<dutyTel1>02-3291-9991</dutyTel1>
				<dutyTime1c>1800</dutyTime1c>
				<dutyTime1s>900</dutyTime1s>
				<wgs84Lat>37.5780216788089</wgs84Lat>
				<wgs84Lon>127.030040746382</wgs84Lon>
			</item>
			<item>
				<dutyName>의료생활협동조합사랑나눔치과의원</dutyName>
				<dutyTel1>02-1800-2817</dutyTel1>
				<dutyTime1c>1830</dutyTime1c>
				<dutyTime1s>930</dutyTime1s>
				<wgs84Lat>37.5860292723</wgs84Lat>
				<wgs84Lon>127.0430868663</wgs84Lon>
			</item>
			<item>
				<dutyName>이가편한치과의원</dutyName>
				<dutyTel1>02-966-4335</dutyTel1>
				<dutyTime1c>1830</dutyTime1c>
				<dutyTime1s>1000</dutyTime1s>
				<wgs84Lat>37.5757955429518</wgs84Lat>
				<wgs84Lon>127.038579972524</wgs84Lon>
			</item>
			<item>
