<?xml version="1.0" encoding="UTF-8" standalone="yes"?>
<response xmlns:xsi="http://www.w3.org/2001/XMLSchema-instance">
	<body>
		<items>
			<item>
				<dutyName>(사)한국한센복지협회서울특별시지부부설의원</dutyName>
				<dutyTel1>02-812-1894</dutyTel1>
				<dutyTime1c>1800</dutyTime1c>
				<dutyTime1s>900</dutyTime1s>
				<wgs84Lat>37.5040768068293</wgs84Lat>
				<wgs84Lon>126.938037092458</wgs84Lon>
			</item>
			<item>
				<dutyName>365미소내과의원</dutyName>
				<dutyTel1>02-522-3650</dutyTel1>
				<dutyTime1c>2100</dutyTime1c>
				<dutyTime1s>830</dutyTime1s>
				<wgs84Lat>37.4768876151566</wgs84Lat>
				<wgs84Lon>126.977086056417</wgs84Lon>
			</item>
			<item>
				<dutyName>e-라임치과의원</dutyName>
				<dutyTel1>02-823-2828</dutyTel1>
				<dutyTime1c>1830</dutyTime1c>
				<dutyTime1s>930</dutyTime1s>
				<wgs84Lat>37.4976105038164</wgs84Lat>
				<wgs84Lon>126.952060576751</wgs84Lon>
			</item>
			<item>
				<dutyName>e하임치과의원</dutyName>
				<dutyTel1>02-3486-2875</dutyTel1>
				<dutyTime1c>1830</dutyTime1c>
				<dutyTime1s>930</dutyTime1s>
				<wgs84Lat>37.4832372046054</wgs84Lat>
				<wgs84Lon>126.973619825817</wgs84Lon>
			</item>
			<item>
				<dutyName>e해박난치과의원</dutyName>
				<dutyTel1>02-823-2080</dutyTel1>
				<dutyTime1c>1900</dutyTime1c>
				<dutyTime1s>1000</dutyTime1s>
				<wgs84Lat>37.5134568932489</wgs84Lat>
				<wgs84Lon>126.942856869335</wgs84Lon>
			</item>
			<item>
				<dutyName>가족사랑서울정신건강의학과의원</dutyName>
				<dutyTel1>02-812-9494</dutyTel1>
				<dutyTime1c>1830</dutyTime1c>
				<dutyTime1s>930</dutyTime1s>
				<wgs84Lat>37.4994620310411</wgs84Lat>
				<wgs84Lon>126.927901387948</wgs84Lon>
			</item>
			<item>
				<dutyName>강남가드비뇨기과의원</dutyName>
				<dutyTel1>02-566-8330</dutyTel1>
				<dutyTime1c>1900</dutyTime1c>
				<dutyTime1s>930</dutyTime1s>
				<wgs84Lat>37.4874807042</wgs84Lat>
				<wgs84Lon>126.9818589295</wgs84Lon>
			</item>
			<item>
				<dutyName>강남성모내과의원</dutyName>
				<dutyTel1>02-581-7582</dutyTel1>
				<dutyTime1c>1800</dutyTime1c>
				<dutyTime1s>830</dutyTime1s>
				<wgs84Lat>37.4849073814617</wgs84Lat>
				<wgs84Lon>126.981579145933</wgs84Lon>
			</item>
			<item>
				<dutyName>강남성모정형외과의원</dutyName>
				<dutyTel1>02-587-8275</dutyTel1>
				<dutyTime1c>1830</dutyTime1c>
				<dutyTime1s>900</dutyTime1s>
				<wgs84Lat>37.4846154681</wgs84Lat>
				<wgs84Lon>126.9816651481</wgs84Lon>
			</item>
			<item>
				<dutyName>강미자산부인과의원</dutyName>
				<dutyTel1>02-817-7002</dutyTel1>
				<dutyTime1c>1830</dutyTime1c>
				<dutyTime1s>930</dutyTime1s>
				<wgs84Lat>37.5006638670925</wgs84Lat>
				<wgs84Lon>126.931629937432</wgs84Lon>
			</item>
			<item>
				<dutyName>강호경내과의원</dutyName>
				<dutyTel1>02-825-6657</dutyTel1>
				<dutyTime1c>1800</dutyTime1c>
				<dutyTime1s>900</dutyTime1s>
				<wgs84Lat>37.4972286161904</wgs84Lat>
				<wgs84Lon>126.952404600585</wgs84Lon>
			</item>
			<item>
				<dutyName>건강치과의원</dutyName>
				<dutyTel1>02-816-2275</dutyTel1>
				<dutyTime1c>1830</dutyTime1c>
				<dutyTime1s>930</dutyTime1s>
				<wgs84Lat>37.5012315587941</wgs84Lat>
				<wgs84Lon>126.949696932423</wgs84Lon>
			</item>
			<item>
				<dutyName>건이비인후과의원</dutyName>
				<dutyTel1>02-522-9075</dutyTel1>
				<dutyTime1c>1830</dutyTime1c>
				<dutyTime1s>900</dutyTime1s>
				<wgs84Lat>37.4787458098114</wgs84Lat>
				<wgs84Lon>126.981307070603</wgs84Lon>
			</item>
			<item>
				<dutyName>건치과의원</dutyName>
				<dutyTel1>02-815-6934</dutyTel1>
				<dutyTime1c>1830</dutyTime1c>
				<dutyTime1s>930</dutyTime1s>
				<wgs84Lat>37.5043555555556</wgs84Lat>
				<wgs84Lon>126.938675</wgs84Lon>
			</item>
			<item>
				<dutyName>경성의원</dutyName>
				<dutyTel1>02-815-4709</dutyTel1>
				<dutyTime1c>1900</dutyTime1c>
				<dutyTime1s>900</dutyTime1s>
				<wgs84Lat>37.5129310599932</wgs84Lat>
				<wgs84Lon>126.936491489349</wgs84Lon>
			</item>
			<item>
				<dutyName>경해가정의원</dutyName>
				<dutyTel1>02-822-1199</dutyTel1>
				<dutyTime1c>1830</dutyTime1c>
				<dutyTime1s>900</dutyTime1s>
				<wgs84Lat>37.4994883945926</wgs84Lat>
				<wgs84Lon>126.929746956845</wgs84Lon>
			</item>
			<item>
				<dutyName>경희노들한의원</dutyName>
				<dutyTel1>02-812-5675</dutyTel1>
				<dutyTime1c>1800</dutyTime1c>
				<dutyTime1s>900</dutyTime1s>
				<wgs84Lat>37.512397939508</wgs84Lat>
				<wgs84Lon>126.952399493937</wgs84Lon>
			</item>
			<item>
				<dutyName>경희다원한의원</dutyName>
				<dutyTel1>02-822-4575</dutyTel1>
				<dutyTime1c>1900</dutyTime1c>
				<dutyTime1s>930</dutyTime1s>
				<wgs84Lat>37.4999591557</wgs84Lat>
				<wgs84Lon>126.9283781249</wgs84Lon>
			</item>
			<item>
				<dutyName>경희당한의원</dutyName>
				<dutyTel1>02-826-7900</dutyTel1>
				<dutyTime1c>2000</dutyTime1c>
				<dutyTime1s>930</dutyTime1s>
				<wgs84Lat>37.4984226313783</wgs84Lat>
				<wgs84Lon>126.952984952964</wgs84Lon>
			</item>
			<item>
				<dutyName>경희봄빛한의원</dutyName>
				<dutyTel1>02-814-0888</dutyTel1>
				<dutyTime1c>2000</dutyTime1c>
				<dutyTime1s>930</dutyTime1s>
				<wgs84Lat>37.4972901867628</wgs84Lat>
				<wgs84Lon>126.953178087002</wgs84Lon>
			</item>
			<item>
				<dutyName>경희삼육오봄한의원</dutyName>
				<dutyTel1>02-6265-0365</dutyTel1>
				<dutyTime1c>2000</dutyTime1c>
				<dutyTime1s>900</dutyTime1s>
				<wgs84Lat>37.4832083511</wgs84Lat>
				<wgs84Lon>126.9735248619</wgs84Lon>
			</item>
			<item>
				<dutyName>경희약손한의원</dutyName>
				<dutyTel1>02-821-5075</dutyTel1>
				<dutyTime1c>1900</dutyTime1c>
				<dutyTime1s>930</dutyTime1s>
				<wgs84Lat>37.5058651148497</wgs84Lat>
				<wgs84Lon>126.946902533178</wgs84Lon>
			</item>
			<item>
				<dutyName>경희어울림한의원</dutyName>
				<dutyTel1>02-3476-5275</dutyTel1>
				<dutyTime1c>1900</dutyTime1c>
				<dutyTime1s>900</dutyTime1s>
				<wgs84Lat>37.484326576183</wgs84Lat>
				<wgs84Lon>126.972477445962</wgs84Lon>
			</item>
			<item>
				<dutyName>경희온한의원</dutyName>
				<dutyTel1>02-595-2772</dutyTel1>
				<dutyTime1c>1830</dutyTime1c>
				<dutyTime1s>1000</dutyTime1s>
				<wgs84Lat>37.486309363</wgs84Lat>
				<wgs84Lon>126.9816602114</wgs84Lon>
			</item>
			<item>
				<dutyName>경희윤한의원</dutyName>
				<dutyTel1>02-585-7575</dutyTel1>
				<dutyTime1c>1800</dutyTime1c>
				<dutyTime1s>900</dutyTime1s>
				<wgs84Lat>37.4846363370976</wgs84Lat>
				<wgs84Lon>126.971740138707</wgs84Lon>
			</item>
			<item>
				<dutyName>경희은한의원</dutyName>
				<dutyTel1>02-536-7700</dutyTel1>
				<dutyTime1c>1800</dutyTime1c>
				<dutyTime1s>1000</dutyTime1s>
				<wgs84Lat>37.4884531575652</wgs84Lat>
				<wgs84Lon>126.978109219877</wgs84Lon>
			</item>
			<item>
				<dutyName>경희이수한의원</dutyName>
				<dutyTel1>02-536-1275</dutyTel1>
				<dutyTime1c>1900</dutyTime1c>
				<dutyTime1s>900</dutyTime1s>
				<wgs84Lat>37.4909982831844</wgs84Lat>
				<wgs84Lon>126.982152076571</wgs84Lon>
			</item>
			<item>
				<dutyName>경희제일한의원</dutyName>
				<dutyTel1>02-833-8271</dutyTel1>
				<dutyTime1c>2000</dutyTime1c>
				<dutyTime1s>930</dutyTime1s>
				<wgs84Lat>37.4897203887455</wgs84Lat>
				<wgs84Lon>126.90752611542</wgs84Lon>
			</item>
			<item>
				<dutyName>경희최종욱한의원</dutyName>
				<dutyTel1>02-815-8887</dutyTel1>
				<dutyTime1c>2000</dutyTime1c>
				<dutyTime1s>930</dutyTime1s>
				<wgs84Lat>37.5040990583</wgs84Lat>
				<wgs84Lon>126.9662838794</wgs84Lon>
			</item>
			<item>
				<dutyName>경희한가람한의원</dutyName>
				<dutyTel1>02-3472-7575</dutyTel1>
				<dutyTime1c>1900</dutyTime1c>
				<dutyTime1s>800</dutyTime1s>
				<wgs84Lat>37.4835023334651</wgs84Lat>
				<wgs84Lon>126.977240013888</wgs84Lon>
			</item>
			<item>
				<dutyName>경희한의원</dutyName>
				<dutyTel1>02-836-2079</dutyTel1>
				<dutyTime1c>1800</dutyTime1c>
				<dutyTime1s>900</dutyTime1s>
				<wgs84Lat>37.4878488900455</wgs84Lat>
				<wgs84Lon>126.91136569806</wgs84Lon>
			</item>
			<item>
				<dutyName>경희혜담한의원</dutyName>
				<dutyTel1>02-586-8875</dutyTel1>
				<dutyTime1c>1900</dutyTime1c>
				<dutyTime1s>930</dutyTime1s>
				<wgs84Lat>37.4772447023</wgs84Lat>
				<wgs84Lon>126.9786189775</wgs84Lon>
			</item>
			<item>
				<dutyName>고석주정형외과의원</dutyName>
				<dutyTel1>02-593-5561</dutyTel1>
				<dutyTime1c>1800</dutyTime1c>
				<dutyTime1s>900</dutyTime1s>
				<wgs84Lat>37.485301407948</wgs84Lat>
				<wgs84Lon>126.980789721544</wgs84Lon>
			</item>
			<item>
				<dutyName>고성원내과의원</dutyName>
				<dutyTel1>02-582-9770</dutyTel1>
				<dutyTime1c>1830</dutyTime1c>
				<dutyTime1s>750</dutyTime1s>
				<wgs84Lat>37.4830369193593</wgs84Lat>
				<wgs84Lon>126.974929153898</wgs84Lon>
			</item>
			<item>
				<dutyName>고운미의원</dutyName>
				<dutyTel1>02-3482-8875</dutyTel1>
				<dutyTime1c>2100</dutyTime1c>
				<dutyTime1s>1000</dutyTime1s>
				<wgs84Lat>37.4874807042423</wgs84Lat>
				<wgs84Lon>126.98185892953</wgs84Lon>
			</item>
			<item>
				<dutyName>고운소아청소년과의원</dutyName>
				<dutyTel1>02-825-7582</dutyTel1>
				<dutyTime1c>1800</dutyTime1c>
				<dutyTime1s>900</dutyTime1s>
				<wgs84Lat>37.5011521377</wgs84Lat>
				<wgs84Lon>126.941563435609</wgs84Lon>
			</item>
			<item>
				<dutyName>고이비인후과의원</dutyName>
				<dutyTel1>02-814-3777</dutyTel1>
				<dutyTime1c>1900</dutyTime1c>
				<dutyTime1s>900</dutyTime1s>
				<wgs84Lat>37.5087651981658</wgs84Lat>
				<wgs84Lon>126.924236799884</wgs84Lon>
			</item>
			<item>
				<dutyName>곽피부과의원</dutyName>
				<dutyTel1>02-826-1088</dutyTel1>
				<dutyTime1c>1730</dutyTime1c>
				<dutyTime1s>1030</dutyTime1s>
				<wgs84Lat>37.5132850868858</wgs84Lat>
				<wgs84Lon>126.94404878969</wgs84Lon>
			</item>
			<item>
				<dutyName>광덕안정한의원</dutyName>
				<dutyTel1>02-556-8275</dutyTel1>
				<dutyTime1c>1800</dutyTime1c>
				<dutyTime1s>800</dutyTime1s>
				<wgs84Lat>37.4879708657</wgs84Lat>
				<wgs84Lon>126.9819447453</wgs84Lon>
			</item>
			<item>
				<dutyName>광보의원</dutyName>
				<dutyTel1>02-814-7559</dutyTel1>
				<dutyTime1c>1900</dutyTime1c>
				<dutyTime1s>900</dutyTime1s>
				<wgs84Lat>37.511313163676</wgs84Lat>
				<wgs84Lon>126.944251998431</wgs84Lon>
			</item>
			<item>
				<dutyName>구원창문외과의원</dutyName>
				<dutyTel1>02-583-0009</dutyTel1>
				<dutyTime1c>1800</dutyTime1c>
				<dutyTime1s>900</dutyTime1s>
				<wgs84Lat>37.4846154681034</wgs84Lat>
				<wgs84Lon>126.981665148088</wgs84Lon>
			</item>
			<item>
				<dutyName>굿모닝치과의원</dutyName>
				<dutyTel1>02-596-7582</dutyTel1>
				<dutyTime1c>1800</dutyTime1c>
				<dutyTime1s>930</dutyTime1s>
				<wgs84Lat>37.4843855724898</wgs84Lat>
				<wgs84Lon>126.978528671086</wgs84Lon>
			</item>
			<item>
				<dutyName>굿모닝힐의원</dutyName>
				<dutyTel1>02-813-1972</dutyTel1>
				<dutyTime1c>1900</dutyTime1c>
				<dutyTime1s>900</dutyTime1s>
				<wgs84Lat>37.5129523806</wgs84Lat>
				<wgs84Lon>126.9509875396</wgs84Lon>
			</item>
			<item>
				<dutyName>권택견치과의원</dutyName>
				<dutyTel1>02-821-0719</dutyTel1>
				<dutyTime1c>1800</dutyTime1c>
				<dutyTime1s>930</dutyTime1s>
				<wgs84Lat>37.4999581220559</wgs84Lat>
				<wgs84Lon>126.931764008366</wgs84Lon>
			</item>
			<item>
				<dutyName>권혁철소아과의원</dutyName>
				<dutyTel1>02-847-2083</dutyTel1>
				<dutyTime1c>1800</dutyTime1c>
				<dutyTime1s>900</dutyTime1s>
				<wgs84Lat>37.4934171796043</wgs84Lat>
				<wgs84Lon>126.910972646655</wgs84Lon>
			</item>
			<item>
				<dutyName>그린시카고치과의원</dutyName>
				<dutyTel1>02-564-3883</dutyTel1>
				<dutyTime1c>1830</dutyTime1c>
				<dutyTime1s>1000</dutyTime1s>
				<wgs84Lat>37.4845409239165</wgs84Lat>
				<wgs84Lon>126.98056832342</wgs84Lon>
			</item>
			<item>
				<dutyName>그린필치과의원</dutyName>
				<dutyTel1>02-825-2875</dutyTel1>
				<dutyTime1c>1830</dutyTime1c>
				<dutyTime1s>930</dutyTime1s>
				<wgs84Lat>37.498748738228</wgs84Lat>
				<wgs84Lon>126.92838157616</wgs84Lon>
			</item>
			<item>
				<dutyName>금강한의원</dutyName>
				<dutyTel1>02-812-7575</dutyTel1>
				<dutyTime1c>1900</dutyTime1c>
				<dutyTime1s>900</dutyTime1s>
				<wgs84Lat>37.4982000210641</wgs84Lat>
				<wgs84Lon>126.927769135833</wgs84Lon>
			</item>
			<item>
				<dutyName>금아치과의원</dutyName>
				<dutyTel1>02-825-2222</dutyTel1>
				<dutyTime1c>1800</dutyTime1c>
				<dutyTime1s>930</dutyTime1s>
				<wgs84Lat>37.499471285154</wgs84Lat>
				<wgs84Lon>126.920670478853</wgs84Lon>
			</item>
			<item>
				<dutyName>기분좋은한방병원</dutyName>
				<dutyTel1>02-815-1085</dutyTel1>
				<dutyTime1c>2100</dutyTime1c>
				<dutyTime1s>930</dutyTime1s>
				<wgs84Lat>37.4977624955</wgs84Lat>
				<wgs84Lon>126.9254535514</wgs84Lon>
			</item>
			<item>
				<dutyName>기쁨준내과의원</dutyName>
				<dutyTel1>02-826-7575</dutyTel1>
				<dutyTime1c>1900</dutyTime1c>
				<dutyTime1s>900</dutyTime1s>
				<wgs84Lat>37.5126124173</wgs84Lat>
				<wgs84Lon>126.9405546214</wgs84Lon>
			</item>
			<item>
				<dutyName>김과연치과의원</dutyName>
				<dutyTel1>02-814-2875</dutyTel1>
				<dutyTime1c>1830</dutyTime1c>
				<dutyTime1s>1000</dutyTime1s>
				<wgs84Lat>37.5065832539367</wgs84Lat>
				<wgs84Lon>126.966519839227</wgs84Lon>
			</item>
			<item>
				<dutyName>김동우한의원</dutyName>
				<dutyTel1>02-568-0789</dutyTel1>
				<dutyTime1c>1800</dutyTime1c>
				<dutyTime1s>1000</dutyTime1s>
				<wgs84Lat>37.4772030426768</wgs84Lat>
				<wgs84Lon>126.97988752337</wgs84Lon>
			</item>
			<item>
				<dutyName>김두원한의원</dutyName>
				<dutyTel1>02-825-7975</dutyTel1>
				<dutyTime1c>1900</dutyTime1c>
				<dutyTime1s>900</dutyTime1s>
				<wgs84Lat>37.4995936997</wgs84Lat>
				<wgs84Lon>126.9320244629</wgs84Lon>
			</item>
			<item>
				<dutyName>김민우치과의원</dutyName>
				<dutyTel1>02-835-2875</dutyTel1>
				<dutyTime1c>1800</dutyTime1c>
				<dutyTime1s>930</dutyTime1s>
				<wgs84Lat>37.49036236644</wgs84Lat>
				<wgs84Lon>126.908113296608</wgs84Lon>
			</item>
			<item>
				<dutyName>김석호내과의원</dutyName>
				<dutyTel1>02-826-2777</dutyTel1>
				<dutyTime1c>1900</dutyTime1c>
				<dutyTime1s>800</dutyTime1s>
				<wgs84Lat>37.5000222222222</wgs84Lat>
				<wgs84Lon>126.930616666667</wgs84Lon>
			</item>
			<item>
				<dutyName>김성도의원</dutyName>
				<dutyTel1>02-599-3542</dutyTel1>
				<dutyTime1c>1800</dutyTime1c>
				<dutyTime1s>1000</dutyTime1s>
				<wgs84Lat>37.4863467227901</wgs84Lat>
				<wgs84Lon>126.98168493235</wgs84Lon>
			</item>
			<item>
				<dutyName>김성미산부인과의원</dutyName>
				<dutyTel1>02-521-2411</dutyTel1>
				<dutyTime1c>1800</dutyTime1c>
				<dutyTime1s>930</dutyTime1s>
				<wgs84Lat>37.4833055968501</wgs84Lat>
				<wgs84Lon>126.973244427793</wgs84Lon>
			</item>
			<item>
				<dutyName>김수진내과의원</dutyName>
				<dutyTel1>02-6747-7575</dutyTel1>
				<dutyTime1c>1830</dutyTime1c>
				<dutyTime1s>900</dutyTime1s>
				<wgs84Lat>37.4913284343787</wgs84Lat>
				<wgs84Lon>126.924094002329</wgs84Lon>
			</item>
			<item>
				<dutyName>김안과21의원</dutyName>
				<dutyTel1>02-835-8288</dutyTel1>
				<dutyTime1c>1830</dutyTime1c>
				<dutyTime1s>900</dutyTime1s>
				<wgs84Lat>37.4906938396958</wgs84Lat>
				<wgs84Lon>126.908426874707</wgs84Lon>
			</item>
			<item>
				<dutyName>김안과의원</dutyName>
				<dutyTel1>02-826-0606</dutyTel1>
				<dutyTime1c>1830</dutyTime1c>
				<dutyTime1s>930</dutyTime1s>
				<wgs84Lat>37.5139436053859</wgs84Lat>
				<wgs84Lon>126.943209403457</wgs84Lon>
			</item>
			<item>
				<dutyName>김앤방여성의원</dutyName>
				<dutyTel1>02-815-5331</dutyTel1>
				<dutyTime1c>1800</dutyTime1c>
				<dutyTime1s>930</dutyTime1s>
				<wgs84Lat>37.4987457880017</wgs84Lat>
				<wgs84Lon>126.952100562572</wgs84Lon>
			</item>
			<item>
				<dutyName>김연두내과의원</dutyName>
				<dutyTel1>02-816-3774</dutyTel1>
				<dutyTime1c>1830</dutyTime1c>
				<dutyTime1s>930</dutyTime1s>
				<wgs84Lat>37.5071934685261</wgs84Lat>
				<wgs84Lon>126.961577528897</wgs84Lon>
			</item>
			<item>
				<dutyName>김영내과의원</dutyName>
				<dutyTel1>02-825-7473</dutyTel1>
				<dutyTime1c>1830</dutyTime1c>
				<dutyTime1s>900</dutyTime1s>
				<wgs84Lat>37.5113676854</wgs84Lat>
				<wgs84Lon>126.9452246555</wgs84Lon>
			</item>
			<item>
				<dutyName>김용철외과의원</dutyName>
				<dutyTel1>02-523-5544</dutyTel1>
				<dutyTime1c>1830</dutyTime1c>
				<dutyTime1s>900</dutyTime1s>
				<wgs84Lat>37.481188003532</wgs84Lat>
				<wgs84Lon>126.981489610031</wgs84Lon>
			</item>
			<item>
				<dutyName>김윤섭피부과의원</dutyName>
				<dutyTel1>02-591-7789</dutyTel1>
				<dutyTime1c>1800</dutyTime1c>
				<dutyTime1s>930</dutyTime1s>
				<wgs84Lat>37.4882916148521</wgs84Lat>
				<wgs84Lon>126.981881347829</wgs84Lon>
			</item>
			<item>
				<dutyName>김의원</dutyName>
				<dutyTel1>02-855-7541</dutyTel1>
				<dutyTime1c>1800</dutyTime1c>
				<dutyTime1s>900</dutyTime1s>
				<wgs84Lat>37.5082692389603</wgs84Lat>
				<wgs84Lon>126.939888501355</wgs84Lon>
			</item>
			<item>
				<dutyName>김재룡한의원</dutyName>
				<dutyTel1>02-815-3226</dutyTel1>
				<dutyTime1c>1900</dutyTime1c>
				<dutyTime1s>930</dutyTime1s>
				<wgs84Lat>37.5119988247</wgs84Lat>
				<wgs84Lon>126.9321760893</wgs84Lon>
			</item>
			<item>
				<dutyName>김정기정형외과의원</dutyName>
				<dutyTel1>02-813-9842</dutyTel1>
				<dutyTime1c>1800</dutyTime1c>
				<dutyTime1s>900</dutyTime1s>
				<wgs84Lat>37.5041938011218</wgs84Lat>
				<wgs84Lon>126.922538330215</wgs84Lon>
			</item>
			<item>
				<dutyName>김정훈한의원</dutyName>
				<dutyTel1>02-824-2345</dutyTel1>
				<dutyTime1c>1800</dutyTime1c>
				<dutyTime1s>1000</dutyTime1s>
				<wgs84Lat>37.5130331237</wgs84Lat>
				<wgs84Lon>126.9460559226</wgs84Lon>
			</item>
			<item>
				<dutyName>김종민이비인후과의원</dutyName>
				<dutyTel1>02-812-2759</dutyTel1>
				<dutyTime1c>1800</dutyTime1c>
				<dutyTime1s>930</dutyTime1s>
				<wgs84Lat>37.5044093653497</wgs84Lat>
				<wgs84Lon>126.938744635862</wgs84Lon>
			</item>
			<item>
				<dutyName>김종화이비인후과의원</dutyName>
				<dutyTel1>02-832-9121</dutyTel1>
				<dutyTime1c>1800</dutyTime1c>
				<dutyTime1s>900</dutyTime1s>
				<wgs84Lat>37.4881085261924</wgs84Lat>
				<wgs84Lon>126.906433610039</wgs84Lon>
			</item>
			<item>
				<dutyName>김준수치과의원</dutyName>
				<dutyTel1>02-826-0026</dutyTel1>
				<dutyTime1c>1800</dutyTime1c>
				<dutyTime1s>930</dutyTime1s>
				<wgs84Lat>37.5067819905754</wgs84Lat>
				<wgs84Lon>126.968311233599</wgs84Lon>
			</item>
			<item>
				<dutyName>김치과의원</dutyName>
				<dutyTel1>02-815-1700</dutyTel1>
				<dutyTime1c>1830</dutyTime1c>
				<dutyTime1s>930</dutyTime1s>
				<wgs84Lat>37.5087689794176</wgs84Lat>
				<wgs84Lon>126.924508240571</wgs84Lon>
			</item>
			<item>
				<dutyName>김한욱치과의원</dutyName>
				<dutyTel1>02-824-1683</dutyTel1>
				<dutyTime1c>1800</dutyTime1c>
				<dutyTime1s>1000</dutyTime1s>
				<wgs84Lat>37.498924671456</wgs84Lat>
				<wgs84Lon>126.933298430241</wgs84Lon>
			</item>
			<item>
				<dutyName>나은치과의원</dutyName>
				<dutyTel1>02-823-7582</dutyTel1>
				<dutyTime1c>1800</dutyTime1c>
				<dutyTime1s>1030</dutyTime1s>
				<wgs84Lat>37.4994598555348</wgs84Lat>
				<wgs84Lon>126.9512472518</wgs84Lon>
			</item>
			<item>
				<dutyName>나은한의원</dutyName>
				<dutyTel1>02-826-8875</dutyTel1>
				<dutyTime1c>1800</dutyTime1c>
				<dutyTime1s>900</dutyTime1s>
				<wgs84Lat>37.4994698432951</wgs84Lat>
				<wgs84Lon>126.951236101556</wgs84Lon>
			</item>
			<item>
				<dutyName>남상치과의원</dutyName>
				<dutyTel1>02-831-2875</dutyTel1>
				<dutyTime1c>1800</dutyTime1c>
				<dutyTime1s>930</dutyTime1s>
				<wgs84Lat>37.504575</wgs84Lat>
				<wgs84Lon>126.922394444444</wgs84Lon>
			</item>
			<item>
				<dutyName>남서울한의원</dutyName>
				<dutyTel1>02-825-1010</dutyTel1>
				<dutyTime1c>2100</dutyTime1c>
				<dutyTime1s>930</dutyTime1s>
				<wgs84Lat>37.5080700183664</wgs84Lat>
				<wgs84Lon>126.964011009587</wgs84Lon>
			</item>
			<item>
				<dutyName>남성의원</dutyName>
				<dutyTel1>02-599-1412</dutyTel1>
				<dutyTime1c>1800</dutyTime1c>
				<dutyTime1s>900</dutyTime1s>
				<wgs84Lat>37.4844586804776</wgs84Lat>
				<wgs84Lon>126.972344009741</wgs84Lon>
			</item>
			<item>
				<dutyName>남향한의원</dutyName>
				<dutyTel1>02-3481-3375</dutyTel1>
				<dutyTime1c>1800</dutyTime1c>
				<dutyTime1s>900</dutyTime1s>
				<wgs84Lat>37.4879202864</wgs84Lat>
				<wgs84Lon>126.9811577805</wgs84Lon>
			</item>
			<item>
				<dutyName>노마취통증의학과의원</dutyName>
				<dutyTel1>02-813-8700</dutyTel1>
				<dutyTime1c>1900</dutyTime1c>
				<dutyTime1s>900</dutyTime1s>
				<wgs84Lat>37.499835207997</wgs84Lat>
				<wgs84Lon>126.931126303892</wgs84Lon>
			</item>
			<item>
				<dutyName>누가한의원</dutyName>
				<dutyTel1>02-842-1188</dutyTel1>
				<dutyTime1c>1800</dutyTime1c>
				<dutyTime1s>1000</dutyTime1s>
				<wgs84Lat>37.4954101764878</wgs84Lat>
				<wgs84Lon>126.927233549272</wgs84Lon>
			</item>
			<item>
				<dutyName>뉴연세치과의원</dutyName>
				<dutyTel1>02-835-1028</dutyTel1>
				<dutyTime1c>1900</dutyTime1c>
				<dutyTime1s>1000</dutyTime1s>
				<wgs84Lat>37.4963889036709</wgs84Lat>
				<wgs84Lon>126.914160072206</wgs84Lon>
			</item>
			<item>
				<dutyName>뉴타임의원</dutyName>
				<dutyTel1>02-832-9121</dutyTel1>
				<dutyTime1c>1800</dutyTime1c>
				<dutyTime1s>900</dutyTime1s>
				<wgs84Lat>37.4881085261924</wgs84Lat>
				<wgs84Lon>126.906433610039</wgs84Lon>
			</item>
			<item>
				<dutyName>늘건강내과이비인후과의원</dutyName>
				<dutyTel1>02-822-3375</dutyTel1>
				<dutyTime1c>1830</dutyTime1c>
				<dutyTime1s>830</dutyTime1s>
				<wgs84Lat>37.5042536025173</wgs84Lat>
				<wgs84Lon>126.938416948972</wgs84Lon>
			</item>
			<item>
				<dutyName>다나은한의원</dutyName>
				<dutyTel1>02-835-1993</dutyTel1>
				<dutyTime1c>1800</dutyTime1c>
				<dutyTime1s>900</dutyTime1s>
				<wgs84Lat>37.4897180889077</wgs84Lat>
				<wgs84Lon>126.909649265946</wgs84Lon>
			</item>
			<item>
				<dutyName>다나한의원</dutyName>
				<dutyTel1>02-824-1161</dutyTel1>
				<dutyTime1c>1900</dutyTime1c>
				<dutyTime1s>930</dutyTime1s>
				<wgs84Lat>37.5105476032479</wgs84Lat>
				<wgs84Lon>126.939965550051</wgs84Lon>
			</item>
			<item>
				<dutyName>다담한의원</dutyName>
				<dutyTel1>02-826-1063</dutyTel1>
				<dutyTime1c>1830</dutyTime1c>
				<dutyTime1s>930</dutyTime1s>
				<wgs84Lat>37.499461509</wgs84Lat>
				<wgs84Lon>126.9278991037</wgs84Lon>
			</item>
			<item>
				<dutyName>다미의원</dutyName>
				<dutyTel1>02-532-1332</dutyTel1>
				<dutyTime1c>1730</dutyTime1c>
				<dutyTime1s>1030</dutyTime1s>
				<wgs84Lat>37.4841776352712</wgs84Lat>
				<wgs84Lon>126.972674285843</wgs84Lon>
			</item>
			<item>
				<dutyName>단아한의원</dutyName>
				<dutyTel1>02-821-1075</dutyTel1>
				<dutyTime1c>1830</dutyTime1c>
				<dutyTime1s>900</dutyTime1s>
				<wgs84Lat>37.5066278396825</wgs84Lat>
				<wgs84Lon>126.962184012188</wgs84Lon>
			</item>
			<item>
				<dutyName>대방연세재활의학과의원</dutyName>
				<dutyTel1>02-825-6675</dutyTel1>
				<dutyTime1c>1900</dutyTime1c>
				<dutyTime1s>900</dutyTime1s>
				<wgs84Lat>37.5087617920844</wgs84Lat>
				<wgs84Lon>126.924539916486</wgs84Lon>
			</item>
			<item>
				<dutyName>대영당한의원</dutyName>
				<dutyTel1>02-814-1383</dutyTel1>
				<dutyTime1c>1500</dutyTime1c>
				<dutyTime1s>900</dutyTime1s>
				<wgs84Lat>37.5039311499093</wgs84Lat>
				<wgs84Lon>126.923226242879</wgs84Lon>
			</item>
			<item>
				<dutyName>더본병원</dutyName>
				<dutyTel1>02-587-2299</dutyTel1>
				<dutyTime1c>1800</dutyTime1c>
				<dutyTime1s>900</dutyTime1s>
				<wgs84Lat>37.482546723462</wgs84Lat>
				<wgs84Lon>126.981480229782</wgs84Lon>
			</item>
			<item>
				<dutyName>더좋은치과의원</dutyName>
				<dutyTel1>02-532-2750</dutyTel1>
				<dutyTime1c>2030</dutyTime1c>
				<dutyTime1s>930</dutyTime1s>
				<wgs84Lat>37.4873723250807</wgs84Lat>
				<wgs84Lon>126.980248830659</wgs84Lon>
			</item>
			<item>
				<dutyName>덕성한의원</dutyName>
				<dutyTel1>02-825-6633</dutyTel1>
				<dutyTime1c>1900</dutyTime1c>
				<dutyTime1s>1000</dutyTime1s>
				<wgs84Lat>37.5044483574844</wgs84Lat>
				<wgs84Lon>126.946084739736</wgs84Lon>
			</item>
			<item>
				<dutyName>덕천한의원</dutyName>
				<dutyTel1>02-814-3373</dutyTel1>
				<dutyTime1c>1830</dutyTime1c>
				<dutyTime1s>900</dutyTime1s>
				<wgs84Lat>37.5041669693473</wgs84Lat>
				<wgs84Lon>126.938168229693</wgs84Lon>
			</item>
			<item>
				<dutyName>도움치과의원</dutyName>
				<dutyTel1>02-3280-7077</dutyTel1>
				<dutyTime1c>1830</dutyTime1c>
				<dutyTime1s>930</dutyTime1s>
				<wgs84Lat>37.5001768316</wgs84Lat>
				<wgs84Lon>126.9307844693</wgs84Lon>
			</item>
			<item>
				<dutyName>동산한의원</dutyName>
				<dutyTel1>02-821-2629</dutyTel1>
				<dutyTime1c>1900</dutyTime1c>
				<dutyTime1s>900</dutyTime1s>
				<wgs84Lat>37.4981685920951</wgs84Lat>
				<wgs84Lon>126.929447395262</wgs84Lon>
			</item>
			<item>
				<dutyName>동양한의원</dutyName>
				<dutyTel1>02-584-3666</dutyTel1>
				<dutyTime1c>1900</dutyTime1c>
				<dutyTime1s>900</dutyTime1s>
				<wgs84Lat>37.4824298202414</wgs84Lat>
				<wgs84Lon>126.973294508329</wgs84Lon>
			</item>
			<item>
				<dutyName>동의한의원</dutyName>
				<dutyTel1>02-826-2250</dutyTel1>
				<dutyTime1c>1900</dutyTime1c>
				<dutyTime1s>930</dutyTime1s>
				<wgs84Lat>37.5115906301864</wgs84Lat>
				<wgs84Lon>126.944147713003</wgs84Lon>
			</item>
			<item>
				<dutyName>동인한의원</dutyName>
				<dutyTel1>02-816-1404</dutyTel1>
				<dutyTime1c>1830</dutyTime1c>
				<dutyTime1s>900</dutyTime1s>
				<wgs84Lat>37.5081160538457</wgs84Lat>
				<wgs84Lon>126.961423216981</wgs84Lon>
			</item>
			<item>
				<dutyName>동작구보건소</dutyName>
				<dutyTel1>02-820-9470</dutyTel1>
				<dutyTime1c>1800</dutyTime1c>
				<dutyTime1s>900</dutyTime1s>
				<wgs84Lat>37.5043234853257</wgs84Lat>
				<wgs84Lon>126.941190029104</wgs84Lon>
			</item>
			<item>
				<dutyName>동작서울정형외과의원</dutyName>
				<dutyTel1>02-825-7774</dutyTel1>
				<dutyTime1c>2000</dutyTime1c>
				<dutyTime1s>900</dutyTime1s>
				<wgs84Lat>37.4994454766387</wgs84Lat>
				<wgs84Lon>126.931232975869</wgs84Lon>
			</item>
			<item>
				<dutyName>동작에스엔재활의학과의원</dutyName>
				<dutyTel1>02-817-8805</dutyTel1>
				<dutyTime1c>1830</dutyTime1c>
				<dutyTime1s>900</dutyTime1s>
				<wgs84Lat>37.4988214639989</wgs84Lat>
				<wgs84Lon>126.930351463094</wgs84Lon>
			</item>
			<item>
				<dutyName>동작한의원</dutyName>
				<dutyTel1>02-817-8875</dutyTel1>
				<dutyTime1c>1800</dutyTime1c>
				<dutyTime1s>900</dutyTime1s>
				<wgs84Lat>37.4990978465</wgs84Lat>
				<wgs84Lon>126.9284648946</wgs84Lon>
			</item>
			<item>
				<dutyName>동행치과의원</dutyName>
				<dutyTel1>02-6332-2275</dutyTel1>
				<dutyTime1c>2030</dutyTime1c>
				<dutyTime1s>930</dutyTime1s>
				<wgs84Lat>37.4996036593</wgs84Lat>
				<wgs84Lon>126.9305588204</wgs84Lon>
			</item>
			<item>
				<dutyName>드림아이안과의원</dutyName>
				<dutyTel1>02-521-5090</dutyTel1>
				<dutyTime1c>1830</dutyTime1c>
				<dutyTime1s>930</dutyTime1s>
				<wgs84Lat>37.4832060594582</wgs84Lat>
				<wgs84Lon>126.973848207927</wgs84Lon>
			</item>
			<item>
				<dutyName>드림이비인후과의원</dutyName>
				<dutyTel1>02-815-9575</dutyTel1>
				<dutyTime1c>1900</dutyTime1c>
				<dutyTime1s>900</dutyTime1s>
				<wgs84Lat>37.5133351037</wgs84Lat>
				<wgs84Lon>126.9444224008</wgs84Lon>
			</item>
			<item>
				<dutyName>따뜻한치과병원</dutyName>
				<dutyTel1>02-523-2835</dutyTel1>
				<dutyTime1c>1830</dutyTime1c>
				<dutyTime1s>930</dutyTime1s>
				<wgs84Lat>37.4777821501912</wgs84Lat>
				<wgs84Lon>126.981246248883</wgs84Lon>
			</item>
			<item>
				<dutyName>라마르의원</dutyName>
				<dutyTel1>02-537-8575</dutyTel1>
				<dutyTime1c>1830</dutyTime1c>
				<dutyTime1s>1000</dutyTime1s>
				<wgs84Lat>37.486309363</wgs84Lat>
				<wgs84Lon>126.9816602114</wgs84Lon>
			</item>
			<item>
				<dutyName>라움치과의원</dutyName>
				<dutyTel1>02-817-2875</dutyTel1>
				<dutyTime1c>1830</dutyTime1c>
				<dutyTime1s>930</dutyTime1s>
				<wgs84Lat>37.4997625831607</wgs84Lat>
				<wgs84Lon>126.931151260811</wgs84Lon>
			</item>
			<item>
				<dutyName>라인업의원</dutyName>
				<dutyTel1>02-3477-7412</dutyTel1>
				<dutyTime1c>1900</dutyTime1c>
				<dutyTime1s>1000</dutyTime1s>
				<wgs84Lat>37.4872500489676</wgs84Lat>
				<wgs84Lon>126.98187707657</wgs84Lon>
			</item>
			<item>
				<dutyName>루이스산부인과의원</dutyName>
				<dutyTel1>02-521-3323</dutyTel1>
				<dutyTime1c>2000</dutyTime1c>
				<dutyTime1s>1000</dutyTime1s>
				<wgs84Lat>37.4784813521</wgs84Lat>
				<wgs84Lon>126.9813636536</wgs84Lon>
			</item>
			<item>
				<dutyName>루카이비인후과의원</dutyName>
				<dutyTel1>02-587-5075</dutyTel1>
				<dutyTime1c>1900</dutyTime1c>
				<dutyTime1s>900</dutyTime1s>
				<wgs84Lat>37.476884063425</wgs84Lat>
				<wgs84Lon>126.977357388966</wgs84Lon>
			</item>
			<item>
				<dutyName>마음누리정신건강의학과의원</dutyName>
				<dutyTel1>02-525-3337</dutyTel1>
				<dutyTime1c>1800</dutyTime1c>
				<dutyTime1s>1000</dutyTime1s>
				<wgs84Lat>37.4771361111111</wgs84Lat>
				<wgs84Lon>126.981</wgs84Lon>
			</item>
			<item>
				<dutyName>마이엠코치과의원</dutyName>
				<dutyTel1>02-2637-2882</dutyTel1>
				<dutyTime1c>1830</dutyTime1c>
				<dutyTime1s>1000</dutyTime1s>
				<wgs84Lat>37.496987729336</wgs84Lat>
				<wgs84Lon>126.95175552586</wgs84Lon>
			</item>
			<item>
				<dutyName>마일드치과의원</dutyName>
				<dutyTel1>02-594-2804</dutyTel1>
				<dutyTime1c>1800</dutyTime1c>
				<dutyTime1s>1000</dutyTime1s>
				<wgs84Lat>37.5074801930419</wgs84Lat>
				<wgs84Lon>126.965017452683</wgs84Lon>
			</item>
			<item>
				<dutyName>맑은숲한의원</dutyName>
				<dutyTel1>02-523-2020</dutyTel1>
				<dutyTime1c>2100</dutyTime1c>
				<dutyTime1s>1000</dutyTime1s>
				<wgs84Lat>37.4784957592422</wgs84Lat>
				<wgs84Lon>126.981354625932</wgs84Lon>
			</item>
			<item>
				<dutyName>메이퓨어의원</dutyName>
				<dutyTel1>02-597-9996</dutyTel1>
				<dutyTime1c>2030</dutyTime1c>
				<dutyTime1s>1030</dutyTime1s>
				<wgs84Lat>37.4787263668</wgs84Lat>
				<wgs84Lon>126.9809882417</wgs84Lon>
			</item>
			<item>
				<dutyName>명동안과의원</dutyName>
				<dutyTel1>02-537-3990</dutyTel1>
				<dutyTime1c>1830</dutyTime1c>
				<dutyTime1s>930</dutyTime1s>
				<wgs84Lat>37.4853988146513</wgs84Lat>
				<wgs84Lon>126.9813595508</wgs84Lon>
			</item>
			<item>
				<dutyName>명보한의원</dutyName>
				<dutyTel1>02-813-4642</dutyTel1>
				<dutyTime1c>1800</dutyTime1c>
				<dutyTime1s>930</dutyTime1s>
				<wgs84Lat>37.5099958064948</wgs84Lat>
				<wgs84Lon>126.940380273757</wgs84Lon>
			</item>
			<item>
				<dutyName>명수대한의원</dutyName>
				<dutyTel1>02-824-9555</dutyTel1>
				<dutyTime1c>1830</dutyTime1c>
				<dutyTime1s>930</dutyTime1s>
				<wgs84Lat>37.5073922010706</wgs84Lat>
				<wgs84Lon>126.963183457911</wgs84Lon>
			</item>
			<item>
				<dutyName>명의원</dutyName>
				<dutyTel1>02-537-0990</dutyTel1>
				<dutyTime1c>1900</dutyTime1c>
				<dutyTime1s>930</dutyTime1s>
				<wgs84Lat>37.4882444444444</wgs84Lat>
				<wgs84Lon>126.981830555556</wgs84Lon>
			</item>
			<item>
				<dutyName>명인치과의원</dutyName>
				<dutyTel1>02-841-6661</dutyTel1>
				<dutyTime1c>1830</dutyTime1c>
				<dutyTime1s>930</dutyTime1s>
				<wgs84Lat>37.4912501501254</wgs84Lat>
				<wgs84Lon>126.92479760982</wgs84Lon>
			</item>
			<item>
				<dutyName>명한의원</dutyName>
				<dutyTel1>02-815-8632</dutyTel1>
				<dutyTime1c>1800</dutyTime1c>
				<dutyTime1s>930</dutyTime1s>
				<wgs84Lat>37.4952480007291</wgs84Lat>
				<wgs84Lon>126.954194718005</wgs84Lon>
			</item>
			<item>
				<dutyName>모덕진치과의원</dutyName>
				<dutyTel1>02-523-1467</dutyTel1>
				<dutyTime1c>1800</dutyTime1c>
				<dutyTime1s>1000</dutyTime1s>
				<wgs84Lat>37.4799676031324</wgs84Lat>
				<wgs84Lon>126.981510246918</wgs84Lon>
			</item>
			<item>
				<dutyName>모정한의원</dutyName>
				<dutyTel1>02-847-7572</dutyTel1>
				<dutyTime1c>1900</dutyTime1c>
				<dutyTime1s>930</dutyTime1s>
				<wgs84Lat>37.4922236164432</wgs84Lat>
				<wgs84Lon>126.910141841038</wgs84Lon>
			</item>
			<item>
				<dutyName>문곡16형대추나무한의원</dutyName>
				<dutyTel1>02-586-1144</dutyTel1>
				<dutyTime1c>1900</dutyTime1c>
				<dutyTime1s>930</dutyTime1s>
				<wgs84Lat>37.4769165274</wgs84Lat>
				<wgs84Lon>126.9775020893</wgs84Lon>
			</item>
			<item>
				<dutyName>문성한의원</dutyName>
				<dutyTel1>02-814-1585</dutyTel1>
				<dutyTime1c>2100</dutyTime1c>
				<dutyTime1s>1000</dutyTime1s>
				<wgs84Lat>37.5076254634352</wgs84Lat>
				<wgs84Lon>126.960106992965</wgs84Lon>
			</item>
			<item>
				<dutyName>미담치과의원</dutyName>
				<dutyTel1>02-817-2972</dutyTel1>
				<dutyTime1c>1830</dutyTime1c>
				<dutyTime1s>930</dutyTime1s>
				<wgs84Lat>37.5049680410002</wgs84Lat>
				<wgs84Lon>126.940067600285</wgs84Lon>
			</item>
			<item>
				<dutyName>미래열린치과의원</dutyName>
				<dutyTel1>02-824-2875</dutyTel1>
				<dutyTime1c>1800</dutyTime1c>
				<dutyTime1s>1000</dutyTime1s>
				<wgs84Lat>37.5072694444444</wgs84Lat>
				<wgs84Lon>126.962108333333</wgs84Lon>
			</item>
			<item>
				<dutyName>미르샘한의원</dutyName>
				<dutyTel1>02-825-1638</dutyTel1>
				<dutyTime1c>1900</dutyTime1c>
				<dutyTime1s>930</dutyTime1s>
				<wgs84Lat>37.5025292961033</wgs84Lat>
				<wgs84Lon>126.948585258187</wgs84Lon>
			</item>
			<item>
				<dutyName>미서울연세치과의원</dutyName>
				<dutyTel1>02-599-7528</dutyTel1>
				<dutyTime1c>1900</dutyTime1c>
				<dutyTime1s>1000</dutyTime1s>
				<wgs84Lat>37.4879419635</wgs84Lat>
				<wgs84Lon>126.9814924665</wgs84Lon>
			</item>
			<item>
				<dutyName>미소담치과의원</dutyName>
				<dutyTel1>02-817-2275</dutyTel1>
				<dutyTime1c>1830</dutyTime1c>
				<dutyTime1s>930</dutyTime1s>
				<wgs84Lat>37.5129310599932</wgs84Lat>
				<wgs84Lon>126.936491489349</wgs84Lon>
			</item>
			<item>
				<dutyName>미소를주는치과의원</dutyName>
				<dutyTel1>02-812-0353</dutyTel1>
				<dutyTime1c>1830</dutyTime1c>
				<dutyTime1s>1000</dutyTime1s>
				<wgs84Lat>37.5121861111111</wgs84Lat>
				<wgs84Lon>126.952052777778</wgs84Lon>
			</item>
			<item>
				<dutyName>미소본한의원</dutyName>
				<dutyTel1>02-833-6033</dutyTel1>
				<dutyTime1c>1830</dutyTime1c>
				<dutyTime1s>930</dutyTime1s>
				<wgs84Lat>37.4912743812</wgs84Lat>
				<wgs84Lon>126.9240940365</wgs84Lon>
			</item>
			<item>
				<dutyName>미소앤유의원</dutyName>
				<dutyTel1>02-523-3575</dutyTel1>
				<dutyTime1c>1900</dutyTime1c>
				<dutyTime1s>900</dutyTime1s>
				<wgs84Lat>37.48330199562</wgs84Lat>
				<wgs84Lon>126.973289675328</wgs84Lon>
			</item>
			<item>
				<dutyName>미소치과의원</dutyName>
				<dutyTel1>02-532-4396</dutyTel1>
				<dutyTime1c>2000</dutyTime1c>
				<dutyTime1s>1000</dutyTime1s>
				<wgs84Lat>37.4849073814617</wgs84Lat>
				<wgs84Lon>126.981579145933</wgs84Lon>
			</item>
			<item>
				<dutyName>미앤미이희정치과의원</dutyName>
				<dutyTel1>02-823-2816</dutyTel1>
				<dutyTime1c>1830</dutyTime1c>
				<dutyTime1s>1000</dutyTime1s>
				<wgs84Lat>37.4996873336418</wgs84Lat>
				<wgs84Lon>126.930940978018</wgs84Lon>
			</item>
			<item>
				<dutyName>미앤서울치과의원</dutyName>
				<dutyTel1>02-815-2275</dutyTel1>
				<dutyTime1c>1900</dutyTime1c>
				<dutyTime1s>1000</dutyTime1s>
				<wgs84Lat>37.4971169314671</wgs84Lat>
				<wgs84Lon>126.952504186498</wgs84Lon>
			</item>
			<item>
				<dutyName>미즈여성의원</dutyName>
				<dutyTel1>02-815-6800</dutyTel1>
				<dutyTime1c>1900</dutyTime1c>
				<dutyTime1s>930</dutyTime1s>
				<wgs84Lat>37.4994759209716</wgs84Lat>
				<wgs84Lon>126.927903633929</wgs84Lon>
			</item>
			<item>
				<dutyName>미즈필치과의원</dutyName>
				<dutyTel1>02-848-3633</dutyTel1>
				<dutyTime1c>1730</dutyTime1c>
				<dutyTime1s>930</dutyTime1s>
				<wgs84Lat>37.4907444444444</wgs84Lat>
				<wgs84Lon>126.923866666667</wgs84Lon>
			</item>
			<item>
				<dutyName>미체담한의원</dutyName>
				<dutyTel1>02-585-7582</dutyTel1>
				<dutyTime1c>1900</dutyTime1c>
				<dutyTime1s>930</dutyTime1s>
				<wgs84Lat>37.4771694428293</wgs84Lat>
				<wgs84Lon>126.981115257952</wgs84Lon>
			</item>
			<item>
				<dutyName>민내과의원</dutyName>
				<dutyTel1>02-835-6400</dutyTel1>
				<dutyTime1c>1900</dutyTime1c>
				<dutyTime1s>900</dutyTime1s>
				<wgs84Lat>37.4912358104374</wgs84Lat>
				<wgs84Lon>126.924915222974</wgs84Lon>
			</item>
			<item>
				<dutyName>민생한의원</dutyName>
				<dutyTel1>02-823-5656</dutyTel1>
				<dutyTime1c>1900</dutyTime1c>
				<dutyTime1s>900</dutyTime1s>
				<wgs84Lat>37.5032196507227</wgs84Lat>
				<wgs84Lon>126.953235177854</wgs84Lon>
			</item>
			<item>
				<dutyName>밀려오네서울재활의학과의원</dutyName>
				<dutyTel1>02-599-3992</dutyTel1>
				<dutyTime1c>1830</dutyTime1c>
				<dutyTime1s>900</dutyTime1s>
				<wgs84Lat>37.4842183652839</wgs84Lat>
				<wgs84Lon>126.97782100698</wgs84Lon>
			</item>
			<item>
				<dutyName>바로나마취통증의학과의원</dutyName>
				<dutyTel1>02-826-9444</dutyTel1>
				<dutyTime1c>1900</dutyTime1c>
				<dutyTime1s>900</dutyTime1s>
				<wgs84Lat>37.4976001183</wgs84Lat>
				<wgs84Lon>126.9531235917</wgs84Lon>
			</item>
			<item>
				<dutyName>바른재활의학과의원</dutyName>
				<dutyTel1>02-817-2220</dutyTel1>
				<dutyTime1c>1830</dutyTime1c>
				<dutyTime1s>900</dutyTime1s>
				<wgs84Lat>37.508269239</wgs84Lat>
				<wgs84Lon>126.9398885014</wgs84Lon>
			</item>
			<item>
				<dutyName>박달나무한의원</dutyName>
				<dutyTel1>02-567-1075</dutyTel1>
				<dutyTime1c>1830</dutyTime1c>
				<dutyTime1s>900</dutyTime1s>
				<wgs84Lat>37.5049723773</wgs84Lat>
				<wgs84Lon>126.9415152193</wgs84Lon>
			</item>
			<item>
				<dutyName>박석치과의원</dutyName>
				<dutyTel1>02-823-6084</dutyTel1>
				<dutyTime1c>1800</dutyTime1c>
				<dutyTime1s>930</dutyTime1s>
				<wgs84Lat>37.4992765135547</wgs84Lat>
				<wgs84Lon>126.931000170193</wgs84Lon>
			</item>
			<item>
				<dutyName>박성현피부과의원</dutyName>
				<dutyTel1>02-534-9991</dutyTel1>
				<dutyTime1c>1800</dutyTime1c>
				<dutyTime1s>1000</dutyTime1s>
				<wgs84Lat>37.4846154681034</wgs84Lat>
				<wgs84Lon>126.981665148088</wgs84Lon>
			</item>
			<item>
				<dutyName>박신영정신건강의학과의원</dutyName>
				<dutyTel1>02-833-3777</dutyTel1>
				<dutyTime1c>1800</dutyTime1c>
				<dutyTime1s>900</dutyTime1s>
				<wgs84Lat>37.4906938397</wgs84Lat>
				<wgs84Lon>126.9084268747</wgs84Lon>
			</item>
			<item>
				<dutyName>박안과의원</dutyName>
				<dutyTel1>02-583-5155</dutyTel1>
				<dutyTime1c>1830</dutyTime1c>
				<dutyTime1s>930</dutyTime1s>
				<wgs84Lat>37.4846154681</wgs84Lat>
				<wgs84Lon>126.9816651481</wgs84Lon>
			</item>
			<item>
				<dutyName>박언규정신건강의학과의원</dutyName>
				<dutyTel1>02-532-1283</dutyTel1>
				<dutyTime1c>1830</dutyTime1c>
				<dutyTime1s>930</dutyTime1s>
				<wgs84Lat>37.4846672560902</wgs84Lat>
				<wgs84Lon>126.981680853623</wgs84Lon>
			</item>
			<item>
				<dutyName>박이비인후과의원</dutyName>
				<dutyTel1>02-822-2666</dutyTel1>
				<dutyTime1c>1830</dutyTime1c>
				<dutyTime1s>930</dutyTime1s>
				<wgs84Lat>37.5002103855163</wgs84Lat>
				<wgs84Lon>126.931736632361</wgs84Lon>
			</item>
			<item>
				<dutyName>박이비인후과의원</dutyName>
				<dutyTel1>02-815-8232</dutyTel1>
				<dutyTime1c>1900</dutyTime1c>
				<dutyTime1s>900</dutyTime1s>
				<wgs84Lat>37.5134638888889</wgs84Lat>
				<wgs84Lon>126.942725</wgs84Lon>
			</item>
			<item>
				<dutyName>박태군내과의원</dutyName>
				<dutyTel1>02-3473-3009</dutyTel1>
				<dutyTime1c>1830</dutyTime1c>
				<dutyTime1s>900</dutyTime1s>
				<wgs84Lat>37.4849566176904</wgs84Lat>
				<wgs84Lon>126.969908341915</wgs84Lon>
			</item>
			<item>
				<dutyName>반마취통증의학과의원</dutyName>
				<dutyTel1>02-817-5566</dutyTel1>
				<dutyTime1c>1900</dutyTime1c>
				<dutyTime1s>900</dutyTime1s>
				<wgs84Lat>37.4999732884037</wgs84Lat>
				<wgs84Lon>126.92791218239</wgs84Lon>
			</item>
			<item>
				<dutyName>밝은미소치과의원</dutyName>
				<dutyTel1>02-825-2080</dutyTel1>
				<dutyTime1c>1830</dutyTime1c>
				<dutyTime1s>930</dutyTime1s>
				<wgs84Lat>37.5001166275719</wgs84Lat>
				<wgs84Lon>126.932625626428</wgs84Lon>
			</item>
			<item>
				<dutyName>밝은봄소아청소년과의원</dutyName>
				<dutyTel1>02-814-9119</dutyTel1>
				<dutyTime1c>1820</dutyTime1c>
				<dutyTime1s>900</dutyTime1s>
				<wgs84Lat>37.504787239553</wgs84Lat>
				<wgs84Lon>126.965635525069</wgs84Lon>
			</item>
			<item>
				<dutyName>밝은얼굴의원</dutyName>
				<dutyTel1>02-598-8959</dutyTel1>
				<dutyTime1c>1900</dutyTime1c>
				<dutyTime1s>930</dutyTime1s>
				<wgs84Lat>37.4837018808</wgs84Lat>
				<wgs84Lon>126.9725478058</wgs84Lon>
			</item>
			<item>
				<dutyName>배선우내과의원</dutyName>
				<dutyTel1>02-848-1188</dutyTel1>
				<dutyTime1c>1800</dutyTime1c>
				<dutyTime1s>900</dutyTime1s>
				<wgs84Lat>37.4890194444444</wgs84Lat>
				<wgs84Lon>126.906891666667</wgs84Lon>
			</item>
			<item>
				<dutyName>배소아청소년과의원</dutyName>
				<dutyTel1>02-823-2890</dutyTel1>
				<dutyTime1c>1830</dutyTime1c>
				<dutyTime1s>900</dutyTime1s>
				<wgs84Lat>37.5002681960889</wgs84Lat>
				<wgs84Lon>126.931985374572</wgs84Lon>
			</item>
			<item>
				<dutyName>백송치과의원</dutyName>
				<dutyTel1>02-814-2275</dutyTel1>
				<dutyTime1c>1830</dutyTime1c>
				<dutyTime1s>930</dutyTime1s>
				<wgs84Lat>37.5066143294232</wgs84Lat>
				<wgs84Lon>126.962194931132</wgs84Lon>
			</item>
			<item>
				<dutyName>백신의원</dutyName>
				<dutyTel1>02-581-0164</dutyTel1>
				<dutyTime1c>1830</dutyTime1c>
				<dutyTime1s>900</dutyTime1s>
				<wgs84Lat>37.4771780333516</wgs84Lat>
				<wgs84Lon>126.981117561508</wgs84Lon>
			</item>
			<item>
				<dutyName>백이비인후과의원</dutyName>
				<dutyTel1>02-582-3728</dutyTel1>
				<dutyTime1c>1830</dutyTime1c>
				<dutyTime1s>930</dutyTime1s>
				<wgs84Lat>37.4833055968501</wgs84Lat>
				<wgs84Lon>126.973244427793</wgs84Lon>
			</item>
			<item>
				<dutyName>변재영정신건강의학과의원</dutyName>
				<dutyTel1>02-815-0353</dutyTel1>
				<dutyTime1c>1830</dutyTime1c>
				<dutyTime1s>900</dutyTime1s>
				<wgs84Lat>37.5068419279299</wgs84Lat>
				<wgs84Lon>126.939654397997</wgs84Lon>
			</item>
			<item>
				<dutyName>보라매한의원</dutyName>
				<dutyTel1>02-831-2890</dutyTel1>
				<dutyTime1c>1830</dutyTime1c>
				<dutyTime1s>930</dutyTime1s>
				<wgs84Lat>37.4967113675004</wgs84Lat>
				<wgs84Lon>126.915989586881</wgs84Lon>
			</item>
			<item>
				<dutyName>보라치과의원</dutyName>
				<dutyTel1>02-586-0863</dutyTel1>
				<dutyTime1c>1800</dutyTime1c>
				<dutyTime1s>1000</dutyTime1s>
				<wgs84Lat>37.4791120450457</wgs84Lat>
				<wgs84Lon>126.981277572815</wgs84Lon>
			</item>
			<item>
				<dutyName>보람메트로피부과의원</dutyName>
				<dutyTel1>02-6291-7575</dutyTel1>
				<dutyTime1c>1830</dutyTime1c>
				<dutyTime1s>940</dutyTime1s>
				<wgs84Lat>37.4912972222222</wgs84Lat>
				<wgs84Lon>126.924002777778</wgs84Lon>
			</item>
			<item>
				<dutyName>보람의원</dutyName>
				<dutyTel1>02-821-0098</dutyTel1>
				<dutyTime1c>1800</dutyTime1c>
				<dutyTime1s>900</dutyTime1s>
				<wgs84Lat>37.4949745710361</wgs84Lat>
				<wgs84Lon>126.927127794488</wgs84Lon>
			</item>
			<item>
				<dutyName>보스톤청플란트치과의원</dutyName>
				<dutyTel1>02-588-6770</dutyTel1>
				<dutyTime1c>1900</dutyTime1c>
				<dutyTime1s>1000</dutyTime1s>
				<wgs84Lat>37.4837410169297</wgs84Lat>
				<wgs84Lon>126.981622305091</wgs84Lon>
			</item>
			<item>
				<dutyName>보스톤치과의원</dutyName>
				<dutyTel1>02-826-2275</dutyTel1>
				<dutyTime1c>1830</dutyTime1c>
				<dutyTime1s>930</dutyTime1s>
				<wgs84Lat>37.5066935492754</wgs84Lat>
				<wgs84Lon>126.961991311742</wgs84Lon>
			</item>
			<item>
				<dutyName>복음한의원</dutyName>
				<dutyTel1>02-582-5657</dutyTel1>
				<dutyTime1c>1800</dutyTime1c>
				<dutyTime1s>930</dutyTime1s>
				<wgs84Lat>37.4770793081047</wgs84Lat>
				<wgs84Lon>126.980952501789</wgs84Lon>
			</item>
			<item>
				<dutyName>본디올경희한의원</dutyName>
				<dutyTel1>02-824-8622</dutyTel1>
				<dutyTime1c>1830</dutyTime1c>
				<dutyTime1s>930</dutyTime1s>
				<wgs84Lat>37.5020069377304</wgs84Lat>
				<wgs84Lon>126.934788436898</wgs84Lon>
			</item>
			<item>
				<dutyName>본디올서봉한의원</dutyName>
				<dutyTel1>02-824-1275</dutyTel1>
				<dutyTime1c>1830</dutyTime1c>
				<dutyTime1s>930</dutyTime1s>
				<wgs84Lat>37.5043656185368</wgs84Lat>
				<wgs84Lon>126.938991406123</wgs84Lon>
			</item>
			<item>
				<dutyName>본치과의원</dutyName>
				<dutyTel1>02-814-2804</dutyTel1>
				<dutyTime1c>1830</dutyTime1c>
				<dutyTime1s>930</dutyTime1s>
				<wgs84Lat>37.5070990916541</wgs84Lat>
				<wgs84Lon>126.948437264736</wgs84Lon>
			</item>
			<item>
				<dutyName>봄정신건강의학과의원</dutyName>
				<dutyTel1>02-812-2226</dutyTel1>
				<dutyTime1c>1800</dutyTime1c>
				<dutyTime1s>900</dutyTime1s>
				<wgs84Lat>37.4999591557</wgs84Lat>
				<wgs84Lon>126.9283781249</wgs84Lon>
			</item>
			<item>
				<dutyName>부부치과의원</dutyName>
				<dutyTel1>02-832-1304</dutyTel1>
				<dutyTime1c>1700</dutyTime1c>
				<dutyTime1s>900</dutyTime1s>
				<wgs84Lat>37.4879137098677</wgs84Lat>
				<wgs84Lon>126.906185101958</wgs84Lon>
			</item>
			<item>
				<dutyName>비체의원</dutyName>
				<dutyTel1>02-815-3800</dutyTel1>
				<dutyTime1c>1900</dutyTime1c>
				<dutyTime1s>900</dutyTime1s>
				<wgs84Lat>37.4997416058078</wgs84Lat>
				<wgs84Lon>126.920688266645</wgs84Lon>
			</item>
			<item>
				<dutyName>사당연세의원</dutyName>
				<dutyTel1>02-592-2225</dutyTel1>
				<dutyTime1c>1800</dutyTime1c>
				<dutyTime1s>900</dutyTime1s>
				<wgs84Lat>37.4884544098806</wgs84Lat>
				<wgs84Lon>126.978106799158</wgs84Lon>
			</item>
			<item>
				<dutyName>사당현대의원</dutyName>
				<dutyTel1>02-599-3851</dutyTel1>
				<dutyTime1c>1830</dutyTime1c>
				<dutyTime1s>900</dutyTime1s>
				<wgs84Lat>37.4895231406474</wgs84Lat>
				<wgs84Lon>126.970860753376</wgs84Lon>
			</item>
			<item>
				<dutyName>사람과한의원</dutyName>
				<dutyTel1>02-814-8875</dutyTel1>
				<dutyTime1c>1900</dutyTime1c>
				<dutyTime1s>930</dutyTime1s>
				<wgs84Lat>37.4999526575871</wgs84Lat>
				<wgs84Lon>126.929558785738</wgs84Lon>
			</item>
			<item>
				<dutyName>사랑을나누는의원</dutyName>
				<dutyTel1>02-6275-1004</dutyTel1>
				<dutyTime1c>1900</dutyTime1c>
				<dutyTime1s>900</dutyTime1s>
				<wgs84Lat>37.5070827563687</wgs84Lat>
				<wgs84Lon>126.944324982833</wgs84Lon>
			</item>
			<item>
				<dutyName>사상64한의원</dutyName>
				<dutyTel1>02-525-6464</dutyTel1>
				<dutyTime1c>1900</dutyTime1c>
				<dutyTime1s>1000</dutyTime1s>
				<wgs84Lat>37.5189248833459</wgs84Lat>
				<wgs84Lon>126.888503905549</wgs84Lon>
			</item>
			<item>
				<dutyName>산수한의원</dutyName>
				<dutyTel1>02-591-1075</dutyTel1>
				<dutyTime1c>1830</dutyTime1c>
				<dutyTime1s>930</dutyTime1s>
				<wgs84Lat>37.5065688406539</wgs84Lat>
				<wgs84Lon>126.966528893844</wgs84Lon>
			</item>
			<item>
				<dutyName>삼성가정의학과의원</dutyName>
				<dutyTel1>02-824-8868</dutyTel1>
				<dutyTime1c>1830</dutyTime1c>
				<dutyTime1s>900</dutyTime1s>
				<wgs84Lat>37.4976670710225</wgs84Lat>
				<wgs84Lon>126.934740295752</wgs84Lon>
			</item>
			<item>
				<dutyName>삼성드림내과의원</dutyName>
				<dutyTel1>02-822-9658</dutyTel1>
				<dutyTime1c>1900</dutyTime1c>
				<dutyTime1s>900</dutyTime1s>
				<wgs84Lat>37.5053856088328</wgs84Lat>
				<wgs84Lon>126.946522864404</wgs84Lon>
			</item>
			<item>
				<dutyName>삼성열린내과의원</dutyName>
				<dutyTel1>02-825-8119</dutyTel1>
				<dutyTime1c>1900</dutyTime1c>
				<dutyTime1s>900</dutyTime1s>
				<wgs84Lat>37.4999093889527</wgs84Lat>
				<wgs84Lon>126.929536228999</wgs84Lon>
			</item>
			<item>
				<dutyName>삼성의원</dutyName>
				<dutyTel1>02-816-3352</dutyTel1>
				<dutyTime1c>1900</dutyTime1c>
				<dutyTime1s>930</dutyTime1s>
				<wgs84Lat>37.4967602616619</wgs84Lat>
				<wgs84Lon>126.952825573007</wgs84Lon>
			</item>
			<item>
				<dutyName>삼성필의원</dutyName>
				<dutyTel1>02-821-1001</dutyTel1>
				<dutyTime1c>1900</dutyTime1c>
				<dutyTime1s>930</dutyTime1s>
				<wgs84Lat>37.5078169527463</wgs84Lat>
				<wgs84Lon>126.961522900136</wgs84Lon>
			</item>
			<item>
				<dutyName>삼송도추한의원</dutyName>
				<dutyTel1>02-816-1313</dutyTel1>
				<dutyTime1c>1900</dutyTime1c>
				<dutyTime1s>1000</dutyTime1s>
				<wgs84Lat>37.5078946047552</wgs84Lat>
				<wgs84Lon>126.940250726607</wgs84Lon>
			</item>
			<item>
				<dutyName>삼우의원</dutyName>
				<dutyTel1>02-815-8278</dutyTel1>
				<dutyTime1c>1800</dutyTime1c>
				<dutyTime1s>930</dutyTime1s>
				<wgs84Lat>37.5044666666667</wgs84Lat>
				<wgs84Lon>126.93595</wgs84Lon>
			</item>
			<item>
				<dutyName>삼육오보람의원</dutyName>
				<dutyTel1>02-821-2119</dutyTel1>
				<dutyTime1c>1830</dutyTime1c>
				<dutyTime1s>930</dutyTime1s>
				<wgs84Lat>37.4975107952</wgs84Lat>
				<wgs84Lon>126.9208082353</wgs84Lon>
			</item>
			<item>
				<dutyName>상도미치과의원</dutyName>
				<dutyTel1>02-822-1322</dutyTel1>
				<dutyTime1c>1900</dutyTime1c>
				<dutyTime1s>1000</dutyTime1s>
				<wgs84Lat>37.5059336069276</wgs84Lat>
				<wgs84Lon>126.946952268557</wgs84Lon>
			</item>
			<item>
				<dutyName>상도밝은안과의원</dutyName>
				<dutyTel1>02-812-2375</dutyTel1>
				<dutyTime1c>1900</dutyTime1c>
				<dutyTime1s>930</dutyTime1s>
				<wgs84Lat>37.5009974155842</wgs84Lat>
				<wgs84Lon>126.949959440373</wgs84Lon>
			</item>
			<item>
				<dutyName>상도사랑가정의학과의원</dutyName>
				<dutyTel1>02-822-9911</dutyTel1>
				<dutyTime1c>1830</dutyTime1c>
				<dutyTime1s>900</dutyTime1s>
				<wgs84Lat>37.5034981358821</wgs84Lat>
				<wgs84Lon>126.948858489108</wgs84Lon>
			</item>
			<item>
				<dutyName>상도성모의원</dutyName>
				<dutyTel1>02-822-7175</dutyTel1>
				<dutyTime1c>1800</dutyTime1c>
				<dutyTime1s>930</dutyTime1s>
				<wgs84Lat>37.4994213801015</wgs84Lat>
				<wgs84Lon>126.933205265384</wgs84Lon>
			</item>
			<item>
				<dutyName>상도연세치과의원</dutyName>
				<dutyTel1>02-825-6642</dutyTel1>
				<dutyTime1c>1830</dutyTime1c>
				<dutyTime1s>930</dutyTime1s>
				<wgs84Lat>37.5037393373208</wgs84Lat>
				<wgs84Lon>126.948243086426</wgs84Lon>
			</item>
			<item>
				<dutyName>상도열린치과의원</dutyName>
				<dutyTel1>02-6674-2828</dutyTel1>
				<dutyTime1c>1830</dutyTime1c>
				<dutyTime1s>930</dutyTime1s>
				<wgs84Lat>37.5051007376</wgs84Lat>
				<wgs84Lon>126.9387826884</wgs84Lon>
			</item>
			<item>
				<dutyName>상도한의원</dutyName>
				<dutyTel1>02-815-3639</dutyTel1>
				<dutyTime1c>1900</dutyTime1c>
				<dutyTime1s>930</dutyTime1s>
				<wgs84Lat>37.504049511023</wgs84Lat>
				<wgs84Lon>126.94878122844</wgs84Lon>
			</item>
			<item>
				<dutyName>상도행복한아이치과의원</dutyName>
				<dutyTel1>02-823-2882</dutyTel1>
				<dutyTime1c>1830</dutyTime1c>
				<dutyTime1s>1000</dutyTime1s>
				<wgs84Lat>37.5049594357</wgs84Lat>
				<wgs84Lon>126.9445733746</wgs84Lon>
			</item>
			<item>
				<dutyName>새사당의원</dutyName>
				<dutyTel1>02-599-5212</dutyTel1>
				<dutyTime1c>1900</dutyTime1c>
				<dutyTime1s>800</dutyTime1s>
				<wgs84Lat>37.4852653750383</wgs84Lat>
				<wgs84Lon>126.980830435437</wgs84Lon>
			</item>
			<item>
				<dutyName>새연세부부치과의원</dutyName>
				<dutyTel1>02-522-1865</dutyTel1>
				<dutyTime1c>1830</dutyTime1c>
				<dutyTime1s>1000</dutyTime1s>
				<wgs84Lat>37.483701880838</wgs84Lat>
				<wgs84Lon>126.972547805784</wgs84Lon>
			</item>
			<item>
				<dutyName>새연세재활의학과의원</dutyName>
				<dutyTel1>02-816-0880</dutyTel1>
				<dutyTime1c>1830</dutyTime1c>
				<dutyTime1s>900</dutyTime1s>
				<wgs84Lat>37.5079127289058</wgs84Lat>
				<wgs84Lon>126.962359802452</wgs84Lon>
			</item>
			<item>
				<dutyName>새하늘내과의원</dutyName>
				<dutyTel1>02-598-5551</dutyTel1>
				<dutyTime1c>1900</dutyTime1c>
				<dutyTime1s>900</dutyTime1s>
				<wgs84Lat>37.4845625743105</wgs84Lat>
				<wgs84Lon>126.980717563755</wgs84Lon>
			</item>
			<item>
				<dutyName>서내과의원</dutyName>
				<dutyTel1>02-815-0168</dutyTel1>
				<dutyTime1c>1800</dutyTime1c>
				<dutyTime1s>900</dutyTime1s>
				<wgs84Lat>37.5081160538457</wgs84Lat>
				<wgs84Lon>126.961423216981</wgs84Lon>
			</item>
			<item>
				<dutyName>서동한의원</dutyName>
				<dutyTel1>02-813-3636</dutyTel1>
				<dutyTime1c>1900</dutyTime1c>
				<dutyTime1s>900</dutyTime1s>
				<wgs84Lat>37.5121999441862</wgs84Lat>
				<wgs84Lon>126.95297875326</wgs84Lon>
			</item>
			<item>
				<dutyName>서문내과의원</dutyName>
				<dutyTel1>02-599-8418</dutyTel1>
				<dutyTime1c>1830</dutyTime1c>
				<dutyTime1s>900</dutyTime1s>
				<wgs84Lat>37.4884472099341</wgs84Lat>
				<wgs84Lon>126.97814750707</wgs84Lon>
			</item>
			<item>
				<dutyName>서울M치과의원</dutyName>
				<dutyTel1>02-594-5757</dutyTel1>
				<dutyTime1c>1830</dutyTime1c>
				<dutyTime1s>1000</dutyTime1s>
				<wgs84Lat>37.4874675980448</wgs84Lat>
				<wgs84Lon>126.981865547779</wgs84Lon>
			</item>
			<item>
				<dutyName>서울가정의원</dutyName>
				<dutyTel1>02-825-6331</dutyTel1>
				<dutyTime1c>2000</dutyTime1c>
				<dutyTime1s>900</dutyTime1s>
				<wgs84Lat>37.5072324514583</wgs84Lat>
				<wgs84Lon>126.948464314224</wgs84Lon>
			</item>
			<item>
				<dutyName>서울경희밸런스한의원</dutyName>
				<dutyTel1>02-816-1075</dutyTel1>
				<dutyTime1c>1900</dutyTime1c>
				<dutyTime1s>930</dutyTime1s>
				<wgs84Lat>37.4971169315</wgs84Lat>
				<wgs84Lon>126.9525041865</wgs84Lon>
			</item>
			<item>
				<dutyName>서울고치과의원</dutyName>
				<dutyTel1>02-813-9028</dutyTel1>
				<dutyTime1c>1830</dutyTime1c>
				<dutyTime1s>930</dutyTime1s>
				<wgs84Lat>37.5077633268</wgs84Lat>
				<wgs84Lon>126.9628801436</wgs84Lon>
			</item>
			<item>
				<dutyName>서울김내과의원</dutyName>
				<dutyTel1>02-813-7582</dutyTel1>
				<dutyTime1c>1830</dutyTime1c>
				<dutyTime1s>900</dutyTime1s>
				<wgs84Lat>37.5006258135526</wgs84Lat>
				<wgs84Lon>126.941301496219</wgs84Lon>
			</item>
			<item>
				<dutyName>서울내과의원</dutyName>
				<dutyTel1>02-521-1550</dutyTel1>
				<dutyTime1c>1800</dutyTime1c>
				<dutyTime1s>900</dutyTime1s>
				<wgs84Lat>37.4894004432</wgs84Lat>
				<wgs84Lon>126.9617042204</wgs84Lon>
			</item>
			<item>
				<dutyName>서울뉴스마일치과의원</dutyName>
				<dutyTel1>02-842-0797</dutyTel1>
				<dutyTime1c>1900</dutyTime1c>
				<dutyTime1s>1000</dutyTime1s>
				<wgs84Lat>37.4938919707165</wgs84Lat>
				<wgs84Lon>126.91452276872</wgs84Lon>
			</item>
			<item>
				<dutyName>서울대방내과의원</dutyName>
				<dutyTel1>02-815-7533</dutyTel1>
				<dutyTime1c>1900</dutyTime1c>
				<dutyTime1s>900</dutyTime1s>
				<wgs84Lat>37.5114471681</wgs84Lat>
				<wgs84Lon>126.9317558309</wgs84Lon>
			</item>
			<item>
				<dutyName>서울미소치과의원</dutyName>
				<dutyTel1>02-598-2875</dutyTel1>
				<dutyTime1c>1800</dutyTime1c>
				<dutyTime1s>1000</dutyTime1s>
				<wgs84Lat>37.4849422306603</wgs84Lat>
				<wgs84Lon>126.970016891343</wgs84Lon>
			</item>
			<item>
				<dutyName>서울미치과의원</dutyName>
				<dutyTel1>02-821-2175</dutyTel1>
				<dutyTime1c>1830</dutyTime1c>
				<dutyTime1s>1000</dutyTime1s>
				<wgs84Lat>37.4994615090239</wgs84Lat>
				<wgs84Lon>126.927899103728</wgs84Lon>
			</item>
			<item>
				<dutyName>서울민치과의원</dutyName>
				<dutyTel1>02-3482-2853</dutyTel1>
				<dutyTime1c>1900</dutyTime1c>
				<dutyTime1s>930</dutyTime1s>
				<wgs84Lat>37.4844382601993</wgs84Lat>
				<wgs84Lon>126.972314588779</wgs84Lon>
			</item>
			<item>
				<dutyName>서울민플러스치과의원</dutyName>
				<dutyTel1>02-822-7522</dutyTel1>
				<dutyTime1c>1830</dutyTime1c>
				<dutyTime1s>930</dutyTime1s>
				<wgs84Lat>37.4995380870341</wgs84Lat>
				<wgs84Lon>126.929378232934</wgs84Lon>
			</item>
			<item>
				<dutyName>서울본치과의원</dutyName>
				<dutyTel1>02-3280-2875</dutyTel1>
				<dutyTime1c>1830</dutyTime1c>
				<dutyTime1s>930</dutyTime1s>
				<wgs84Lat>37.4983352926</wgs84Lat>
				<wgs84Lon>126.9530055216</wgs84Lon>
			</item>
			<item>
				<dutyName>서울봄치과의원</dutyName>
				<dutyTel1>02-592-2872</dutyTel1>
				<dutyTime1c>1830</dutyTime1c>
				<dutyTime1s>1000</dutyTime1s>
				<wgs84Lat>37.4841596193623</wgs84Lat>
				<wgs84Lon>126.972660704042</wgs84Lon>
			</item>
			<item>
				<dutyName>서울뷰치과의원</dutyName>
				<dutyTel1>02-823-2822</dutyTel1>
				<dutyTime1c>1830</dutyTime1c>
				<dutyTime1s>930</dutyTime1s>
				<wgs84Lat>37.5007835243479</wgs84Lat>
				<wgs84Lon>126.94137148905</wgs84Lon>
			</item>
			<item>
				<dutyName>서울사암한의원</dutyName>
				<dutyTel1>02-3280-8880</dutyTel1>
				<dutyTime1c>1800</dutyTime1c>
				<dutyTime1s>900</dutyTime1s>
				<wgs84Lat>37.4999059936938</wgs84Lat>
				<wgs84Lon>126.929875480054</wgs84Lon>
			</item>
			<item>
				<dutyName>서울선치과의원</dutyName>
				<dutyTel1>02-844-2496</dutyTel1>
				<dutyTime1c>1830</dutyTime1c>
				<dutyTime1s>930</dutyTime1s>
				<wgs84Lat>37.4910602951655</wgs84Lat>
				<wgs84Lon>126.911642311779</wgs84Lon>
			</item>
			<item>
				<dutyName>서울성모이비인후과의원</dutyName>
				<dutyTel1>02-534-8047</dutyTel1>
				<dutyTime1c>1900</dutyTime1c>
				<dutyTime1s>900</dutyTime1s>
				<wgs84Lat>37.4880873639486</wgs84Lat>
				<wgs84Lon>126.981141732637</wgs84Lon>
			</item>
			<item>
				<dutyName>서울성모정형외과의원</dutyName>
				<dutyTel1>02-6010-7577</dutyTel1>
				<dutyTime1c>1800</dutyTime1c>
				<dutyTime1s>900</dutyTime1s>
				<wgs84Lat>37.4832083510869</wgs84Lat>
				<wgs84Lon>126.973524861946</wgs84Lon>
			</item>
			<item>
				<dutyName>서울성형외과의원</dutyName>
				<dutyTel1>02-842-3333</dutyTel1>
				<dutyTime1c>1900</dutyTime1c>
				<dutyTime1s>1000</dutyTime1s>
				<wgs84Lat>37.4907444444444</wgs84Lat>
				<wgs84Lon>126.923866666667</wgs84Lon>
			</item>
			<item>
				<dutyName>서울손인내과의원</dutyName>
				<dutyTel1>02-584-8875</dutyTel1>
				<dutyTime1c>1900</dutyTime1c>
				<dutyTime1s>830</dutyTime1s>
				<wgs84Lat>37.483701880838</wgs84Lat>
				<wgs84Lon>126.972547805784</wgs84Lon>
			</item>
			<item>
				<dutyName>서울수치과의원</dutyName>
				<dutyTel1>02-591-8030</dutyTel1>
				<dutyTime1c>1900</dutyTime1c>
				<dutyTime1s>1000</dutyTime1s>
				<wgs84Lat>37.4888613996939</wgs84Lat>
				<wgs84Lon>126.976817652309</wgs84Lon>
			</item>
			<item>
				<dutyName>서울안과의원</dutyName>
				<dutyTel1>02-814-1122</dutyTel1>
				<dutyTime1c>1830</dutyTime1c>
				<dutyTime1s>900</dutyTime1s>
				<wgs84Lat>37.5043805555556</wgs84Lat>
				<wgs84Lon>126.939338888889</wgs84Lon>
			</item>
			<item>
				<dutyName>서울안치과의원</dutyName>
				<dutyTel1>02-522-7528</dutyTel1>
				<dutyTime1c>1800</dutyTime1c>
				<dutyTime1s>930</dutyTime1s>
				<wgs84Lat>37.4771780341321</wgs84Lat>
				<wgs84Lon>126.98112208368</wgs84Lon>
			</item>
			<item>
				<dutyName>서울에스치과의원</dutyName>
				<dutyTel1>02-816-7528</dutyTel1>
				<dutyTime1c>2100</dutyTime1c>
				<dutyTime1s>1000</dutyTime1s>
				<wgs84Lat>37.4987737195</wgs84Lat>
				<wgs84Lon>126.9288542256</wgs84Lon>
			</item>
			<item>
				<dutyName>서울열린의원</dutyName>
				<dutyTel1>02-826-9875</dutyTel1>
				<dutyTime1c>2000</dutyTime1c>
				<dutyTime1s>900</dutyTime1s>
				<wgs84Lat>37.5002570111806</wgs84Lat>
				<wgs84Lon>126.932322419124</wgs84Lon>
			</item>
			<item>
				<dutyName>서울열린치과의원</dutyName>
				<dutyTel1>02-599-0028</dutyTel1>
				<dutyTime1c>1830</dutyTime1c>
				<dutyTime1s>1000</dutyTime1s>
				<wgs84Lat>37.4893473695286</wgs84Lat>
				<wgs84Lon>126.980503877378</wgs84Lon>
			</item>
			<item>
				<dutyName>서울영치과의원</dutyName>
				<dutyTel1>02-814-2855</dutyTel1>
				<dutyTime1c>1830</dutyTime1c>
				<dutyTime1s>930</dutyTime1s>
				<wgs84Lat>37.5049541301084</wgs84Lat>
				<wgs84Lon>126.941058321288</wgs84Lon>
			</item>
			<item>
				<dutyName>서울요양병원</dutyName>
				<dutyTel1>02-3445-7575</dutyTel1>
				<dutyTime1c>1800</dutyTime1c>
				<dutyTime1s>900</dutyTime1s>
				<wgs84Lat>37.4989747387</wgs84Lat>
				<wgs84Lon>126.933662539</wgs84Lon>
			</item>
			<item>
				<dutyName>서울유니언이비인후과의원</dutyName>
				<dutyTel1>02-583-3133</dutyTel1>
				<dutyTime1c>1800</dutyTime1c>
				<dutyTime1s>900</dutyTime1s>
				<wgs84Lat>37.4847789832697</wgs84Lat>
				<wgs84Lon>126.98169891461</wgs84Lon>
			</item>
			<item>
				<dutyName>서울의료복지사회적협동조합우리네치과의원</dutyName>
				<dutyTel1>02-849-2150</dutyTel1>
				<dutyTime1c>1900</dutyTime1c>
				<dutyTime1s>930</dutyTime1s>
				<wgs84Lat>37.4885016162903</wgs84Lat>
				<wgs84Lon>126.906749711576</wgs84Lon>
			</item>
			<item>
				<dutyName>서울이안치과의원</dutyName>
				<dutyTel1>02-584-8585</dutyTel1>
				<dutyTime1c>1900</dutyTime1c>
				<dutyTime1s>1000</dutyTime1s>
				<wgs84Lat>37.4840657673462</wgs84Lat>
				<wgs84Lon>126.972032093524</wgs84Lon>
			</item>
			<item>
				<dutyName>서울이튼치과의원</dutyName>
				<dutyTel1>02-586-7773</dutyTel1>
				<dutyTime1c>1800</dutyTime1c>
				<dutyTime1s>930</dutyTime1s>
				<wgs84Lat>37.4769071103145</wgs84Lat>
				<wgs84Lon>126.977784806017</wgs84Lon>
			</item>
			<item>
				<dutyName>서울정&amp;오치과의원</dutyName>
				<dutyTel1>02-826-2875</dutyTel1>
				<dutyTime1c>1830</dutyTime1c>
				<dutyTime1s>930</dutyTime1s>
				<wgs84Lat>37.5003507403483</wgs84Lat>
				<wgs84Lon>126.931397234105</wgs84Lon>
			</item>
			<item>
				<dutyName>서울정형외과의원</dutyName>
				<dutyTel1>02-3474-4555</dutyTel1>
				<dutyTime1c>1800</dutyTime1c>
				<dutyTime1s>900</dutyTime1s>
				<wgs84Lat>37.4849338148218</wgs84Lat>
				<wgs84Lon>126.969897066795</wgs84Lon>
			</item>
			<item>
				<dutyName>서울준소아청소년과의원</dutyName>
				<dutyTel1>02-823-7577</dutyTel1>
				<dutyTime1c>1830</dutyTime1c>
				<dutyTime1s>930</dutyTime1s>
				<wgs84Lat>37.4999877141671</wgs84Lat>
				<wgs84Lon>126.927939330528</wgs84Lon>
			</item>
			<item>
				<dutyName>서울척척마취통증의학과의원</dutyName>
				<dutyTel1>02-826-7598</dutyTel1>
				<dutyTime1c>1800</dutyTime1c>
				<dutyTime1s>900</dutyTime1s>
				<wgs84Lat>37.5040481857597</wgs84Lat>
				<wgs84Lon>126.93729280103</wgs84Lon>
			</item>
			<item>
				<dutyName>서울치과의원</dutyName>
				<dutyTel1>02-521-2835</dutyTel1>
				<dutyTime1c>1830</dutyTime1c>
				<dutyTime1s>1000</dutyTime1s>
				<wgs84Lat>37.4825847550219</wgs84Lat>
				<wgs84Lon>126.973090918659</wgs84Lon>
			</item>
			<item>
				<dutyName>서울치항외과의원</dutyName>
				<dutyTel1>02-823-7175</dutyTel1>
				<dutyTime1c>1900</dutyTime1c>
				<dutyTime1s>900</dutyTime1s>
				<wgs84Lat>37.5046137135254</wgs84Lat>
				<wgs84Lon>126.937873810195</wgs84Lon>
			</item>
			<item>
				<dutyName>서울키즈소아청소년과의원</dutyName>
				<dutyTel1>02-2055-1136</dutyTel1>
				<dutyTime1c>2000</dutyTime1c>
				<dutyTime1s>900</dutyTime1s>
				<wgs84Lat>37.4849138888889</wgs84Lat>
				<wgs84Lon>126.981419444444</wgs84Lon>
			</item>
			<item>
				<dutyName>서울탑비뇨기과의원</dutyName>
				<dutyTel1>02-6334-0137</dutyTel1>
				<dutyTime1c>1800</dutyTime1c>
				<dutyTime1s>930</dutyTime1s>
				<wgs84Lat>37.4913284343787</wgs84Lat>
				<wgs84Lon>126.924094002329</wgs84Lon>
			</item>
			<item>
				<dutyName>서울특별시보라매병원</dutyName>
				<dutyTel1>02-870-2114</dutyTel1>
				<dutyTime1c>1700</dutyTime1c>
				<dutyTime1s>900</dutyTime1s>
				<wgs84Lat>37.4937184009319</wgs84Lat>
				<wgs84Lon>126.92404876254</wgs84Lon>
			</item>
			<item>
				<dutyName>서울프라임치과의원</dutyName>
				<dutyTel1>02-823-0007</dutyTel1>
				<dutyTime1c>1900</dutyTime1c>
				<dutyTime1s>1000</dutyTime1s>
				<wgs84Lat>37.5033069970731</wgs84Lat>
				<wgs84Lon>126.948569097313</wgs84Lon>
			</item>
			<item>
				<dutyName>서울해치과의원</dutyName>
				<dutyTel1>02-817-8228</dutyTel1>
				<dutyTime1c>1830</dutyTime1c>
				<dutyTime1s>930</dutyTime1s>
				<wgs84Lat>37.5117444444444</wgs84Lat>
				<wgs84Lon>126.931669444444</wgs84Lon>
			</item>
			<item>
				<dutyName>서울홍익한의원</dutyName>
				<dutyTel1>02-848-1275</dutyTel1>
				<dutyTime1c>1900</dutyTime1c>
				<dutyTime1s>930</dutyTime1s>
				<wgs84Lat>37.4874609857865</wgs84Lat>
				<wgs84Lon>126.908376547105</wgs84Lon>
			</item>
			<item>
				<dutyName>서진치과의원</dutyName>
				<dutyTel1>02-815-3537</dutyTel1>
				<dutyTime1c>1830</dutyTime1c>
				<dutyTime1s>930</dutyTime1s>
				<wgs84Lat>37.5069564868101</wgs84Lat>
				<wgs84Lon>126.961534252365</wgs84Lon>
			</item>
			<item>
				<dutyName>선앤민치과의원</dutyName>
				<dutyTel1>02-826-7528</dutyTel1>
				<dutyTime1c>2100</dutyTime1c>
				<dutyTime1s>930</dutyTime1s>
				<wgs84Lat>37.5054916666667</wgs84Lat>
				<wgs84Lon>126.946922222222</wgs84Lon>
			</item>
			<item>
				<dutyName>성노마취통증의학과의원</dutyName>
				<dutyTel1>02-534-7748</dutyTel1>
				<dutyTime1c>1830</dutyTime1c>
				<dutyTime1s>930</dutyTime1s>
				<wgs84Lat>37.4863093630098</wgs84Lat>
				<wgs84Lon>126.981660211368</wgs84Lon>
			</item>
			<item>
				<dutyName>성대경희한의원</dutyName>
				<dutyTel1>02-821-8277</dutyTel1>
				<dutyTime1c>1830</dutyTime1c>
				<dutyTime1s>830</dutyTime1s>
				<wgs84Lat>37.4996374754</wgs84Lat>
				<wgs84Lon>126.9329472299</wgs84Lon>
			</item>
			<item>
				<dutyName>성대한의원</dutyName>
				<dutyTel1>02-824-7886</dutyTel1>
				<dutyTime1c>1730</dutyTime1c>
				<dutyTime1s>1000</dutyTime1s>
				<wgs84Lat>37.4990921267892</wgs84Lat>
				<wgs84Lon>126.93096641168</wgs84Lon>
			</item>
			<item>
				<dutyName>성모정형외과의원</dutyName>
				<dutyTel1>02-817-7714</dutyTel1>
				<dutyTime1c>1830</dutyTime1c>
				<dutyTime1s>830</dutyTime1s>
				<wgs84Lat>37.4999526575871</wgs84Lat>
				<wgs84Lon>126.929558785738</wgs84Lon>
			</item>
			<item>
				<dutyName>성모피부과의원</dutyName>
				<dutyTel1>02-825-3600</dutyTel1>
				<dutyTime1c>1800</dutyTime1c>
				<dutyTime1s>930</dutyTime1s>
				<wgs84Lat>37.507885706</wgs84Lat>
				<wgs84Lon>126.9623824363</wgs84Lon>
			</item>
			<item>
				<dutyName>세란치과의원</dutyName>
				<dutyTel1>02-598-1512</dutyTel1>
				<dutyTime1c>1830</dutyTime1c>
				<dutyTime1s>1000</dutyTime1s>
				<wgs84Lat>37.4833055968501</wgs84Lat>
				<wgs84Lon>126.973244427793</wgs84Lon>
			</item>
			<item>
				<dutyName>세명내과의원</dutyName>
				<dutyTel1>02-825-1065</dutyTel1>
				<dutyTime1c>1830</dutyTime1c>
				<dutyTime1s>900</dutyTime1s>
				<wgs84Lat>37.5078833333333</wgs84Lat>
				<wgs84Lon>126.962422222222</wgs84Lon>
			</item>
			<item>
				<dutyName>세명치과의원</dutyName>
				<dutyTel1>02-825-2804</dutyTel1>
				<dutyTime1c>1830</dutyTime1c>
				<dutyTime1s>930</dutyTime1s>
				<wgs84Lat>37.5078833333333</wgs84Lat>
				<wgs84Lon>126.962422222222</wgs84Lon>
			</item>
			<item>
				<dutyName>세원소아청소년과의원</dutyName>
				<dutyTel1>02-533-5661</dutyTel1>
				<dutyTime1c>1800</dutyTime1c>
				<dutyTime1s>930</dutyTime1s>
				<wgs84Lat>37.4844586804776</wgs84Lat>
				<wgs84Lon>126.972344009741</wgs84Lon>
			</item>
			<item>
				<dutyName>세종정신건강의학과의원</dutyName>
				<dutyTel1>02-596-0596</dutyTel1>
				<dutyTime1c>1800</dutyTime1c>
				<dutyTime1s>930</dutyTime1s>
				<wgs84Lat>37.483926473624</wgs84Lat>
				<wgs84Lon>126.972242426689</wgs84Lon>
			</item>
			<item>
				<dutyName>소망이비인후과의원</dutyName>
				<dutyTel1>02-812-8434</dutyTel1>
				<dutyTime1c>1800</dutyTime1c>
				<dutyTime1s>930</dutyTime1s>
				<wgs84Lat>37.5071981638084</wgs84Lat>
				<wgs84Lon>126.962158433056</wgs84Lon>
			</item>
			<item>
				<dutyName>손이비인후과의원</dutyName>
				<dutyTel1>02-6673-7575</dutyTel1>
				<dutyTime1c>1830</dutyTime1c>
				<dutyTime1s>900</dutyTime1s>
				<wgs84Lat>37.4913284343787</wgs84Lat>
				<wgs84Lon>126.924094002329</wgs84Lon>
			</item>
			<item>
				<dutyName>솔솔마취통증의학과의원</dutyName>
				<dutyTel1>02-3482-8866</dutyTel1>
				<dutyTime1c>1830</dutyTime1c>
				<dutyTime1s>900</dutyTime1s>
				<wgs84Lat>37.488215737342</wgs84Lat>
				<wgs84Lon>126.98066471302</wgs84Lon>
			</item>
			<item>
				<dutyName>송가정의학과의원</dutyName>
				<dutyTel1>02-817-1655</dutyTel1>
				<dutyTime1c>1900</dutyTime1c>
				<dutyTime1s>900</dutyTime1s>
				<wgs84Lat>37.5097885614992</wgs84Lat>
				<wgs84Lon>126.929678282956</wgs84Lon>
			</item>
			<item>
				<dutyName>송동근치과의원</dutyName>
				<dutyTel1>02-834-0384</dutyTel1>
				<dutyTime1c>1800</dutyTime1c>
				<dutyTime1s>930</dutyTime1s>
				<wgs84Lat>37.4893846289808</wgs84Lat>
				<wgs84Lon>126.907211801231</wgs84Lon>
			</item>
			<item>
				<dutyName>송안과의원</dutyName>
				<dutyTel1>02-822-4034</dutyTel1>
				<dutyTime1c>1900</dutyTime1c>
				<dutyTime1s>1000</dutyTime1s>
				<wgs84Lat>37.5003512314326</wgs84Lat>
				<wgs84Lon>126.932229570293</wgs84Lon>
			</item>
			<item>
				<dutyName>수치과의원</dutyName>
				<dutyTel1>02-826-2878</dutyTel1>
				<dutyTime1c>1830</dutyTime1c>
				<dutyTime1s>930</dutyTime1s>
				<wgs84Lat>37.4983555555556</wgs84Lat>
				<wgs84Lon>126.943366666667</wgs84Lon>
			</item>
			<item>
				<dutyName>숭실의원</dutyName>
				<dutyTel1>02-815-2706</dutyTel1>
				<dutyTime1c>1800</dutyTime1c>
				<dutyTime1s>900</dutyTime1s>
				<wgs84Lat>37.4985403329351</wgs84Lat>
				<wgs84Lon>126.952037364856</wgs84Lon>
			</item>
			<item>
				<dutyName>스타일미여성의원</dutyName>
				<dutyTel1>02-6278-7575</dutyTel1>
				<dutyTime1c>1930</dutyTime1c>
				<dutyTime1s>930</dutyTime1s>
				<wgs84Lat>37.4913284343787</wgs84Lat>
				<wgs84Lon>126.924094002329</wgs84Lon>
			</item>
			<item>
				<dutyName>스타일미의원</dutyName>
				<dutyTel1>02-832-9359</dutyTel1>
				<dutyTime1c>2200</dutyTime1c>
				<dutyTime1s>1400</dutyTime1s>
				<wgs84Lat>37.4912743811746</wgs84Lat>
				<wgs84Lon>126.924094036542</wgs84Lon>
			</item>
			<item>
				<dutyName>시카고아이치과의원</dutyName>
				<dutyTel1>02-3471-9545</dutyTel1>
				<dutyTime1c>1800</dutyTime1c>
				<dutyTime1s>1100</dutyTime1s>
				<wgs84Lat>37.4834617623888</wgs84Lat>
				<wgs84Lon>126.973083802499</wgs84Lon>
			</item>
			<item>
				<dutyName>신기현치과의원</dutyName>
				<dutyTel1>02-595-2880</dutyTel1>
				<dutyTime1c>1900</dutyTime1c>
				<dutyTime1s>930</dutyTime1s>
				<wgs84Lat>37.4862912187943</wgs84Lat>
				<wgs84Lon>126.980923026716</wgs84Lon>
			</item>
			<item>
				<dutyName>신농당한의원</dutyName>
				<dutyTel1>02-592-8822</dutyTel1>
				<dutyTime1c>1900</dutyTime1c>
				<dutyTime1s>930</dutyTime1s>
				<wgs84Lat>37.4879419634967</wgs84Lat>
				<wgs84Lon>126.981492466523</wgs84Lon>
			</item>
			<item>
				<dutyName>신대방가정의학과의원</dutyName>
				<dutyTel1>02-844-3655</dutyTel1>
				<dutyTime1c>1800</dutyTime1c>
				<dutyTime1s>900</dutyTime1s>
				<wgs84Lat>37.487792587441</wgs84Lat>
				<wgs84Lon>126.912621215525</wgs84Lon>
			</item>
			<item>
				<dutyName>신병철한의원</dutyName>
				<dutyTel1>02-812-3300</dutyTel1>
				<dutyTime1c>1900</dutyTime1c>
				<dutyTime1s>1000</dutyTime1s>
				<wgs84Lat>37.5017470530861</wgs84Lat>
				<wgs84Lon>126.949977055362</wgs84Lon>
			</item>
			<item>
				<dutyName>신성치과의원</dutyName>
				<dutyTel1>02-3487-2870</dutyTel1>
				<dutyTime1c>1830</dutyTime1c>
				<dutyTime1s>1000</dutyTime1s>
				<wgs84Lat>37.4771460116567</wgs84Lat>
				<wgs84Lon>126.981132242583</wgs84Lon>
			</item>
			<item>
				<dutyName>신수재산부인과의원</dutyName>
				<dutyTel1>02-585-5222</dutyTel1>
				<dutyTime1c>1830</dutyTime1c>
				<dutyTime1s>930</dutyTime1s>
				<wgs84Lat>37.4849073814617</wgs84Lat>
				<wgs84Lon>126.981579145933</wgs84Lon>
			</item>
			<item>
				<dutyName>신안경희한의원</dutyName>
				<dutyTel1>02-3482-8275</dutyTel1>
				<dutyTime1c>2030</dutyTime1c>
				<dutyTime1s>930</dutyTime1s>
				<wgs84Lat>37.4884531576</wgs84Lat>
				<wgs84Lon>126.9781092199</wgs84Lon>
			</item>
			<item>
				<dutyName>신앤범치과의원</dutyName>
				<dutyTel1>02-813-0507</dutyTel1>
				<dutyTime1c>1830</dutyTime1c>
				<dutyTime1s>1000</dutyTime1s>
				<wgs84Lat>37.5081036766558</wgs84Lat>
				<wgs84Lon>126.940327469213</wgs84Lon>
			</item>
			<item>
				<dutyName>신우재한의원</dutyName>
				<dutyTel1>02-815-8159</dutyTel1>
				<dutyTime1c>1800</dutyTime1c>
				<dutyTime1s>900</dutyTime1s>
				<wgs84Lat>37.4991249863</wgs84Lat>
				<wgs84Lon>126.93169467</wgs84Lon>
			</item>
			<item>
				<dutyName>신원치과의원</dutyName>
				<dutyTel1>02-823-7528</dutyTel1>
				<dutyTime1c>1800</dutyTime1c>
				<dutyTime1s>930</dutyTime1s>
				<wgs84Lat>37.5043555555556</wgs84Lat>
				<wgs84Lon>126.93895</wgs84Lon>
			</item>
			<item>
				<dutyName>신유선한의원</dutyName>
				<dutyTel1>02-584-0888</dutyTel1>
				<dutyTime1c>2000</dutyTime1c>
				<dutyTime1s>930</dutyTime1s>
				<wgs84Lat>37.482768673</wgs84Lat>
				<wgs84Lon>126.9735883327</wgs84Lon>
			</item>
			<item>
				<dutyName>신윤내과의원</dutyName>
				<dutyTel1>02-817-5411</dutyTel1>
				<dutyTime1c>1830</dutyTime1c>
				<dutyTime1s>900</dutyTime1s>
				<wgs84Lat>37.5049083333333</wgs84Lat>
				<wgs84Lon>126.93875</wgs84Lon>
			</item>
			<item>
				<dutyName>신이비인후과의원</dutyName>
				<dutyTel1>02-591-6036</dutyTel1>
				<dutyTime1c>1830</dutyTime1c>
				<dutyTime1s>930</dutyTime1s>
				<wgs84Lat>37.4837166666667</wgs84Lat>
				<wgs84Lon>126.973561111111</wgs84Lon>
			</item>
			<item>
				<dutyName>신항장외과의원</dutyName>
				<dutyTel1>02-3280-7500</dutyTel1>
				<dutyTime1c>1900</dutyTime1c>
				<dutyTime1s>900</dutyTime1s>
				<wgs84Lat>37.4999882365056</wgs84Lat>
				<wgs84Lon>126.927937059772</wgs84Lon>
			</item>
			<item>
				<dutyName>싱아치과의원</dutyName>
				<dutyTel1>02-6275-2875</dutyTel1>
				<dutyTime1c>1830</dutyTime1c>
				<dutyTime1s>1000</dutyTime1s>
				<wgs84Lat>37.5071037116885</wgs84Lat>
				<wgs84Lon>126.944326361553</wgs84Lon>
			</item>
			<item>
				<dutyName>아름다운미소치과의원</dutyName>
				<dutyTel1>02-822-7525</dutyTel1>
				<dutyTime1c>1830</dutyTime1c>
				<dutyTime1s>930</dutyTime1s>
				<wgs84Lat>37.5054616603121</wgs84Lat>
				<wgs84Lon>126.939795750341</wgs84Lon>
			</item>
			<item>
				<dutyName>아름다운치과의원</dutyName>
				<dutyTel1>02-595-5485</dutyTel1>
				<dutyTime1c>1830</dutyTime1c>
				<dutyTime1s>1000</dutyTime1s>
				<wgs84Lat>37.4856678472612</wgs84Lat>
				<wgs84Lon>126.981673936348</wgs84Lon>
			</item>
			<item>
				<dutyName>아이사랑소아청소년과의원</dutyName>
				<dutyTel1>02-3280-8280</dutyTel1>
				<dutyTime1c>1900</dutyTime1c>
				<dutyTime1s>900</dutyTime1s>
				<wgs84Lat>37.4977587634983</wgs84Lat>
				<wgs84Lon>126.953295383621</wgs84Lon>
			</item>
			<item>
				<dutyName>아이조은성모소아청소년과의원</dutyName>
				<dutyTel1>02-823-3690</dutyTel1>
				<dutyTime1c>1830</dutyTime1c>
				<dutyTime1s>900</dutyTime1s>
				<wgs84Lat>37.4987085518279</wgs84Lat>
				<wgs84Lon>126.928365748807</wgs84Lon>
			</item>
			<item>
				<dutyName>안정모치과의원</dutyName>
				<dutyTel1>02-815-0005</dutyTel1>
				<dutyTime1c>1800</dutyTime1c>
				<dutyTime1s>900</dutyTime1s>
				<wgs84Lat>37.512575</wgs84Lat>
				<wgs84Lon>126.936394444444</wgs84Lon>
			</item>
			<item>
				<dutyName>안홍준내과의원</dutyName>
				<dutyTel1>02-585-1395</dutyTel1>
				<dutyTime1c>1800</dutyTime1c>
				<dutyTime1s>900</dutyTime1s>
				<wgs84Lat>37.4802559229647</wgs84Lat>
				<wgs84Lon>126.981505647698</wgs84Lon>
			</item>
			<item>
				<dutyName>애플치과의원</dutyName>
				<dutyTel1>02-814-2754</dutyTel1>
				<dutyTime1c>1830</dutyTime1c>
				<dutyTime1s>1000</dutyTime1s>
				<wgs84Lat>37.5067110961864</wgs84Lat>
				<wgs84Lon>126.966366964024</wgs84Lon>
			</item>
			<item>
				<dutyName>앨리스산부인과의원</dutyName>
				<dutyTel1>02-2038-2355</dutyTel1>
				<dutyTime1c>1830</dutyTime1c>
				<dutyTime1s>900</dutyTime1s>
				<wgs84Lat>37.4863093630098</wgs84Lat>
				<wgs84Lon>126.981660211368</wgs84Lon>
			</item>
			<item>
				<dutyName>양석원내과의원</dutyName>
				<dutyTel1>02-814-4558</dutyTel1>
				<dutyTime1c>1800</dutyTime1c>
				<dutyTime1s>730</dutyTime1s>
				<wgs84Lat>37.5002599091702</wgs84Lat>
				<wgs84Lon>126.931101044591</wgs84Lon>
			</item>
			<item>
				<dutyName>양진석내과의원</dutyName>
				<dutyTel1>02-817-4631</dutyTel1>
				<dutyTime1c>1830</dutyTime1c>
				<dutyTime1s>900</dutyTime1s>
				<wgs84Lat>37.5043555555556</wgs84Lat>
				<wgs84Lon>126.938675</wgs84Lon>
			</item>
			<item>
				<dutyName>양치과의원</dutyName>
				<dutyTel1>02-588-2882</dutyTel1>
				<dutyTime1c>1830</dutyTime1c>
				<dutyTime1s>930</dutyTime1s>
				<wgs84Lat>37.4830222222222</wgs84Lat>
				<wgs84Lon>126.974719444444</wgs84Lon>
			</item>
			<item>
				<dutyName>엄마맘소아청소년과의원</dutyName>
				<dutyTel1>02-813-0173</dutyTel1>
				<dutyTime1c>1830</dutyTime1c>
				<dutyTime1s>900</dutyTime1s>
				<wgs84Lat>37.4976105038164</wgs84Lat>
				<wgs84Lon>126.952060576751</wgs84Lon>
			</item>
			<item>
				<dutyName>에코이비인후과의원</dutyName>
				<dutyTel1>02-814-8899</dutyTel1>
				<dutyTime1c>1900</dutyTime1c>
				<dutyTime1s>900</dutyTime1s>
				<wgs84Lat>37.4967830514298</wgs84Lat>
				<wgs84Lon>126.952924225124</wgs84Lon>
			</item>
			<item>
				<dutyName>엠치과의원</dutyName>
				<dutyTel1>02-581-2879</dutyTel1>
				<dutyTime1c>1830</dutyTime1c>
				<dutyTime1s>1000</dutyTime1s>
				<wgs84Lat>37.4764076147738</wgs84Lat>
				<wgs84Lon>126.973889034186</wgs84Lon>
			</item>
			<item>
				<dutyName>연세W치과의원</dutyName>
				<dutyTel1>02-822-7529</dutyTel1>
				<dutyTime1c>1830</dutyTime1c>
				<dutyTime1s>930</dutyTime1s>
				<wgs84Lat>37.4984346131861</wgs84Lat>
				<wgs84Lon>126.928311728613</wgs84Lon>
			</item>
			<item>
				<dutyName>연세가정의학과의원</dutyName>
				<dutyTel1>02-823-0816</dutyTel1>
				<dutyTime1c>1830</dutyTime1c>
				<dutyTime1s>900</dutyTime1s>
				<wgs84Lat>37.4982128840008</wgs84Lat>
				<wgs84Lon>126.943413489366</wgs84Lon>
			</item>
			<item>
				<dutyName>연세굿모닝치과의원</dutyName>
				<dutyTel1>02-823-8275</dutyTel1>
				<dutyTime1c>1800</dutyTime1c>
				<dutyTime1s>1000</dutyTime1s>
				<wgs84Lat>37.4987824460881</wgs84Lat>
				<wgs84Lon>126.943679933079</wgs84Lon>
			</item>
			<item>
				<dutyName>연세꿈사랑아이치과의원</dutyName>
				<dutyTel1>02-844-4500</dutyTel1>
				<dutyTime1c>1800</dutyTime1c>
				<dutyTime1s>930</dutyTime1s>
				<wgs84Lat>37.491303782409</wgs84Lat>
				<wgs84Lon>126.92414171665</wgs84Lon>
			</item>
			<item>
				<dutyName>연세내과의원</dutyName>
				<dutyTel1>02-534-8585</dutyTel1>
				<dutyTime1c>1900</dutyTime1c>
				<dutyTime1s>900</dutyTime1s>
				<wgs84Lat>37.4882157373</wgs84Lat>
				<wgs84Lon>126.980664713</wgs84Lon>
			</item>
			<item>
				<dutyName>연세드림치과의원</dutyName>
				<dutyTel1>02-813-2804</dutyTel1>
				<dutyTime1c>1830</dutyTime1c>
				<dutyTime1s>900</dutyTime1s>
				<wgs84Lat>37.51192276922</wgs84Lat>
				<wgs84Lon>126.944027212817</wgs84Lon>
			</item>
			<item>
				<dutyName>연세로뎀치과의원</dutyName>
				<dutyTel1>02-536-2885</dutyTel1>
				<dutyTime1c>1830</dutyTime1c>
				<dutyTime1s>930</dutyTime1s>
				<wgs84Lat>37.4876149593782</wgs84Lat>
				<wgs84Lon>126.979576971592</wgs84Lon>
			</item>
			<item>
				<dutyName>연세마이뷰의원</dutyName>
				<dutyTel1>02-532-3322</dutyTel1>
				<dutyTime1c>1900</dutyTime1c>
				<dutyTime1s>1000</dutyTime1s>
				<wgs84Lat>37.4853000965</wgs84Lat>
				<wgs84Lon>126.9807966227</wgs84Lon>
			</item>
			<item>
				<dutyName>연세미소그린치과의원</dutyName>
				<dutyTel1>02-813-2275</dutyTel1>
				<dutyTime1c>1900</dutyTime1c>
				<dutyTime1s>1000</dutyTime1s>
				<wgs84Lat>37.4979315697549</wgs84Lat>
				<wgs84Lon>126.952824836191</wgs84Lon>
			</item>
			<item>
				<dutyName>연세미소치과의원</dutyName>
				<dutyTel1>02-525-2870</dutyTel1>
				<dutyTime1c>1800</dutyTime1c>
				<dutyTime1s>900</dutyTime1s>
				<wgs84Lat>37.4829055725363</wgs84Lat>
				<wgs84Lon>126.973348589178</wgs84Lon>
			</item>
			<item>
				<dutyName>연세바른병원</dutyName>
				<dutyTel1>1544-8235</dutyTel1>
				<dutyTime1c>1800</dutyTime1c>
				<dutyTime1s>900</dutyTime1s>
				<wgs84Lat>37.4844387537</wgs84Lat>
				<wgs84Lon>126.9809279999</wgs84Lon>
			</item>
			<item>
				<dutyName>연세베스트덴치과의원</dutyName>
				<dutyTel1>02-836-2223</dutyTel1>
				<dutyTime1c>1800</dutyTime1c>
				<dutyTime1s>930</dutyTime1s>
				<wgs84Lat>37.4909422789</wgs84Lat>
				<wgs84Lon>126.9232711798</wgs84Lon>
			</item>
			<item>
				<dutyName>연세봄이오는치과의원</dutyName>
				<dutyTel1>02-813-2824</dutyTel1>
				<dutyTime1c>1830</dutyTime1c>
				<dutyTime1s>1000</dutyTime1s>
				<wgs84Lat>37.504325</wgs84Lat>
				<wgs84Lon>126.938505555556</wgs84Lon>
			</item>
			<item>
				<dutyName>연세부부치과의원</dutyName>
				<dutyTel1>02-583-0652</dutyTel1>
				<dutyTime1c>1830</dutyTime1c>
				<dutyTime1s>1000</dutyTime1s>
				<wgs84Lat>37.4837031033267</wgs84Lat>
				<wgs84Lon>126.972559093431</wgs84Lon>
			</item>
			<item>
				<dutyName>연세샘가정의원</dutyName>
				<dutyTel1>02-598-9746</dutyTel1>
				<dutyTime1c>1830</dutyTime1c>
				<dutyTime1s>900</dutyTime1s>
				<wgs84Lat>37.4850995320589</wgs84Lat>
				<wgs84Lon>126.969630161822</wgs84Lon>
			</item>
			<item>
				<dutyName>연세성모의원</dutyName>
				<dutyTel1>02-816-4882</dutyTel1>
				<dutyTime1c>1800</dutyTime1c>
				<dutyTime1s>900</dutyTime1s>
				<wgs84Lat>37.4990764028216</wgs84Lat>
				<wgs84Lon>126.928763467895</wgs84Lon>
			</item>
			<item>
				<dutyName>연세신나는아이치과의원</dutyName>
				<dutyTel1>02-599-8227</dutyTel1>
				<dutyTime1c>1900</dutyTime1c>
				<dutyTime1s>930</dutyTime1s>
				<wgs84Lat>37.4876225806843</wgs84Lat>
				<wgs84Lon>126.981928826413</wgs84Lon>
			</item>
			<item>
				<dutyName>연세안과의원</dutyName>
				<dutyTel1>02-815-5008</dutyTel1>
				<dutyTime1c>1830</dutyTime1c>
				<dutyTime1s>930</dutyTime1s>
				<wgs84Lat>37.5066278397</wgs84Lat>
				<wgs84Lon>126.9621840122</wgs84Lon>
			</item>
			<item>
				<dutyName>연세어린이사랑치과의원</dutyName>
				<dutyTel1>02-813-2870</dutyTel1>
				<dutyTime1c>1800</dutyTime1c>
				<dutyTime1s>930</dutyTime1s>
				<wgs84Lat>37.5009873715998</wgs84Lat>
				<wgs84Lon>126.949907239991</wgs84Lon>
			</item>
			<item>
				<dutyName>연세에이스정형외과의원</dutyName>
				<dutyTel1>02-823-7575</dutyTel1>
				<dutyTime1c>1830</dutyTime1c>
				<dutyTime1s>900</dutyTime1s>
				<wgs84Lat>37.4980016252</wgs84Lat>
				<wgs84Lon>126.9274843487</wgs84Lon>
			</item>
			<item>
				<dutyName>연세에이스치과의원</dutyName>
				<dutyTel1>02-816-4338</dutyTel1>
				<dutyTime1c>1830</dutyTime1c>
				<dutyTime1s>930</dutyTime1s>
				<wgs84Lat>37.5044133469731</wgs84Lat>
				<wgs84Lon>126.939459395137</wgs84Lon>
			</item>
			<item>
				<dutyName>연세엘라인치과의원</dutyName>
				<dutyTel1>02-3473-2275</dutyTel1>
				<dutyTime1c>1930</dutyTime1c>
				<dutyTime1s>1100</dutyTime1s>
				<wgs84Lat>37.4852532086</wgs84Lat>
				<wgs84Lon>126.9805795453</wgs84Lon>
			</item>
			<item>
				<dutyName>연세우수의원</dutyName>
				<dutyTel1>02-821-1531</dutyTel1>
				<dutyTime1c>1830</dutyTime1c>
				<dutyTime1s>900</dutyTime1s>
				<wgs84Lat>37.5064375075902</wgs84Lat>
				<wgs84Lon>126.961520957324</wgs84Lon>
			</item>
			<item>
				<dutyName>연세의원</dutyName>
				<dutyTel1>02-817-9226</dutyTel1>
				<dutyTime1c>1800</dutyTime1c>
				<dutyTime1s>900</dutyTime1s>
				<wgs84Lat>37.5002264786539</wgs84Lat>
				<wgs84Lon>126.950747081428</wgs84Lon>
			</item>
			<item>
				<dutyName>연세자연의원</dutyName>
				<dutyTel1>02-812-4945</dutyTel1>
				<dutyTime1c>1800</dutyTime1c>
				<dutyTime1s>1000</dutyTime1s>
				<wgs84Lat>37.4995113311718</wgs84Lat>
				<wgs84Lon>126.926069314786</wgs84Lon>
			</item>
			<item>
				<dutyName>연세자연치과의원</dutyName>
				<dutyTel1>02-821-8275</dutyTel1>
				<dutyTime1c>1830</dutyTime1c>
				<dutyTime1s>930</dutyTime1s>
				<wgs84Lat>37.504579592386</wgs84Lat>
				<wgs84Lon>126.949454921557</wgs84Lon>
			</item>
			<item>
				<dutyName>연세재활의학과의원</dutyName>
				<dutyTel1>02-823-6782</dutyTel1>
				<dutyTime1c>1830</dutyTime1c>
				<dutyTime1s>910</dutyTime1s>
				<wgs84Lat>37.5006321167128</wgs84Lat>
				<wgs84Lon>126.931844805983</wgs84Lon>
			</item>
			<item>
				<dutyName>연세제일치과의원</dutyName>
				<dutyTel1>02-814-0858</dutyTel1>
				<dutyTime1c>1830</dutyTime1c>
				<dutyTime1s>1000</dutyTime1s>
				<wgs84Lat>37.5133805555556</wgs84Lat>
				<wgs84Lon>126.942558333333</wgs84Lon>
			</item>
			<item>
				<dutyName>연세조이의원</dutyName>
				<dutyTel1>02-816-8300</dutyTel1>
				<dutyTime1c>1900</dutyTime1c>
				<dutyTime1s>930</dutyTime1s>
				<wgs84Lat>37.4998438901644</wgs84Lat>
				<wgs84Lon>126.929607516339</wgs84Lon>
			</item>
			<item>
				<dutyName>연세좋은치과의원</dutyName>
				<dutyTel1>02-816-2800</dutyTel1>
				<dutyTime1c>1830</dutyTime1c>
				<dutyTime1s>1000</dutyTime1s>
				<wgs84Lat>37.5045888187497</wgs84Lat>
				<wgs84Lon>126.937355671488</wgs84Lon>
			</item>
			<item>
				<dutyName>연세치과의원</dutyName>
				<dutyTel1>02-815-2828</dutyTel1>
				<dutyTime1c>1830</dutyTime1c>
				<dutyTime1s>930</dutyTime1s>
				<wgs84Lat>37.5054272984505</wgs84Lat>
				<wgs84Lon>126.94318418779</wgs84Lon>
			</item>
			<item>
				<dutyName>연세프라임치과의원</dutyName>
				<dutyTel1>02-822-5753</dutyTel1>
				<dutyTime1c>1900</dutyTime1c>
				<dutyTime1s>1000</dutyTime1s>
				<wgs84Lat>37.4967719381072</wgs84Lat>
				<wgs84Lon>126.952832227122</wgs84Lon>
			</item>
			<item>
				<dutyName>연세피부과의원</dutyName>
				<dutyTel1>02-843-4414</dutyTel1>
				<dutyTime1c>1830</dutyTime1c>
				<dutyTime1s>930</dutyTime1s>
				<wgs84Lat>37.4908384150687</wgs84Lat>
				<wgs84Lon>126.908519773366</wgs84Lon>
			</item>
			<item>
				<dutyName>연세하늘치과의원</dutyName>
				<dutyTel1>02-3280-7575</dutyTel1>
				<dutyTime1c>1830</dutyTime1c>
				<dutyTime1s>930</dutyTime1s>
				<wgs84Lat>37.4964756248</wgs84Lat>
				<wgs84Lon>126.9530293038</wgs84Lon>
			</item>
			<item>
				<dutyName>연세한의원</dutyName>
				<dutyTel1>02-599-8275</dutyTel1>
				<dutyTime1c>1900</dutyTime1c>
				<dutyTime1s>1000</dutyTime1s>
				<wgs84Lat>37.4846154681</wgs84Lat>
				<wgs84Lon>126.9816651481</wgs84Lon>
			</item>
			<item>
				<dutyName>연세한이비인후과의원</dutyName>
				<dutyTel1>02-816-3178</dutyTel1>
				<dutyTime1c>1900</dutyTime1c>
				<dutyTime1s>900</dutyTime1s>
				<wgs84Lat>37.5004515176931</wgs84Lat>
				<wgs84Lon>126.932141319631</wgs84Lon>
			</item>
			<item>
				<dutyName>연세흉부외과의원</dutyName>
				<dutyTel1>02-523-7007</dutyTel1>
				<dutyTime1c>1730</dutyTime1c>
				<dutyTime1s>900</dutyTime1s>
				<wgs84Lat>37.4787444439808</wgs84Lat>
				<wgs84Lon>126.981345499075</wgs84Lon>
			</item>
			<item>
				<dutyName>연합소화내과의원</dutyName>
				<dutyTel1>02-525-8575</dutyTel1>
				<dutyTime1c>1800</dutyTime1c>
				<dutyTime1s>900</dutyTime1s>
				<wgs84Lat>37.48330199562</wgs84Lat>
				<wgs84Lon>126.973289675328</wgs84Lon>
			</item>
			<item>
				<dutyName>연희산부인과의원</dutyName>
				<dutyTel1>02-599-6600</dutyTel1>
				<dutyTime1c>1800</dutyTime1c>
				<dutyTime1s>930</dutyTime1s>
				<wgs84Lat>37.4844454693261</wgs84Lat>
				<wgs84Lon>126.972319108584</wgs84Lon>
			</item>
			<item>
				<dutyName>영광한의원</dutyName>
				<dutyTel1>02-599-5577</dutyTel1>
				<dutyTime1c>1800</dutyTime1c>
				<dutyTime1s>930</dutyTime1s>
				<wgs84Lat>37.4846727146632</wgs84Lat>
				<wgs84Lon>126.979186736615</wgs84Lon>
			</item>
			<item>
				<dutyName>예사랑재활의학과의원</dutyName>
				<dutyTel1>02-813-5700</dutyTel1>
				<dutyTime1c>1900</dutyTime1c>
				<dutyTime1s>900</dutyTime1s>
				<wgs84Lat>37.5042391962245</wgs84Lat>
				<wgs84Lon>126.938448648203</wgs84Lon>
			</item>
			<item>
				<dutyName>예성의원</dutyName>
				<dutyTel1>02-816-6561</dutyTel1>
				<dutyTime1c>1900</dutyTime1c>
				<dutyTime1s>900</dutyTime1s>
				<wgs84Lat>37.4994388441731</wgs84Lat>
				<wgs84Lon>126.931253334318</wgs84Lon>
			</item>
			<item>
				<dutyName>예울치과의원</dutyName>
				<dutyTel1>02-822-2875</dutyTel1>
				<dutyTime1c>1830</dutyTime1c>
				<dutyTime1s>1000</dutyTime1s>
				<wgs84Lat>37.5094357434671</wgs84Lat>
				<wgs84Lon>126.924548272686</wgs84Lon>
			</item>
			<item>
				<dutyName>예일성모내과의원</dutyName>
				<dutyTel1>02-813-0075</dutyTel1>
				<dutyTime1c>1900</dutyTime1c>
				<dutyTime1s>900</dutyTime1s>
				<wgs84Lat>37.498001625224</wgs84Lat>
				<wgs84Lon>126.927484348734</wgs84Lon>
			</item>
			<item>
				<dutyName>예일의원</dutyName>
				<dutyTel1>02-582-6977</dutyTel1>
				<dutyTime1c>1900</dutyTime1c>
				<dutyTime1s>900</dutyTime1s>
				<wgs84Lat>37.4846636460061</wgs84Lat>
				<wgs84Lon>126.981644673589</wgs84Lon>
			</item>
			<item>
				<dutyName>오늘하루치과의원</dutyName>
				<dutyTel1>02-794-8575</dutyTel1>
				<dutyTime1c>1830</dutyTime1c>
				<dutyTime1s>1000</dutyTime1s>
				<wgs84Lat>37.4769345208</wgs84Lat>
				<wgs84Lon>126.9773618959</wgs84Lon>
			</item>
			<item>
				<dutyName>오렌지이비인후과의원</dutyName>
				<dutyTel1>02-532-3003</dutyTel1>
				<dutyTime1c>1900</dutyTime1c>
				<dutyTime1s>900</dutyTime1s>
				<wgs84Lat>37.4844454737949</wgs84Lat>
				<wgs84Lon>126.972337199024</wgs84Lon>
			</item>
			<item>
				<dutyName>오렌지한의원</dutyName>
				<dutyTel1>02-539-9999</dutyTel1>
				<dutyTime1c>1900</dutyTime1c>
				<dutyTime1s>930</dutyTime1s>
				<wgs84Lat>37.4823216769367</wgs84Lat>
				<wgs84Lon>126.973163373305</wgs84Lon>
			</item>
			<item>
				<dutyName>오아로피부과의원</dutyName>
				<dutyTel1>02-6951-0370</dutyTel1>
				<dutyTime1c>2000</dutyTime1c>
				<dutyTime1s>1000</dutyTime1s>
				<wgs84Lat>37.4844387537</wgs84Lat>
				<wgs84Lon>126.9809279999</wgs84Lon>
			</item>
			<item>
				<dutyName>오연상내과의원</dutyName>
				<dutyTel1>02-812-7811</dutyTel1>
				<dutyTime1c>1800</dutyTime1c>
				<dutyTime1s>930</dutyTime1s>
				<wgs84Lat>37.5077570256482</wgs84Lat>
				<wgs84Lon>126.9628955543</wgs84Lon>
			</item>
			<item>
				<dutyName>오은정한의원</dutyName>
				<dutyTel1>02-822-8482</dutyTel1>
				<dutyTime1c>1900</dutyTime1c>
				<dutyTime1s>930</dutyTime1s>
				<wgs84Lat>37.5035248852989</wgs84Lat>
				<wgs84Lon>126.937092095569</wgs84Lon>
			</item>
			<item>
				<dutyName>온마취통증의학과의원</dutyName>
				<dutyTel1>02-835-7588</dutyTel1>
				<dutyTime1c>1830</dutyTime1c>
				<dutyTime1s>900</dutyTime1s>
				<wgs84Lat>37.4906938396958</wgs84Lat>
				<wgs84Lon>126.908426874707</wgs84Lon>
			</item>
			<item>
				<dutyName>온정한의원</dutyName>
				<dutyTel1>02-521-1075</dutyTel1>
				<dutyTime1c>1800</dutyTime1c>
				<dutyTime1s>900</dutyTime1s>
				<wgs84Lat>37.4823973017989</wgs84Lat>
				<wgs84Lon>126.972901039906</wgs84Lon>
			</item>
			<item>
				<dutyName>우리들강치과의원</dutyName>
				<dutyTel1>02-821-2876</dutyTel1>
				<dutyTime1c>1800</dutyTime1c>
				<dutyTime1s>1000</dutyTime1s>
				<wgs84Lat>37.4990764028216</wgs84Lat>
				<wgs84Lon>126.928763467895</wgs84Lon>
			</item>
			<item>
				<dutyName>우리들의원</dutyName>
				<dutyTel1>02-813-3640</dutyTel1>
				<dutyTime1c>1830</dutyTime1c>
				<dutyTime1s>900</dutyTime1s>
				<wgs84Lat>37.5070222222222</wgs84Lat>
				<wgs84Lon>126.965808333333</wgs84Lon>
			</item>
			<item>
				<dutyName>우리들치과의원</dutyName>
				<dutyTel1>02-821-2875</dutyTel1>
				<dutyTime1c>1800</dutyTime1c>
				<dutyTime1s>1000</dutyTime1s>
				<wgs84Lat>37.4990769501422</wgs84Lat>
				<wgs84Lon>126.928783846851</wgs84Lon>
			</item>
			<item>
				<dutyName>우리의원</dutyName>
				<dutyTel1>02-817-5159</dutyTel1>
				<dutyTime1c>1800</dutyTime1c>
				<dutyTime1s>900</dutyTime1s>
				<wgs84Lat>37.5011644481</wgs84Lat>
				<wgs84Lon>126.9374514241</wgs84Lon>
			</item>
			<item>
				<dutyName>우소아청소년과의원</dutyName>
				<dutyTel1>02-816-0777</dutyTel1>
				<dutyTime1c>1830</dutyTime1c>
				<dutyTime1s>900</dutyTime1s>
				<wgs84Lat>37.5078833333333</wgs84Lat>
				<wgs84Lon>126.962422222222</wgs84Lon>
			</item>
			<item>
				<dutyName>원광맥한의원</dutyName>
				<dutyTel1>02-823-8875</dutyTel1>
				<dutyTime1c>1900</dutyTime1c>
				<dutyTime1s>900</dutyTime1s>
				<wgs84Lat>37.4985327025836</wgs84Lat>
				<wgs84Lon>126.928711999343</wgs84Lon>
			</item>
			<item>
				<dutyName>월오한의원</dutyName>
				<dutyTel1>02-824-0519</dutyTel1>
				<dutyTime1c>2000</dutyTime1c>
				<dutyTime1s>800</dutyTime1s>
				<wgs84Lat>37.5063988730775</wgs84Lat>
				<wgs84Lon>126.940125247543</wgs84Lon>
			</item>
			<item>
				<dutyName>웰플란트치과의원</dutyName>
				<dutyTel1>02-822-0044</dutyTel1>
				<dutyTime1c>1830</dutyTime1c>
				<dutyTime1s>930</dutyTime1s>
				<wgs84Lat>37.5054236674565</wgs84Lat>
				<wgs84Lon>126.941792878396</wgs84Lon>
			</item>
			<item>
				<dutyName>윌치과의원</dutyName>
				<dutyTel1>02-3472-7527</dutyTel1>
				<dutyTime1c>2030</dutyTime1c>
				<dutyTime1s>1000</dutyTime1s>
				<wgs84Lat>37.4784899352555</wgs84Lat>
				<wgs84Lon>126.981365928775</wgs84Lon>
			</item>
			<item>
				<dutyName>윌튼치과의원</dutyName>
				<dutyTel1>02-812-7582</dutyTel1>
				<dutyTime1c>1830</dutyTime1c>
				<dutyTime1s>930</dutyTime1s>
				<wgs84Lat>37.4975388330872</wgs84Lat>
				<wgs84Lon>126.95309877163</wgs84Lon>
			</item>
			<item>
				<dutyName>유광수내과의원</dutyName>
				<dutyTel1>02-814-5955</dutyTel1>
				<dutyTime1c>1900</dutyTime1c>
				<dutyTime1s>900</dutyTime1s>
				<wgs84Lat>37.5001816469845</wgs84Lat>
				<wgs84Lon>126.931894983651</wgs84Lon>
			</item>
			<item>
				<dutyName>유내과의원</dutyName>
				<dutyTel1>02-825-2303</dutyTel1>
				<dutyTime1c>1830</dutyTime1c>
				<dutyTime1s>930</dutyTime1s>
				<wgs84Lat>37.4979387726785</wgs84Lat>
				<wgs84Lon>126.952829375624</wgs84Lon>
			</item>
			<item>
				<dutyName>유동기치과의원</dutyName>
				<dutyTel1>02-833-6969</dutyTel1>
				<dutyTime1c>1830</dutyTime1c>
				<dutyTime1s>930</dutyTime1s>
				<wgs84Lat>37.4912972222222</wgs84Lat>
				<wgs84Lon>126.924002777778</wgs84Lon>
			</item>
			<item>
				<dutyName>유라치과의원</dutyName>
				<dutyTel1>02-841-9373</dutyTel1>
				<dutyTime1c>1800</dutyTime1c>
				<dutyTime1s>930</dutyTime1s>
				<wgs84Lat>37.4907482439255</wgs84Lat>
				<wgs84Lon>126.908429425372</wgs84Lon>
			</item>
			<item>
				<dutyName>유영조내과의원</dutyName>
				<dutyTel1>02-826-8575</dutyTel1>
				<dutyTime1c>1900</dutyTime1c>
				<dutyTime1s>900</dutyTime1s>
				<wgs84Lat>37.504606505486</wgs84Lat>
				<wgs84Lon>126.937873816168</wgs84Lon>
			</item>
			<item>
				<dutyName>유지훈치과의원</dutyName>
				<dutyTel1>02-536-3113</dutyTel1>
				<dutyTime1c>1800</dutyTime1c>
				<dutyTime1s>1000</dutyTime1s>
				<wgs84Lat>37.4882916148521</wgs84Lat>
				<wgs84Lon>126.981881347829</wgs84Lon>
			</item>
			<item>
				<dutyName>윤기영소아청소년과의원</dutyName>
				<dutyTel1>02-824-1981</dutyTel1>
				<dutyTime1c>1800</dutyTime1c>
				<dutyTime1s>930</dutyTime1s>
				<wgs84Lat>37.5087433566811</wgs84Lat>
				<wgs84Lon>126.924519714101</wgs84Lon>
			</item>
			<item>
				<dutyName>윤석민치과의원</dutyName>
				<dutyTel1>02-822-7371</dutyTel1>
				<dutyTime1c>1800</dutyTime1c>
				<dutyTime1s>1000</dutyTime1s>
				<wgs84Lat>37.5031888888889</wgs84Lat>
				<wgs84Lon>126.936530555556</wgs84Lon>
			</item>
			<item>
				<dutyName>윤성한의원</dutyName>
				<dutyTel1>02-821-6611</dutyTel1>
				<dutyTime1c>1800</dutyTime1c>
				<dutyTime1s>1000</dutyTime1s>
				<wgs84Lat>37.4981413289948</wgs84Lat>
				<wgs84Lon>126.920554255006</wgs84Lon>
			</item>
			<item>
				<dutyName>윤영윤치과의원</dutyName>
				<dutyTel1>02-582-6044</dutyTel1>
				<dutyTime1c>1800</dutyTime1c>
				<dutyTime1s>1000</dutyTime1s>
				<wgs84Lat>37.4846384194941</wgs84Lat>
				<wgs84Lon>126.981653725514</wgs84Lon>
			</item>
			<item>
				<dutyName>윤정형외과의원</dutyName>
				<dutyTel1>02-813-4738</dutyTel1>
				<dutyTime1c>1830</dutyTime1c>
				<dutyTime1s>830</dutyTime1s>
				<wgs84Lat>37.5081737358621</wgs84Lat>
				<wgs84Lon>126.961477476231</wgs84Lon>
			</item>
			<item>
				<dutyName>윤철희치과의원</dutyName>
				<dutyTel1>02-533-7528</dutyTel1>
				<dutyTime1c>1830</dutyTime1c>
				<dutyTime1s>930</dutyTime1s>
				<wgs84Lat>37.4863142378198</wgs84Lat>
				<wgs84Lon>126.981395486654</wgs84Lon>
			</item>
			<item>
				<dutyName>윤치과의원</dutyName>
				<dutyTel1>02-3280-7939</dutyTel1>
				<dutyTime1c>1800</dutyTime1c>
				<dutyTime1s>1000</dutyTime1s>
				<wgs84Lat>37.4989754525198</wgs84Lat>
				<wgs84Lon>126.927838536787</wgs84Lon>
			</item>
			<item>
				<dutyName>윤한의원</dutyName>
				<dutyTel1>02-3411-5561</dutyTel1>
				<dutyTime1c>1800</dutyTime1c>
				<dutyTime1s>900</dutyTime1s>
				<wgs84Lat>37.488112432517</wgs84Lat>
				<wgs84Lon>126.980237159519</wgs84Lon>
			</item>
			<item>
				<dutyName>은행나무한의원</dutyName>
				<dutyTel1>02-585-1065</dutyTel1>
				<dutyTime1c>1900</dutyTime1c>
				<dutyTime1s>1000</dutyTime1s>
				<wgs84Lat>37.478340558383</wgs84Lat>
				<wgs84Lon>126.979966324879</wgs84Lon>
			</item>
			<item>
				<dutyName>의료법인덕수의료재단보라매요양병원</dutyName>
				<dutyTel1>02-812-7777</dutyTel1>
				<dutyTime1c>1730</dutyTime1c>
				<dutyTime1s>900</dutyTime1s>
				<wgs84Lat>37.4988842646943</wgs84Lat>
				<wgs84Lon>126.920664387032</wgs84Lon>
			</item>
			<item>
				<dutyName>의료법인성석의료재단동작경희병원</dutyName>
				<dutyTel1>02-822-8112</dutyTel1>
				<dutyTime1c>2400</dutyTime1c>
				<dutyTime1s>0</dutyTime1s>
				<wgs84Lat>37.5024826709245</wgs84Lat>
				<wgs84Lon>126.935867017596</wgs84Lon>
			</item>
			<item>
				<dutyName>의료법인성석의료재단동작경희한의원</dutyName>
				<dutyTel1>02-823-3357</dutyTel1>
				<dutyTime1c>1800</dutyTime1c>
				<dutyTime1s>900</dutyTime1s>
				<wgs84Lat>37.5025404235575</wgs84Lat>
				<wgs84Lon>126.936029822744</wgs84Lon>
			</item>
			<item>
				<dutyName>의료법인에이치엠피의료재단녹십초요양병원</dutyName>
				<dutyTel1>02-848-0100</dutyTel1>
				<dutyTime1c>1800</dutyTime1c>
				<dutyTime1s>900</dutyTime1s>
				<wgs84Lat>37.4883858468123</wgs84Lat>
				<wgs84Lon>126.90662053897</wgs84Lon>
			</item>
			<item>
				<dutyName>이경림산부인과의원</dutyName>
				<dutyTel1>02-581-2336</dutyTel1>
				<dutyTime1c>1800</dutyTime1c>
				<dutyTime1s>900</dutyTime1s>
				<wgs84Lat>37.4769019730529</wgs84Lat>
				<wgs84Lon>126.976787587351</wgs84Lon>
			</item>
			<item>
				<dutyName>이경수서울치과의원</dutyName>
				<dutyTel1>02-824-8275</dutyTel1>
				<dutyTime1c>1830</dutyTime1c>
				<dutyTime1s>930</dutyTime1s>
				<wgs84Lat>37.4995240478</wgs84Lat>
				<wgs84Lon>126.9300115439</wgs84Lon>
			</item>
			<item>
				<dutyName>이규성정형외과의원</dutyName>
				<dutyTel1>02-826-7500</dutyTel1>
				<dutyTime1c>1900</dutyTime1c>
				<dutyTime1s>900</dutyTime1s>
				<wgs84Lat>37.5046542192464</wgs84Lat>
				<wgs84Lon>126.939534035078</wgs84Lon>
			</item>
			<item>
				<dutyName>이나영피부과의원</dutyName>
				<dutyTel1>02-593-8889</dutyTel1>
				<dutyTime1c>1830</dutyTime1c>
				<dutyTime1s>930</dutyTime1s>
				<wgs84Lat>37.487970865735</wgs84Lat>
				<wgs84Lon>126.981944745328</wgs84Lon>
			</item>
			<item>
				<dutyName>이내과의원</dutyName>
				<dutyTel1>02-825-7533</dutyTel1>
				<dutyTime1c>1750</dutyTime1c>
				<dutyTime1s>910</dutyTime1s>
				<wgs84Lat>37.5042297373753</wgs84Lat>
				<wgs84Lon>126.922379958723</wgs84Lon>
			</item>
			<item>
				<dutyName>이레한의원</dutyName>
				<dutyTel1>02-3477-1079</dutyTel1>
				<dutyTime1c>2030</dutyTime1c>
				<dutyTime1s>930</dutyTime1s>
				<wgs84Lat>37.4863308712008</wgs84Lat>
				<wgs84Lon>126.980927518913</wgs84Lon>
			</item>
			<item>
				<dutyName>이사랑치과의원</dutyName>
				<dutyTel1>02-522-2875</dutyTel1>
				<dutyTime1c>1830</dutyTime1c>
				<dutyTime1s>930</dutyTime1s>
				<wgs84Lat>37.4831628018556</wgs84Lat>
				<wgs84Lon>126.973807521079</wgs84Lon>
			</item>
			<item>
				<dutyName>이선복치과의원</dutyName>
				<dutyTel1>02-823-4632</dutyTel1>
				<dutyTime1c>1800</dutyTime1c>
				<dutyTime1s>1000</dutyTime1s>
				<wgs84Lat>37.5041027777778</wgs84Lat>
				<wgs84Lon>126.939369444444</wgs84Lon>
			</item>
			<item>
				<dutyName>이수CDC어린이치과의원</dutyName>
				<dutyTel1>02-598-5275</dutyTel1>
				<dutyTime1c>1830</dutyTime1c>
				<dutyTime1s>1000</dutyTime1s>
				<wgs84Lat>37.4840316001888</wgs84Lat>
				<wgs84Lon>126.981620085024</wgs84Lon>
			</item>
			<item>
				<dutyName>이수경희한의원</dutyName>
				<dutyTel1>02-534-3688</dutyTel1>
				<dutyTime1c>1830</dutyTime1c>
				<dutyTime1s>930</dutyTime1s>
				<wgs84Lat>37.4848460384764</wgs84Lat>
				<wgs84Lon>126.9811540504</wgs84Lon>
			</item>
			<item>
				<dutyName>이수비뇨기과의원</dutyName>
				<dutyTel1>02-3474-1441</dutyTel1>
				<dutyTime1c>1830</dutyTime1c>
				<dutyTime1s>930</dutyTime1s>
				<wgs84Lat>37.4849087030722</wgs84Lat>
				<wgs84Lon>126.981554155919</wgs84Lon>
			</item>
			<item>
				<dutyName>이수스마트치과의원</dutyName>
				<dutyTel1>02-533-1028</dutyTel1>
				<dutyTime1c>2100</dutyTime1c>
				<dutyTime1s>1000</dutyTime1s>
				<wgs84Lat>37.4889367517</wgs84Lat>
				<wgs84Lon>126.9819806962</wgs84Lon>
			</item>
			<item>
				<dutyName>이수엠디성형외과의원</dutyName>
				<dutyTel1>02-594-8111</dutyTel1>
				<dutyTime1c>1800</dutyTime1c>
				<dutyTime1s>1000</dutyTime1s>
				<wgs84Lat>37.4849073814617</wgs84Lat>
				<wgs84Lon>126.981579145933</wgs84Lon>
			</item>
			<item>
				<dutyName>이수연세이비인후과의원</dutyName>
				<dutyTel1>02-533-1944</dutyTel1>
				<dutyTime1c>1900</dutyTime1c>
				<dutyTime1s>900</dutyTime1s>
				<wgs84Lat>37.4874807042423</wgs84Lat>
				<wgs84Lon>126.98185892953</wgs84Lon>
			</item>
			<item>
				<dutyName>이수의료소비자생활협동조합에스엠의원</dutyName>
				<dutyTel1>1599-4188</dutyTel1>
				<dutyTime1c>1900</dutyTime1c>
				<dutyTime1s>900</dutyTime1s>
				<wgs84Lat>37.4863308712008</wgs84Lat>
				<wgs84Lon>126.980927518913</wgs84Lon>
			</item>
			<item>
				<dutyName>이수정신건강의학과의원</dutyName>
				<dutyTel1>02-532-0135</dutyTel1>
				<dutyTime1c>1900</dutyTime1c>
				<dutyTime1s>930</dutyTime1s>
				<wgs84Lat>37.4874807042423</wgs84Lat>
				<wgs84Lon>126.98185892953</wgs84Lon>
			</item>
			<item>
				<dutyName>이수정안과의원</dutyName>
				<dutyTel1>02-882-0707</dutyTel1>
				<dutyTime1c>1830</dutyTime1c>
				<dutyTime1s>930</dutyTime1s>
				<wgs84Lat>37.4884567585408</wgs84Lat>
				<wgs84Lon>126.978131853754</wgs84Lon>
			</item>
			<item>
				<dutyName>이수한의원</dutyName>
				<dutyTel1>02-584-1075</dutyTel1>
				<dutyTime1c>1900</dutyTime1c>
				<dutyTime1s>930</dutyTime1s>
				<wgs84Lat>37.483997307875</wgs84Lat>
				<wgs84Lon>126.972136159771</wgs84Lon>
			</item>
			<item>
				<dutyName>이승진한의원</dutyName>
				<dutyTel1>02-525-6886</dutyTel1>
				<dutyTime1c>1830</dutyTime1c>
				<dutyTime1s>930</dutyTime1s>
				<wgs84Lat>37.4768878255125</wgs84Lat>
				<wgs84Lon>126.978239235594</wgs84Lon>
			</item>
			<item>
				<dutyName>이아름다운치과의원</dutyName>
				<dutyTel1>02-814-2828</dutyTel1>
				<dutyTime1c>1900</dutyTime1c>
				<dutyTime1s>1000</dutyTime1s>
				<wgs84Lat>37.4994280321939</wgs84Lat>
				<wgs84Lon>126.931253344448</wgs84Lon>
			</item>
			<item>
				<dutyName>이안과의원</dutyName>
				<dutyTel1>02-821-0070</dutyTel1>
				<dutyTime1c>1800</dutyTime1c>
				<dutyTime1s>930</dutyTime1s>
				<wgs84Lat>37.5078169527463</wgs84Lat>
				<wgs84Lon>126.961522900136</wgs84Lon>
			</item>
			<item>
				<dutyName>이앤이치과교정과치과의원</dutyName>
				<dutyTel1>02-599-2828</dutyTel1>
				<dutyTime1c>1830</dutyTime1c>
				<dutyTime1s>1000</dutyTime1s>
				<wgs84Lat>37.4877126679838</wgs84Lat>
				<wgs84Lon>126.981851915166</wgs84Lon>
			</item>
			<item>
				<dutyName>이앤이치과의원</dutyName>
				<dutyTel1>02-599-2828</dutyTel1>
				<dutyTime1c>1830</dutyTime1c>
				<dutyTime1s>930</dutyTime1s>
				<wgs84Lat>37.4876500868</wgs84Lat>
				<wgs84Lon>126.9818136602</wgs84Lon>
			</item>
			<item>
				<dutyName>이영록내과의원</dutyName>
				<dutyTel1>02-825-7525</dutyTel1>
				<dutyTime1c>1900</dutyTime1c>
				<dutyTime1s>900</dutyTime1s>
				<wgs84Lat>37.5128098472023</wgs84Lat>
				<wgs84Lon>126.931584650658</wgs84Lon>
			</item>
			<item>
				<dutyName>이오치과의원</dutyName>
