<?xml version="1.0" encoding="UTF-8" standalone="yes"?>
<response xmlns:xsi="http://www.w3.org/2001/XMLSchema-instance">
	<body>
		<items>
			<item>
				<dutyName>365연세의원</dutyName>
				<dutyTel1>02-2291-2211</dutyTel1>
				<dutyTime1c>1900</dutyTime1c>
				<dutyTime1s>900</dutyTime1s>
				<wgs84Lat>37.5665912196</wgs84Lat>
				<wgs84Lon>127.0240823503</wgs84Lon>
			</item>
			<item>
				<dutyName>4대회춘당한의원</dutyName>
				<dutyTel1>02-2291-2054</dutyTel1>
				<dutyTime1c>1900</dutyTime1c>
				<dutyTime1s>930</dutyTime1s>
				<wgs84Lat>37.5580481924482</wgs84Lat>
				<wgs84Lon>127.030870237899</wgs84Lon>
			</item>
			<item>
				<dutyName>9988병원</dutyName>
				<dutyTel1>02-2297-9988</dutyTel1>
				<dutyTime1c>1800</dutyTime1c>
				<dutyTime1s>900</dutyTime1s>
				<wgs84Lat>37.5586048975</wgs84Lat>
				<wgs84Lon>127.0374800703</wgs84Lon>
			</item>
			<item>
				<dutyName>가람경희한의원</dutyName>
				<dutyTel1>02-2294-0000</dutyTel1>
				<dutyTime1c>1900</dutyTime1c>
				<dutyTime1s>1030</dutyTime1s>
				<wgs84Lat>37.5479623046999</wgs84Lat>
				<wgs84Lon>127.023555810377</wgs84Lon>
			</item>
			<item>
				<dutyName>강남365치과의원</dutyName>
				<dutyTel1>02-2138-2875</dutyTel1>
				<dutyTime1c>1830</dutyTime1c>
				<dutyTime1s>930</dutyTime1s>
				<wgs84Lat>37.5543384489</wgs84Lat>
				<wgs84Lon>127.0198548398</wgs84Lon>
			</item>
			<item>
				<dutyName>강내과의원</dutyName>
				<dutyTel1>02-2243-3373</dutyTel1>
				<dutyTime1c>1830</dutyTime1c>
				<dutyTime1s>900</dutyTime1s>
				<wgs84Lat>37.5638066612289</wgs84Lat>
				<wgs84Lon>127.053102364008</wgs84Lon>
			</item>
			<item>
				<dutyName>강소아청소년과의원</dutyName>
				<dutyTel1>02-2299-0315</dutyTel1>
				<dutyTime1c>1800</dutyTime1c>
				<dutyTime1s>900</dutyTime1s>
				<wgs84Lat>37.5658452519662</wgs84Lat>
				<wgs84Lon>127.041947895889</wgs84Lon>
			</item>
			<item>
				<dutyName>강치과의원</dutyName>
				<dutyTel1>02-2282-5992</dutyTel1>
				<dutyTime1c>1830</dutyTime1c>
				<dutyTime1s>1000</dutyTime1s>
				<wgs84Lat>37.5625820424648</wgs84Lat>
				<wgs84Lon>127.035698418283</wgs84Lon>
			</item>
			<item>
				<dutyName>강태영내과의원</dutyName>
				<dutyTel1>02-2292-3575</dutyTel1>
				<dutyTime1c>1830</dutyTime1c>
				<dutyTime1s>900</dutyTime1s>
				<wgs84Lat>37.5665912196</wgs84Lat>
				<wgs84Lon>127.0240823503</wgs84Lon>
			</item>
			<item>
				<dutyName>강태욱피부과의원</dutyName>
				<dutyTel1>02-2291-9500</dutyTel1>
				<dutyTime1c>1900</dutyTime1c>
				<dutyTime1s>1000</dutyTime1s>
				<wgs84Lat>37.5565904269211</wgs84Lat>
				<wgs84Lon>127.028918812347</wgs84Lon>
			</item>
			<item>
				<dutyName>건강한의료복지사회적협동조합건강한마을치과의원</dutyName>
				<dutyTel1>02-2291-2275</dutyTel1>
				<dutyTime1c>1800</dutyTime1c>
				<dutyTime1s>1000</dutyTime1s>
				<wgs84Lat>37.5619937263767</wgs84Lat>
				<wgs84Lon>127.033905177033</wgs84Lon>
			</item>
			<item>
				<dutyName>경희금남한의원</dutyName>
				<dutyTel1>02-2291-1075</dutyTel1>
				<dutyTime1c>1900</dutyTime1c>
				<dutyTime1s>900</dutyTime1s>
				<wgs84Lat>37.5480347035</wgs84Lat>
				<wgs84Lon>127.0218991393</wgs84Lon>
			</item>
			<item>
				<dutyName>경희나래한의원</dutyName>
				<dutyTel1>02-2212-7738</dutyTel1>
				<dutyTime1c>2100</dutyTime1c>
				<dutyTime1s>930</dutyTime1s>
				<wgs84Lat>37.5650313342087</wgs84Lat>
				<wgs84Lon>127.054597312844</wgs84Lon>
			</item>
			<item>
				<dutyName>경희미르한의원</dutyName>
				<dutyTel1>02-2291-1033</dutyTel1>
				<dutyTime1c>2000</dutyTime1c>
				<dutyTime1s>900</dutyTime1s>
				<wgs84Lat>37.5417103481195</wgs84Lat>
				<wgs84Lon>127.017995788095</wgs84Lon>
			</item>
			<item>
				<dutyName>경희바른몸한의원</dutyName>
				<dutyTel1>02-2299-1239</dutyTel1>
				<dutyTime1c>1930</dutyTime1c>
				<dutyTime1s>930</dutyTime1s>
				<wgs84Lat>37.5411016595845</wgs84Lat>
				<wgs84Lon>127.015243793172</wgs84Lon>
			</item>
			<item>
				<dutyName>경희본한의원</dutyName>
				<dutyTel1>02-2296-1600</dutyTel1>
				<dutyTime1c>1930</dutyTime1c>
				<dutyTime1s>930</dutyTime1s>
				<wgs84Lat>37.5636882376282</wgs84Lat>
				<wgs84Lon>127.031606009118</wgs84Lon>
			</item>
			<item>
				<dutyName>경희서울숲한의원</dutyName>
				<dutyTel1>02-461-1075</dutyTel1>
				<dutyTime1c>1900</dutyTime1c>
				<dutyTime1s>930</dutyTime1s>
				<wgs84Lat>37.5385201997396</wgs84Lat>
				<wgs84Lon>127.054953627762</wgs84Lon>
			</item>
			<item>
				<dutyName>경희온정한의원</dutyName>
				<dutyTel1>02-498-8575</dutyTel1>
				<dutyTime1c>2100</dutyTime1c>
				<dutyTime1s>900</dutyTime1s>
				<wgs84Lat>37.5459753552518</wgs84Lat>
				<wgs84Lon>127.054275924272</wgs84Lon>
			</item>
			<item>
				<dutyName>경희원한의원</dutyName>
				<dutyTel1>02-706-1188</dutyTel1>
				<dutyTime1c>1830</dutyTime1c>
				<dutyTime1s>930</dutyTime1s>
				<wgs84Lat>37.5636344297</wgs84Lat>
				<wgs84Lon>127.0306506988</wgs84Lon>
			</item>
			<item>
				<dutyName>경희이지형한의원</dutyName>
				<dutyTel1>02-2294-0802</dutyTel1>
				<dutyTime1c>1900</dutyTime1c>
				<dutyTime1s>930</dutyTime1s>
				<wgs84Lat>37.553863084186</wgs84Lat>
				<wgs84Lon>127.034055405715</wgs84Lon>
			</item>
			<item>
				<dutyName>경희자람한의원</dutyName>
				<dutyTel1>02-2292-3371</dutyTel1>
				<dutyTime1c>1900</dutyTime1c>
				<dutyTime1s>930</dutyTime1s>
				<wgs84Lat>37.5630968316</wgs84Lat>
				<wgs84Lon>127.0328960674</wgs84Lon>
			</item>
			<item>
				<dutyName>경희한의원</dutyName>
				<dutyTel1>02-2299-4700</dutyTel1>
				<dutyTime1c>1900</dutyTime1c>
				<dutyTime1s>930</dutyTime1s>
				<wgs84Lat>37.5418697655961</wgs84Lat>
				<wgs84Lon>127.011129733204</wgs84Lon>
			</item>
			<item>
				<dutyName>경희함박한의원</dutyName>
				<dutyTel1>02-2299-8833</dutyTel1>
				<dutyTime1c>2000</dutyTime1c>
				<dutyTime1s>930</dutyTime1s>
				<wgs84Lat>37.5650525206794</wgs84Lat>
				<wgs84Lon>127.028917383715</wgs84Lon>
			</item>
			<item>
				<dutyName>고선용산부인과의원</dutyName>
				<dutyTel1>02-2292-4411</dutyTel1>
				<dutyTime1c>1830</dutyTime1c>
				<dutyTime1s>900</dutyTime1s>
				<wgs84Lat>37.5613929979104</wgs84Lat>
				<wgs84Lon>127.03478336915</wgs84Lon>
			</item>
			<item>
				<dutyName>고운미소치과의원</dutyName>
				<dutyTel1>02-2295-2875</dutyTel1>
				<dutyTime1c>1800</dutyTime1c>
				<dutyTime1s>930</dutyTime1s>
				<wgs84Lat>37.553863084186</wgs84Lat>
				<wgs84Lon>127.034055405715</wgs84Lon>
			</item>
			<item>
				<dutyName>고치과의원</dutyName>
				<dutyTel1>02-2291-9140</dutyTel1>
				<dutyTime1c>1900</dutyTime1c>
				<dutyTime1s>1000</dutyTime1s>
				<wgs84Lat>37.569915347686</wgs84Lat>
				<wgs84Lon>127.023712225676</wgs84Lon>
			</item>
			<item>
				<dutyName>국도한의원</dutyName>
				<dutyTel1>02-2298-9235</dutyTel1>
				<dutyTime1c>1800</dutyTime1c>
				<dutyTime1s>900</dutyTime1s>
				<wgs84Lat>37.5474739610859</wgs84Lat>
				<wgs84Lon>127.021062144387</wgs84Lon>
			</item>
			<item>
				<dutyName>굿모닝요양병원</dutyName>
				<dutyTel1>02-3394-9878</dutyTel1>
				<dutyTime1c>1800</dutyTime1c>
				<dutyTime1s>900</dutyTime1s>
				<wgs84Lat>37.5606928433</wgs84Lat>
				<wgs84Lon>127.0672070476</wgs84Lon>
			</item>
			<item>
				<dutyName>굿모닝치과의원</dutyName>
				<dutyTel1>02-2253-1875</dutyTel1>
				<dutyTime1c>1800</dutyTime1c>
				<dutyTime1s>1000</dutyTime1s>
				<wgs84Lat>37.5482932942469</wgs84Lat>
				<wgs84Lon>127.0262718361</wgs84Lon>
			</item>
			<item>
				<dutyName>권교선내과의원</dutyName>
				<dutyTel1>02-2295-0630</dutyTel1>
				<dutyTime1c>1830</dutyTime1c>
				<dutyTime1s>900</dutyTime1s>
				<wgs84Lat>37.5480963727455</wgs84Lat>
				<wgs84Lon>127.019586141743</wgs84Lon>
			</item>
			<item>
				<dutyName>그린치과의원</dutyName>
				<dutyTel1>02-2232-8965</dutyTel1>
				<dutyTime1c>1830</dutyTime1c>
				<dutyTime1s>1000</dutyTime1s>
				<wgs84Lat>37.5488765793284</wgs84Lat>
				<wgs84Lon>127.01643190071</wgs84Lon>
			</item>
			<item>
				<dutyName>금산미학한의원</dutyName>
				<dutyTel1>1577-0661</dutyTel1>
				<dutyTime1c>1800</dutyTime1c>
				<dutyTime1s>1000</dutyTime1s>
				<wgs84Lat>37.5474939267</wgs84Lat>
				<wgs84Lon>127.0228359569</wgs84Lon>
			</item>
			<item>
				<dutyName>금성한의원</dutyName>
				<dutyTel1>02-2297-9923</dutyTel1>
				<dutyTime1c>1700</dutyTime1c>
				<dutyTime1s>900</dutyTime1s>
				<wgs84Lat>37.5480601037567</wgs84Lat>
				<wgs84Lon>127.020921446065</wgs84Lon>
			</item>
			<item>
				<dutyName>금호경희한의원</dutyName>
				<dutyTel1>02-2254-0088</dutyTel1>
				<dutyTime1c>1830</dutyTime1c>
				<dutyTime1s>930</dutyTime1s>
				<wgs84Lat>37.548366047217</wgs84Lat>
				<wgs84Lon>127.023048989388</wgs84Lon>
			</item>
			<item>
				<dutyName>금호의원</dutyName>
				<dutyTel1>02-2291-2543</dutyTel1>
				<dutyTime1c>1900</dutyTime1c>
				<dutyTime1s>900</dutyTime1s>
				<wgs84Lat>37.5555268972</wgs84Lat>
				<wgs84Lon>127.0244816868</wgs84Lon>
			</item>
			<item>
				<dutyName>금호정형외과의원</dutyName>
				<dutyTel1>02-2291-7674</dutyTel1>
				<dutyTime1c>1900</dutyTime1c>
				<dutyTime1s>900</dutyTime1s>
				<wgs84Lat>37.5540824713651</wgs84Lat>
				<wgs84Lon>127.020407047788</wgs84Lon>
			</item>
			<item>
				<dutyName>금호중앙의원</dutyName>
				<dutyTel1>02-2238-5100</dutyTel1>
				<dutyTime1c>1900</dutyTime1c>
				<dutyTime1s>900</dutyTime1s>
				<wgs84Lat>37.548442025602</wgs84Lat>
				<wgs84Lon>127.021514505068</wgs84Lon>
			</item>
			<item>
				<dutyName>금호치과의원</dutyName>
				<dutyTel1>02-2236-3900</dutyTel1>
				<dutyTime1c>1800</dutyTime1c>
				<dutyTime1s>1000</dutyTime1s>
				<wgs84Lat>37.5543493120224</wgs84Lat>
				<wgs84Lon>127.01951987509</wgs84Lon>
			</item>
			<item>
				<dutyName>금호탑정형외과의원</dutyName>
				<dutyTel1>02-6005-0075</dutyTel1>
				<dutyTime1c>1900</dutyTime1c>
				<dutyTime1s>900</dutyTime1s>
				<wgs84Lat>37.548878927</wgs84Lat>
				<wgs84Lon>127.0164222765</wgs84Lon>
			</item>
			<item>
				<dutyName>금호한의원</dutyName>
				<dutyTel1>02-2295-6588</dutyTel1>
				<dutyTime1c>1900</dutyTime1c>
				<dutyTime1s>930</dutyTime1s>
				<wgs84Lat>37.5545233495931</wgs84Lat>
				<wgs84Lon>127.020851223465</wgs84Lon>
			</item>
			<item>
				<dutyName>김경환이비인후과의원</dutyName>
				<dutyTel1>02-2298-5727</dutyTel1>
				<dutyTime1c>1900</dutyTime1c>
				<dutyTime1s>900</dutyTime1s>
				<wgs84Lat>37.5565471982775</wgs84Lat>
				<wgs84Lon>127.028837311164</wgs84Lon>
			</item>
			<item>
				<dutyName>김동준피부과의원</dutyName>
				<dutyTel1>02-2281-6589</dutyTel1>
				<dutyTime1c>1830</dutyTime1c>
				<dutyTime1s>930</dutyTime1s>
				<wgs84Lat>37.5572536390655</wgs84Lat>
				<wgs84Lon>127.028556894617</wgs84Lon>
			</item>
			<item>
				<dutyName>김동환이비인후과의원</dutyName>
				<dutyTel1>02-2282-3369</dutyTel1>
				<dutyTime1c>1850</dutyTime1c>
				<dutyTime1s>915</dutyTime1s>
				<wgs84Lat>37.5547865084233</wgs84Lat>
				<wgs84Lon>127.020421239955</wgs84Lon>
			</item>
			<item>
				<dutyName>김상옥치과의원</dutyName>
				<dutyTel1>02-2245-5930</dutyTel1>
				<dutyTime1c>1800</dutyTime1c>
				<dutyTime1s>1000</dutyTime1s>
				<wgs84Lat>37.5660102571692</wgs84Lat>
				<wgs84Lon>127.053180803199</wgs84Lon>
			</item>
			<item>
				<dutyName>김양정형외과의원</dutyName>
				<dutyTel1>02-2298-2575</dutyTel1>
				<dutyTime1c>1900</dutyTime1c>
				<dutyTime1s>900</dutyTime1s>
				<wgs84Lat>37.543754200083</wgs84Lat>
				<wgs84Lon>127.01526243815</wgs84Lon>
			</item>
			<item>
				<dutyName>김요한소아청소년과의원</dutyName>
				<dutyTel1>02-2247-5069</dutyTel1>
				<dutyTime1c>1800</dutyTime1c>
				<dutyTime1s>900</dutyTime1s>
				<wgs84Lat>37.5644514381569</wgs84Lat>
				<wgs84Lon>127.053854362467</wgs84Lon>
			</item>
			<item>
				<dutyName>김용래치과의원</dutyName>
				<dutyTel1>02-2297-2720</dutyTel1>
				<dutyTime1c>1730</dutyTime1c>
				<dutyTime1s>930</dutyTime1s>
				<wgs84Lat>37.5481305555556</wgs84Lat>
				<wgs84Lon>127.022108333333</wgs84Lon>
			</item>
			<item>
				<dutyName>김용호정신건강의학과의원</dutyName>
				<dutyTel1>02-2291-4002</dutyTel1>
				<dutyTime1c>1800</dutyTime1c>
				<dutyTime1s>900</dutyTime1s>
				<wgs84Lat>37.5633060141057</wgs84Lat>
				<wgs84Lon>127.032348342827</wgs84Lon>
			</item>
			<item>
				<dutyName>김윤상 한의원</dutyName>
				<dutyTel1>02-2272-1075</dutyTel1>
				<dutyTime1c>1900</dutyTime1c>
				<dutyTime1s>900</dutyTime1s>
				<wgs84Lat>37.5501951412</wgs84Lat>
				<wgs84Lon>127.0306949874</wgs84Lon>
			</item>
			<item>
				<dutyName>김재명내과의원</dutyName>
				<dutyTel1>02-2238-7588</dutyTel1>
				<dutyTime1c>1830</dutyTime1c>
				<dutyTime1s>900</dutyTime1s>
				<wgs84Lat>37.5542303352463</wgs84Lat>
				<wgs84Lon>127.01981859622</wgs84Lon>
			</item>
			<item>
				<dutyName>김주필의원</dutyName>
				<dutyTel1>02-463-3321</dutyTel1>
				<dutyTime1c>1800</dutyTime1c>
				<dutyTime1s>930</dutyTime1s>
				<wgs84Lat>37.546236479342</wgs84Lat>
				<wgs84Lon>127.054696761797</wgs84Lon>
			</item>
			<item>
				<dutyName>김차현내과의원</dutyName>
				<dutyTel1>02-2294-4020</dutyTel1>
				<dutyTime1c>1800</dutyTime1c>
				<dutyTime1s>900</dutyTime1s>
				<wgs84Lat>37.5589185929332</wgs84Lat>
				<wgs84Lon>127.037009404456</wgs84Lon>
			</item>
			<item>
				<dutyName>김철규치과의원</dutyName>
				<dutyTel1>02-465-2402</dutyTel1>
				<dutyTime1c>1800</dutyTime1c>
				<dutyTime1s>1000</dutyTime1s>
				<wgs84Lat>37.5457216089111</wgs84Lat>
				<wgs84Lon>127.044982827059</wgs84Lon>
			</item>
			<item>
				<dutyName>김태화엔도내과의원</dutyName>
				<dutyTel1>02-2299-6908</dutyTel1>
				<dutyTime1c>1800</dutyTime1c>
				<dutyTime1s>900</dutyTime1s>
				<wgs84Lat>37.5601690074752</wgs84Lat>
				<wgs84Lon>127.041985573497</wgs84Lon>
			</item>
			<item>
				<dutyName>김희옥피부과의원</dutyName>
				<dutyTel1>02-2232-7582</dutyTel1>
				<dutyTime1c>1830</dutyTime1c>
				<dutyTime1s>930</dutyTime1s>
				<wgs84Lat>37.5484024005652</wgs84Lat>
				<wgs84Lon>127.021383245571</wgs84Lon>
			</item>
			<item>
				<dutyName>김희중비뇨기과의원</dutyName>
				<dutyTel1>02-2299-0398</dutyTel1>
				<dutyTime1c>1800</dutyTime1c>
				<dutyTime1s>930</dutyTime1s>
				<wgs84Lat>37.5619937220065</wgs84Lat>
				<wgs84Lon>127.033905197692</wgs84Lon>
			</item>
			<item>
				<dutyName>꿈나무소아청소년과의원</dutyName>
				<dutyTel1>02-2298-3133</dutyTel1>
				<dutyTime1c>1900</dutyTime1c>
				<dutyTime1s>900</dutyTime1s>
				<wgs84Lat>37.5665912196</wgs84Lat>
				<wgs84Lon>127.0240823503</wgs84Lon>
			</item>
			<item>
				<dutyName>나눔정신건강의학과의원</dutyName>
				<dutyTel1>02-2292-2555</dutyTel1>
				<dutyTime1c>1900</dutyTime1c>
				<dutyTime1s>930</dutyTime1s>
				<wgs84Lat>37.5629600939162</wgs84Lat>
				<wgs84Lon>127.032103734931</wgs84Lon>
			</item>
			<item>
				<dutyName>나우치과의원</dutyName>
				<dutyTel1>02-2298-7528</dutyTel1>
				<dutyTime1c>1800</dutyTime1c>
				<dutyTime1s>930</dutyTime1s>
				<wgs84Lat>37.565967340718</wgs84Lat>
				<wgs84Lon>127.043229253992</wgs84Lon>
			</item>
			<item>
				<dutyName>노을벗한의원</dutyName>
				<dutyTel1>02-567-7533</dutyTel1>
				<dutyTime1c>1800</dutyTime1c>
				<dutyTime1s>900</dutyTime1s>
				<wgs84Lat>37.5519057173193</wgs84Lat>
				<wgs84Lon>127.035412531046</wgs84Lon>
			</item>
			<item>
				<dutyName>뉴연세치과의원</dutyName>
				<dutyTel1>02-464-2814</dutyTel1>
				<dutyTime1c>1900</dutyTime1c>
				<dutyTime1s>1000</dutyTime1s>
				<wgs84Lat>37.5459897650476</wgs84Lat>
				<wgs84Lon>127.054289513402</wgs84Lon>
			</item>
			<item>
				<dutyName>뉴욕수치과의원</dutyName>
				<dutyTel1>02-794-7528</dutyTel1>
				<dutyTime1c>1830</dutyTime1c>
				<dutyTime1s>930</dutyTime1s>
				<wgs84Lat>37.5411016595845</wgs84Lat>
				<wgs84Lon>127.015243793172</wgs84Lon>
			</item>
			<item>
				<dutyName>늘푸른신경외과의원</dutyName>
				<dutyTel1>02-499-6536</dutyTel1>
				<dutyTime1c>1900</dutyTime1c>
				<dutyTime1s>900</dutyTime1s>
				<wgs84Lat>37.5371578214523</wgs84Lat>
				<wgs84Lon>127.055106485523</wgs84Lon>
			</item>
			<item>
				<dutyName>다니엘의원</dutyName>
				<dutyTel1>02-3409-1515</dutyTel1>
				<dutyTime1c>1900</dutyTime1c>
				<dutyTime1s>1000</dutyTime1s>
				<wgs84Lat>37.5451145122721</wgs84Lat>
				<wgs84Lon>127.057072254229</wgs84Lon>
			</item>
			<item>
				<dutyName>다스름한의원</dutyName>
				<dutyTel1>02-738-7522</dutyTel1>
				<dutyTime1c>1800</dutyTime1c>
				<dutyTime1s>900</dutyTime1s>
				<wgs84Lat>37.5678235802</wgs84Lat>
				<wgs84Lon>127.0250516712</wgs84Lon>
			</item>
			<item>
				<dutyName>다스림한의원</dutyName>
				<dutyTel1>02-714-1075</dutyTel1>
				<dutyTime1c>1900</dutyTime1c>
				<dutyTime1s>900</dutyTime1s>
				<wgs84Lat>37.5658799438</wgs84Lat>
				<wgs84Lon>127.0416626578</wgs84Lon>
			</item>
			<item>
				<dutyName>다움의원</dutyName>
				<dutyTel1>02-2297-1755</dutyTel1>
				<dutyTime1c>2100</dutyTime1c>
				<dutyTime1s>1030</dutyTime1s>
				<wgs84Lat>37.5627541699615</wgs84Lat>
				<wgs84Lon>127.033896466898</wgs84Lon>
			</item>
			<item>
				<dutyName>단비소아청소년과의원</dutyName>
				<dutyTel1>02-2281-2281</dutyTel1>
				<dutyTime1c>1800</dutyTime1c>
				<dutyTime1s>900</dutyTime1s>
				<wgs84Lat>37.5572919402688</wgs84Lat>
				<wgs84Lon>127.02854302438</wgs84Lon>
			</item>
			<item>
				<dutyName>단아안동서한의원</dutyName>
				<dutyTel1>02-463-3370</dutyTel1>
				<dutyTime1c>2000</dutyTime1c>
				<dutyTime1s>930</dutyTime1s>
				<wgs84Lat>37.5471805350932</wgs84Lat>
				<wgs84Lon>127.055118389308</wgs84Lon>
			</item>
			<item>
				<dutyName>더블에이의원</dutyName>
				<dutyTel1>02-2282-7553</dutyTel1>
				<dutyTime1c>1900</dutyTime1c>
				<dutyTime1s>1000</dutyTime1s>
				<wgs84Lat>37.5444402184005</wgs84Lat>
				<wgs84Lon>127.015430719679</wgs84Lon>
			</item>
			<item>
				<dutyName>더편한내과의원</dutyName>
				<dutyTel1>02-469-1888</dutyTel1>
				<dutyTime1c>1830</dutyTime1c>
				<dutyTime1s>800</dutyTime1s>
				<wgs84Lat>37.538509372</wgs84Lat>
				<wgs84Lon>127.0549988583</wgs84Lon>
			</item>
			<item>
				<dutyName>도선한의원</dutyName>
				<dutyTel1>02-2294-3757</dutyTel1>
				<dutyTime1c>1900</dutyTime1c>
				<dutyTime1s>900</dutyTime1s>
				<wgs84Lat>37.5660477962347</wgs84Lat>
				<wgs84Lon>127.035301528342</wgs84Lon>
			</item>
			<item>
				<dutyName>독일웰치과의원</dutyName>
				<dutyTel1>02-2057-2829</dutyTel1>
				<dutyTime1c>1830</dutyTime1c>
				<dutyTime1s>930</dutyTime1s>
				<wgs84Lat>37.5480731570424</wgs84Lat>
				<wgs84Lon>127.057567876462</wgs84Lon>
			</item>
			<item>
				<dutyName>독일윤치과의원</dutyName>
				<dutyTel1>02-2281-2879</dutyTel1>
				<dutyTime1c>1830</dutyTime1c>
				<dutyTime1s>930</dutyTime1s>
				<wgs84Lat>37.5442695810566</wgs84Lat>
				<wgs84Lon>127.015190123084</wgs84Lon>
			</item>
			<item>
				<dutyName>동명한의원</dutyName>
				<dutyTel1>02-2293-3375</dutyTel1>
				<dutyTime1c>1900</dutyTime1c>
				<dutyTime1s>930</dutyTime1s>
				<wgs84Lat>37.556567489</wgs84Lat>
				<wgs84Lon>127.0287464631</wgs84Lon>
			</item>
			<item>
				<dutyName>동심소아과의원</dutyName>
				<dutyTel1>02-2296-5575</dutyTel1>
				<dutyTime1c>1830</dutyTime1c>
				<dutyTime1s>900</dutyTime1s>
				<wgs84Lat>37.5565674890123</wgs84Lat>
				<wgs84Lon>127.028746463142</wgs84Lon>
			</item>
			<item>
				<dutyName>동원한의원</dutyName>
				<dutyTel1>02-2292-5902</dutyTel1>
				<dutyTime1c>1800</dutyTime1c>
				<dutyTime1s>900</dutyTime1s>
				<wgs84Lat>37.569182704</wgs84Lat>
				<wgs84Lon>127.0371322043</wgs84Lon>
			</item>
			<item>
				<dutyName>동일한의원</dutyName>
				<dutyTel1>02-924-8586</dutyTel1>
				<dutyTime1c>1830</dutyTime1c>
				<dutyTime1s>930</dutyTime1s>
				<wgs84Lat>37.5653320475536</wgs84Lat>
				<wgs84Lon>127.026333260357</wgs84Lon>
			</item>
			<item>
				<dutyName>동화한의원</dutyName>
				<dutyTel1>02-2293-9791</dutyTel1>
				<dutyTime1c>1800</dutyTime1c>
				<dutyTime1s>930</dutyTime1s>
				<wgs84Lat>37.5610378893724</wgs84Lat>
				<wgs84Lon>127.036507946156</wgs84Lon>
			</item>
			<item>
				<dutyName>두리의원</dutyName>
				<dutyTel1>02-2297-1158</dutyTel1>
				<dutyTime1c>1800</dutyTime1c>
				<dutyTime1s>900</dutyTime1s>
				<wgs84Lat>37.5470799697</wgs84Lat>
				<wgs84Lon>127.020070183</wgs84Lon>
			</item>
			<item>
				<dutyName>두리이비인후과의원</dutyName>
				<dutyTel1>02-464-0119</dutyTel1>
				<dutyTime1c>1930</dutyTime1c>
				<dutyTime1s>830</dutyTime1s>
				<wgs84Lat>37.546433559</wgs84Lat>
				<wgs84Lon>127.0491022687</wgs84Lon>
			</item>
			<item>
				<dutyName>뚝섬치과의원</dutyName>
				<dutyTel1>02-3409-5070</dutyTel1>
				<dutyTime1c>1800</dutyTime1c>
				<dutyTime1s>900</dutyTime1s>
				<wgs84Lat>37.5469444860251</wgs84Lat>
				<wgs84Lon>127.048944199761</wgs84Lon>
			</item>
			<item>
				<dutyName>뚝섬힐링치과의원</dutyName>
				<dutyTel1>02-464-2878</dutyTel1>
				<dutyTime1c>1830</dutyTime1c>
				<dutyTime1s>930</dutyTime1s>
				<wgs84Lat>37.546433559</wgs84Lat>
				<wgs84Lon>127.0491022687</wgs84Lon>
			</item>
			<item>
				<dutyName>라렌의원</dutyName>
				<dutyTel1>1600-8344</dutyTel1>
				<dutyTime1c>1900</dutyTime1c>
				<dutyTime1s>1000</dutyTime1s>
				<wgs84Lat>37.5621681423592</wgs84Lat>
				<wgs84Lon>127.033724324576</wgs84Lon>
			</item>
			<item>
				<dutyName>라임치과의원</dutyName>
				<dutyTel1>02-499-7528</dutyTel1>
				<dutyTime1c>1830</dutyTime1c>
				<dutyTime1s>930</dutyTime1s>
				<wgs84Lat>37.5432296822</wgs84Lat>
				<wgs84Lon>127.0569576419</wgs84Lon>
			</item>
			<item>
				<dutyName>로뎀나무의원</dutyName>
				<dutyTel1>02-2299-7585</dutyTel1>
				<dutyTime1c>1830</dutyTime1c>
				<dutyTime1s>1000</dutyTime1s>
				<wgs84Lat>37.5437794188346</wgs84Lat>
				<wgs84Lon>127.01529414751</wgs84Lon>
			</item>
			<item>
				<dutyName>리체부부치과의원</dutyName>
				<dutyTel1>02-3409-2275</dutyTel1>
				<dutyTime1c>1900</dutyTime1c>
				<dutyTime1s>1000</dutyTime1s>
				<wgs84Lat>37.547145323652</wgs84Lat>
				<wgs84Lon>127.048890338334</wgs84Lon>
			</item>
			<item>
				<dutyName>마스터신경외과의원</dutyName>
				<dutyTel1>02-461-8275</dutyTel1>
				<dutyTime1c>1830</dutyTime1c>
				<dutyTime1s>930</dutyTime1s>
				<wgs84Lat>37.5439107083</wgs84Lat>
				<wgs84Lon>127.0572252079</wgs84Lon>
			</item>
			<item>
				<dutyName>마장내과의원</dutyName>
				<dutyTel1>02-2088-2215</dutyTel1>
				<dutyTime1c>1900</dutyTime1c>
				<dutyTime1s>830</dutyTime1s>
				<wgs84Lat>37.5658799437529</wgs84Lat>
				<wgs84Lon>127.041662657768</wgs84Lon>
			</item>
			<item>
				<dutyName>맑은숲행복한백한의원</dutyName>
				<dutyTel1>02-2282-1075</dutyTel1>
				<dutyTime1c>1900</dutyTime1c>
				<dutyTime1s>900</dutyTime1s>
				<wgs84Lat>37.5637101556</wgs84Lat>
				<wgs84Lon>127.0304877422</wgs84Lon>
			</item>
			<item>
				<dutyName>맨하탄치과의원</dutyName>
				<dutyTel1>02-2281-0028</dutyTel1>
				<dutyTime1c>1800</dutyTime1c>
				<dutyTime1s>930</dutyTime1s>
				<wgs84Lat>37.5605265047342</wgs84Lat>
				<wgs84Lon>127.035267211827</wgs84Lon>
			</item>
			<item>
				<dutyName>메이퓨어의원</dutyName>
				<dutyTel1>02-2296-5628</dutyTel1>
				<dutyTime1c>2030</dutyTime1c>
				<dutyTime1s>1030</dutyTime1s>
				<wgs84Lat>37.5602848658469</wgs84Lat>
				<wgs84Lon>127.035837528508</wgs84Lon>
			</item>
			<item>
				<dutyName>명문한의원</dutyName>
				<dutyTel1>02-2294-1075</dutyTel1>
				<dutyTime1c>1900</dutyTime1c>
				<dutyTime1s>900</dutyTime1s>
				<wgs84Lat>37.5653466259299</wgs84Lat>
				<wgs84Lon>127.041458621763</wgs84Lon>
			</item>
			<item>
				<dutyName>명이비인후과의원</dutyName>
				<dutyTel1>02-2215-9468</dutyTel1>
				<dutyTime1c>1800</dutyTime1c>
				<dutyTime1s>900</dutyTime1s>
				<wgs84Lat>37.5634794113952</wgs84Lat>
				<wgs84Lon>127.055130357806</wgs84Lon>
			</item>
			<item>
				<dutyName>모든이치과의원</dutyName>
				<dutyTel1>02-2269-2808</dutyTel1>
				<dutyTime1c>1830</dutyTime1c>
				<dutyTime1s>930</dutyTime1s>
				<wgs84Lat>37.5516819405019</wgs84Lat>
				<wgs84Lon>127.026334115421</wgs84Lon>
			</item>
			<item>
				<dutyName>목치과의원</dutyName>
				<dutyTel1>02-2298-2275</dutyTel1>
				<dutyTime1c>1800</dutyTime1c>
				<dutyTime1s>930</dutyTime1s>
				<wgs84Lat>37.5637944444444</wgs84Lat>
				<wgs84Lon>127.030163888889</wgs84Lon>
			</item>
			<item>
				<dutyName>무학산부인과의원</dutyName>
				<dutyTel1>02-2296-8077</dutyTel1>
				<dutyTime1c>1900</dutyTime1c>
				<dutyTime1s>930</dutyTime1s>
				<wgs84Lat>37.5586600987089</wgs84Lat>
				<wgs84Lon>127.033677330685</wgs84Lon>
			</item>
			<item>
				<dutyName>무학한의원</dutyName>
				<dutyTel1>02-2292-0052</dutyTel1>
				<dutyTime1c>1830</dutyTime1c>
				<dutyTime1s>900</dutyTime1s>
				<wgs84Lat>37.5581129728376</wgs84Lat>
				<wgs84Lon>127.031200763243</wgs84Lon>
			</item>
			<item>
				<dutyName>문영호한의원</dutyName>
				<dutyTel1>02-466-1866</dutyTel1>
				<dutyTime1c>1900</dutyTime1c>
				<dutyTime1s>930</dutyTime1s>
				<wgs84Lat>37.5482002119815</wgs84Lat>
				<wgs84Lon>127.055648760726</wgs84Lon>
			</item>
			<item>
				<dutyName>문치과의원</dutyName>
				<dutyTel1>02-2282-3141</dutyTel1>
				<dutyTime1c>1800</dutyTime1c>
				<dutyTime1s>930</dutyTime1s>
				<wgs84Lat>37.5459771969136</wgs84Lat>
				<wgs84Lon>127.019744009933</wgs84Lon>
			</item>
			<item>
				<dutyName>미드림피부과의원</dutyName>
				<dutyTel1>02-2292-7700</dutyTel1>
				<dutyTime1c>2000</dutyTime1c>
				<dutyTime1s>1000</dutyTime1s>
				<wgs84Lat>37.5612524665087</wgs84Lat>
				<wgs84Lon>127.034701816196</wgs84Lon>
			</item>
			<item>
				<dutyName>미래신경과의원</dutyName>
				<dutyTel1>02-3395-8275</dutyTel1>
				<dutyTime1c>1900</dutyTime1c>
				<dutyTime1s>900</dutyTime1s>
				<wgs84Lat>37.5605625347629</wgs84Lat>
				<wgs84Lon>127.035285358442</wgs84Lon>
			</item>
			<item>
				<dutyName>미래연세내과의원</dutyName>
				<dutyTel1>02-2292-1120</dutyTel1>
				<dutyTime1c>1800</dutyTime1c>
				<dutyTime1s>830</dutyTime1s>
				<wgs84Lat>37.551663151786</wgs84Lat>
				<wgs84Lon>127.025734320352</wgs84Lon>
			</item>
			<item>
				<dutyName>미래치과의원</dutyName>
				<dutyTel1>02-6215-2275</dutyTel1>
				<dutyTime1c>1800</dutyTime1c>
				<dutyTime1s>1000</dutyTime1s>
				<wgs84Lat>37.5410958292327</wgs84Lat>
				<wgs84Lon>127.014606360819</wgs84Lon>
			</item>
			<item>
				<dutyName>미벨의원</dutyName>
				<dutyTel1>02-2298-3011</dutyTel1>
				<dutyTime1c>2100</dutyTime1c>
				<dutyTime1s>1000</dutyTime1s>
				<wgs84Lat>37.5605625347629</wgs84Lat>
				<wgs84Lon>127.035285358442</wgs84Lon>
			</item>
			<item>
				<dutyName>미사랑치과의원</dutyName>
				<dutyTel1>02-776-3550</dutyTel1>
				<dutyTime1c>1900</dutyTime1c>
				<dutyTime1s>1000</dutyTime1s>
				<wgs84Lat>37.5627257114706</wgs84Lat>
				<wgs84Lon>127.03256993327</wgs84Lon>
			</item>
			<item>
				<dutyName>미소가득치과의원</dutyName>
				<dutyTel1>02-2291-2805</dutyTel1>
				<dutyTime1c>1830</dutyTime1c>
				<dutyTime1s>930</dutyTime1s>
				<wgs84Lat>37.5636527777778</wgs84Lat>
				<wgs84Lon>127.030436111111</wgs84Lon>
			</item>
			<item>
				<dutyName>미소치과의원</dutyName>
				<dutyTel1>02-2282-2876</dutyTel1>
				<dutyTime1c>1800</dutyTime1c>
				<dutyTime1s>1000</dutyTime1s>
				<wgs84Lat>37.5482064388284</wgs84Lat>
				<wgs84Lon>127.014779609362</wgs84Lon>
			</item>
			<item>
				<dutyName>미플랜치과의원</dutyName>
				<dutyTel1>02-461-8228</dutyTel1>
				<dutyTime1c>2100</dutyTime1c>
				<dutyTime1s>1000</dutyTime1s>
				<wgs84Lat>37.5400869128429</wgs84Lat>
				<wgs84Lon>127.053276062245</wgs84Lon>
			</item>
			<item>
				<dutyName>민생한의원</dutyName>
				<dutyTel1>02-2299-3652</dutyTel1>
				<dutyTime1c>1800</dutyTime1c>
				<dutyTime1s>900</dutyTime1s>
				<wgs84Lat>37.5548609451239</wgs84Lat>
				<wgs84Lon>127.020312215833</wgs84Lon>
			</item>
			<item>
				<dutyName>민한의원</dutyName>
				<dutyTel1>02-2234-1075</dutyTel1>
				<dutyTime1c>1900</dutyTime1c>
				<dutyTime1s>930</dutyTime1s>
				<wgs84Lat>37.548597356903</wgs84Lat>
				<wgs84Lon>127.01944140356</wgs84Lon>
			</item>
			<item>
				<dutyName>바로심는치과의원</dutyName>
				<dutyTel1>02-2298-2888</dutyTel1>
				<dutyTime1c>1900</dutyTime1c>
				<dutyTime1s>1000</dutyTime1s>
				<wgs84Lat>37.5636882376</wgs84Lat>
				<wgs84Lon>127.0316060091</wgs84Lon>
			</item>
			<item>
				<dutyName>바른경희한의원</dutyName>
				<dutyTel1>02-591-1275</dutyTel1>
				<dutyTime1c>1900</dutyTime1c>
				<dutyTime1s>930</dutyTime1s>
				<wgs84Lat>37.5665912196</wgs84Lat>
				<wgs84Lon>127.0240823503</wgs84Lon>
			</item>
			<item>
				<dutyName>바른길재활의학과의원</dutyName>
				<dutyTel1>02-2296-7574</dutyTel1>
				<dutyTime1c>1900</dutyTime1c>
				<dutyTime1s>900</dutyTime1s>
				<wgs84Lat>37.5481756611</wgs84Lat>
				<wgs84Lon>127.0196133008</wgs84Lon>
			</item>
			<item>
				<dutyName>바른몸정형외과의원</dutyName>
				<dutyTel1>02-497-7755</dutyTel1>
				<dutyTime1c>1900</dutyTime1c>
				<dutyTime1s>900</dutyTime1s>
				<wgs84Lat>37.5365212111964</wgs84Lat>
				<wgs84Lon>127.05984451859</wgs84Lon>
			</item>
			<item>
				<dutyName>바른이안치과의원</dutyName>
				<dutyTel1>02-2282-7522</dutyTel1>
				<dutyTime1c>1830</dutyTime1c>
				<dutyTime1s>930</dutyTime1s>
				<wgs84Lat>37.5691639797</wgs84Lat>
				<wgs84Lon>127.0263470607</wgs84Lon>
			</item>
			<item>
				<dutyName>바른정한의원</dutyName>
				<dutyTel1>02-2245-7582</dutyTel1>
				<dutyTime1c>2100</dutyTime1c>
				<dutyTime1s>900</dutyTime1s>
				<wgs84Lat>37.5652261205</wgs84Lat>
				<wgs84Lon>127.0542352323</wgs84Lon>
			</item>
			<item>
				<dutyName>바른치과의원</dutyName>
				<dutyTel1>02-2292-2275</dutyTel1>
				<dutyTime1c>2100</dutyTime1c>
				<dutyTime1s>930</dutyTime1s>
				<wgs84Lat>37.5582708621662</wgs84Lat>
				<wgs84Lon>127.03371335169</wgs84Lon>
			</item>
			<item>
				<dutyName>박기연치과의원</dutyName>
				<dutyTel1>02-2281-2875</dutyTel1>
				<dutyTime1c>1830</dutyTime1c>
				<dutyTime1s>930</dutyTime1s>
				<wgs84Lat>37.5585953418425</wgs84Lat>
				<wgs84Lon>127.033287948171</wgs84Lon>
			</item>
			<item>
				<dutyName>박내과의원</dutyName>
				<dutyTel1>02-466-7729</dutyTel1>
				<dutyTime1c>1800</dutyTime1c>
				<dutyTime1s>900</dutyTime1s>
				<wgs84Lat>37.546222663</wgs84Lat>
				<wgs84Lon>127.0533976612</wgs84Lon>
			</item>
			<item>
				<dutyName>박산부인과의원</dutyName>
				<dutyTel1>02-2299-2211</dutyTel1>
				<dutyTime1c>1830</dutyTime1c>
				<dutyTime1s>930</dutyTime1s>
				<wgs84Lat>37.5640416592585</wgs84Lat>
				<wgs84Lon>127.03071427062</wgs84Lon>
			</item>
			<item>
				<dutyName>박소아과의원</dutyName>
				<dutyTel1>02-2291-9550</dutyTel1>
				<dutyTime1c>1830</dutyTime1c>
				<dutyTime1s>830</dutyTime1s>
				<wgs84Lat>37.5415634524</wgs84Lat>
				<wgs84Lon>127.0108988362</wgs84Lon>
			</item>
			<item>
				<dutyName>박승욱치과의원</dutyName>
				<dutyTel1>02-534-1400</dutyTel1>
				<dutyTime1c>1800</dutyTime1c>
				<dutyTime1s>930</dutyTime1s>
				<wgs84Lat>37.5623939618713</wgs84Lat>
				<wgs84Lon>127.033226255244</wgs84Lon>
			</item>
			<item>
				<dutyName>박안과의원</dutyName>
				<dutyTel1>02-467-7586</dutyTel1>
				<dutyTime1c>1700</dutyTime1c>
				<dutyTime1s>1000</dutyTime1s>
				<wgs84Lat>37.5453072790722</wgs84Lat>
				<wgs84Lon>127.057199433032</wgs84Lon>
			</item>
			<item>
				<dutyName>박용현비뇨기과의원</dutyName>
				<dutyTel1>02-2298-5022</dutyTel1>
				<dutyTime1c>1830</dutyTime1c>
				<dutyTime1s>930</dutyTime1s>
				<wgs84Lat>37.5613029219101</wgs84Lat>
				<wgs84Lon>127.034701838572</wgs84Lon>
			</item>
			<item>
				<dutyName>박플란트치과의원</dutyName>
				<dutyTel1>02-2296-8228</dutyTel1>
				<dutyTime1c>1830</dutyTime1c>
				<dutyTime1s>930</dutyTime1s>
				<wgs84Lat>37.5624040865</wgs84Lat>
				<wgs84Lon>127.0355850117</wgs84Lon>
			</item>
			<item>
				<dutyName>박형근정형외과의원</dutyName>
				<dutyTel1>02-2293-1338</dutyTel1>
				<dutyTime1c>1900</dutyTime1c>
				<dutyTime1s>900</dutyTime1s>
				<wgs84Lat>37.5615178045706</wgs84Lat>
				<wgs84Lon>127.034579529273</wgs84Lon>
			</item>
			<item>
				<dutyName>박희찬치과의원</dutyName>
				<dutyTel1>02-2295-4753</dutyTel1>
				<dutyTime1c>1830</dutyTime1c>
				<dutyTime1s>930</dutyTime1s>
				<wgs84Lat>37.5658837107749</wgs84Lat>
				<wgs84Lon>127.04527112291</wgs84Lon>
			</item>
			<item>
				<dutyName>밝은얼굴치과의원</dutyName>
				<dutyTel1>02-2292-7528</dutyTel1>
				<dutyTime1c>1800</dutyTime1c>
				<dutyTime1s>930</dutyTime1s>
				<wgs84Lat>37.5427882626</wgs84Lat>
				<wgs84Lon>127.015764646</wgs84Lon>
			</item>
			<item>
				<dutyName>밝은햇살한의원</dutyName>
				<dutyTel1>02-2243-6948</dutyTel1>
				<dutyTime1c>1800</dutyTime1c>
				<dutyTime1s>930</dutyTime1s>
				<wgs84Lat>37.5628159793142</wgs84Lat>
				<wgs84Lon>127.052173547999</wgs84Lon>
			</item>
			<item>
				<dutyName>베르니포레의원</dutyName>
				<dutyTel1>02-355-0117</dutyTel1>
				<dutyTime1c>1900</dutyTime1c>
				<dutyTime1s>1000</dutyTime1s>
				<wgs84Lat>37.5456755268</wgs84Lat>
				<wgs84Lon>127.0429142606</wgs84Lon>
			</item>
			<item>
				<dutyName>보은한의원</dutyName>
				<dutyTel1>02-499-3144</dutyTel1>
				<dutyTime1c>1900</dutyTime1c>
				<dutyTime1s>930</dutyTime1s>
				<wgs84Lat>37.5483660226005</wgs84Lat>
				<wgs84Lon>127.047333672585</wgs84Lon>
			</item>
			<item>
				<dutyName>봉산한의원</dutyName>
				<dutyTel1>02-2292-4892</dutyTel1>
				<dutyTime1c>1900</dutyTime1c>
				<dutyTime1s>1000</dutyTime1s>
				<wgs84Lat>37.5673825169466</wgs84Lat>
				<wgs84Lon>127.030851472027</wgs84Lon>
			</item>
			<item>
				<dutyName>비에스에치엘에이랩의원</dutyName>
				<dutyTel1>02-498-1250</dutyTel1>
				<dutyTime1c>1800</dutyTime1c>
				<dutyTime1s>900</dutyTime1s>
				<wgs84Lat>37.543113046935</wgs84Lat>
				<wgs84Lon>127.059596341304</wgs84Lon>
			</item>
			<item>
				<dutyName>사랑방한의원</dutyName>
				<dutyTel1>02-2038-3108</dutyTel1>
				<dutyTime1c>1900</dutyTime1c>
				<dutyTime1s>900</dutyTime1s>
				<wgs84Lat>37.5641606631</wgs84Lat>
				<wgs84Lon>127.0304517061</wgs84Lon>
			</item>
			<item>
				<dutyName>사랑아이소아청소년과의원</dutyName>
				<dutyTel1>02-2282-4321</dutyTel1>
				<dutyTime1c>1800</dutyTime1c>
				<dutyTime1s>900</dutyTime1s>
				<wgs84Lat>37.5692990598857</wgs84Lat>
				<wgs84Lon>127.023775431132</wgs84Lon>
			</item>
			<item>
				<dutyName>사랑의안과의원</dutyName>
				<dutyTel1>02-2281-2770</dutyTel1>
				<dutyTime1c>1800</dutyTime1c>
				<dutyTime1s>930</dutyTime1s>
				<wgs84Lat>37.5605625347629</wgs84Lat>
				<wgs84Lon>127.035285358442</wgs84Lon>
			</item>
			<item>
				<dutyName>사랑의치과의원</dutyName>
				<dutyTel1>02-2296-9494</dutyTel1>
				<dutyTime1c>1830</dutyTime1c>
				<dutyTime1s>930</dutyTime1s>
				<wgs84Lat>37.5621571205839</wgs84Lat>
				<wgs84Lon>127.034484906827</wgs84Lon>
			</item>
			<item>
				<dutyName>사운드치과의원</dutyName>
				<dutyTel1>02-554-2278</dutyTel1>
				<dutyTime1c>1800</dutyTime1c>
				<dutyTime1s>1000</dutyTime1s>
				<wgs84Lat>37.5483951130035</wgs84Lat>
				<wgs84Lon>127.02184492665</wgs84Lon>
			</item>
			<item>
				<dutyName>삼기당한의원</dutyName>
				<dutyTel1>02-2295-1239</dutyTel1>
				<dutyTime1c>1800</dutyTime1c>
				<dutyTime1s>1100</dutyTime1s>
				<wgs84Lat>37.5600396006241</wgs84Lat>
				<wgs84Lon>127.040994052115</wgs84Lon>
			</item>
			<item>
				<dutyName>삼성드림소아청소년과의원</dutyName>
				<dutyTel1>02-497-1007</dutyTel1>
				<dutyTime1c>1900</dutyTime1c>
				<dutyTime1s>900</dutyTime1s>
				<wgs84Lat>37.5371578214523</wgs84Lat>
				<wgs84Lon>127.055106485523</wgs84Lon>
			</item>
			<item>
				<dutyName>삼성드림의원</dutyName>
				<dutyTel1>02-2281-8875</dutyTel1>
				<dutyTime1c>1900</dutyTime1c>
				<dutyTime1s>900</dutyTime1s>
				<wgs84Lat>37.5549130984426</wgs84Lat>
				<wgs84Lon>127.034712585871</wgs84Lon>
			</item>
			<item>
				<dutyName>삼성마취통증의학과의원</dutyName>
				<dutyTel1>02-2294-7400</dutyTel1>
				<dutyTime1c>1830</dutyTime1c>
				<dutyTime1s>830</dutyTime1s>
				<wgs84Lat>37.5704764675</wgs84Lat>
				<wgs84Lon>127.0373411274</wgs84Lon>
			</item>
			<item>
				<dutyName>삼성키즈소아청소년과의원</dutyName>
				<dutyTel1>02-2296-8275</dutyTel1>
				<dutyTime1c>1830</dutyTime1c>
				<dutyTime1s>900</dutyTime1s>
				<wgs84Lat>37.5442695810566</wgs84Lat>
				<wgs84Lon>127.015190123084</wgs84Lon>
			</item>
			<item>
				<dutyName>삼성키즈아이(I)소아청소년과의원</dutyName>
				<dutyTel1>02-6959-0157</dutyTel1>
				<dutyTime1c>1830</dutyTime1c>
				<dutyTime1s>900</dutyTime1s>
				<wgs84Lat>37.5677344892129</wgs84Lat>
				<wgs84Lon>127.026070479697</wgs84Lon>
			</item>
			<item>
				<dutyName>삼성탑의원</dutyName>
				<dutyTel1>02-2299-8875</dutyTel1>
				<dutyTime1c>1830</dutyTime1c>
				<dutyTime1s>900</dutyTime1s>
				<wgs84Lat>37.5625806475831</wgs84Lat>
				<wgs84Lon>127.035698279839</wgs84Lon>
			</item>
			<item>
				<dutyName>상일치과의원</dutyName>
				<dutyTel1>02-2247-2875</dutyTel1>
				<dutyTime1c>1830</dutyTime1c>
				<dutyTime1s>930</dutyTime1s>
				<wgs84Lat>37.563599530699</wgs84Lat>
				<wgs84Lon>127.052882636772</wgs84Lon>
			</item>
			<item>
				<dutyName>새본재활의학과의원</dutyName>
				<dutyTel1>02-462-3308</dutyTel1>
				<dutyTime1c>1900</dutyTime1c>
				<dutyTime1s>900</dutyTime1s>
				<wgs84Lat>37.5448473118417</wgs84Lat>
				<wgs84Lon>127.054279655627</wgs84Lon>
			</item>
			<item>
				<dutyName>생명마루한의원</dutyName>
				<dutyTel1>02-2231-1475</dutyTel1>
				<dutyTime1c>2100</dutyTime1c>
				<dutyTime1s>930</dutyTime1s>
				<wgs84Lat>37.5488789269759</wgs84Lat>
				<wgs84Lon>127.016422276493</wgs84Lon>
			</item>
			<item>
				<dutyName>서울가정의학과의원</dutyName>
				<dutyTel1>02-2291-2258</dutyTel1>
				<dutyTime1c>1830</dutyTime1c>
				<dutyTime1s>900</dutyTime1s>
				<wgs84Lat>37.549903099091</wgs84Lat>
				<wgs84Lon>127.031129441711</wgs84Lon>
			</item>
			<item>
				<dutyName>서울경희한의원</dutyName>
				<dutyTel1>02-469-8400</dutyTel1>
				<dutyTime1c>1900</dutyTime1c>
				<dutyTime1s>930</dutyTime1s>
				<wgs84Lat>37.5392666660462</wgs84Lat>
				<wgs84Lon>127.054003724949</wgs84Lon>
			</item>
			<item>
				<dutyName>서울공감치과의원</dutyName>
				<dutyTel1>02-2253-2879</dutyTel1>
				<dutyTime1c>2030</dutyTime1c>
				<dutyTime1s>930</dutyTime1s>
				<wgs84Lat>37.5484420256</wgs84Lat>
				<wgs84Lon>127.0215145051</wgs84Lon>
			</item>
			<item>
				<dutyName>서울동인병원</dutyName>
				<dutyTel1>02-2281-6636</dutyTel1>
				<dutyTime1c>1800</dutyTime1c>
				<dutyTime1s>900</dutyTime1s>
				<wgs84Lat>37.565109113</wgs84Lat>
				<wgs84Lon>127.0280208145</wgs84Lon>
			</item>
			<item>
				<dutyName>서울라이프치과의원</dutyName>
				<dutyTel1>02-2281-7528</dutyTel1>
				<dutyTime1c>1900</dutyTime1c>
				<dutyTime1s>1000</dutyTime1s>
				<wgs84Lat>37.5677092161465</wgs84Lat>
				<wgs84Lon>127.026287798104</wgs84Lon>
			</item>
			<item>
				<dutyName>서울마취통증의학과의원</dutyName>
				<dutyTel1>02-2282-2522</dutyTel1>
				<dutyTime1c>1900</dutyTime1c>
				<dutyTime1s>900</dutyTime1s>
				<wgs84Lat>37.5617197280679</wgs84Lat>
				<wgs84Lon>127.034235546762</wgs84Lon>
			</item>
			<item>
				<dutyName>서울미래치과의원</dutyName>
				<dutyTel1>02-2200-1328</dutyTel1>
				<dutyTime1c>1900</dutyTime1c>
				<dutyTime1s>1000</dutyTime1s>
				<wgs84Lat>37.5606602804383</wgs84Lat>
				<wgs84Lon>127.038527048521</wgs84Lon>
			</item>
			<item>
				<dutyName>서울미소드림치과의원</dutyName>
				<dutyTel1>02-2299-7528</dutyTel1>
				<dutyTime1c>1830</dutyTime1c>
				<dutyTime1s>930</dutyTime1s>
				<wgs84Lat>37.5553934348345</wgs84Lat>
				<wgs84Lon>127.025006787816</wgs84Lon>
			</item>
			<item>
				<dutyName>서울미소치과의원</dutyName>
				<dutyTel1>02-462-2828</dutyTel1>
				<dutyTime1c>1730</dutyTime1c>
				<dutyTime1s>830</dutyTime1s>
				<wgs84Lat>37.5390163586063</wgs84Lat>
				<wgs84Lon>127.053673601849</wgs84Lon>
			</item>
			<item>
				<dutyName>서울미플란트치과의원</dutyName>
				<dutyTel1>02-2291-2871</dutyTel1>
				<dutyTime1c>1830</dutyTime1c>
				<dutyTime1s>930</dutyTime1s>
				<wgs84Lat>37.5481756610786</wgs84Lat>
				<wgs84Lon>127.019613300828</wgs84Lon>
			</item>
			<item>
				<dutyName>서울민트치과의원</dutyName>
				<dutyTel1>02-2282-2080</dutyTel1>
				<dutyTime1c>1830</dutyTime1c>
				<dutyTime1s>930</dutyTime1s>
				<wgs84Lat>37.5548770473709</wgs84Lat>
				<wgs84Lon>127.03475331165</wgs84Lon>
			</item>
			<item>
				<dutyName>서울보스톤치과의원</dutyName>
				<dutyTel1>02-468-0055</dutyTel1>
				<dutyTime1c>1830</dutyTime1c>
				<dutyTime1s>930</dutyTime1s>
				<wgs84Lat>37.5392600628909</wgs84Lat>
				<wgs84Lon>127.054170028424</wgs84Lon>
			</item>
			<item>
				<dutyName>서울비앤비치과의원</dutyName>
				<dutyTel1>02-469-2884</dutyTel1>
				<dutyTime1c>1900</dutyTime1c>
				<dutyTime1s>1000</dutyTime1s>
				<wgs84Lat>37.545530735628</wgs84Lat>
				<wgs84Lon>127.057176967734</wgs84Lon>
			</item>
			<item>
				<dutyName>서울빛치과의원</dutyName>
				<dutyTel1>02-2216-2875</dutyTel1>
				<dutyTime1c>2000</dutyTime1c>
				<dutyTime1s>930</dutyTime1s>
				<wgs84Lat>37.5647947221152</wgs84Lat>
				<wgs84Lon>127.053835388386</wgs84Lon>
			</item>
			<item>
				<dutyName>서울삼성치과의원</dutyName>
				<dutyTel1>02-2295-2262</dutyTel1>
				<dutyTime1c>1800</dutyTime1c>
				<dutyTime1s>1000</dutyTime1s>
				<wgs84Lat>37.5568102716468</wgs84Lat>
				<wgs84Lon>127.028905311898</wgs84Lon>
			</item>
			<item>
				<dutyName>서울성모이비인후과의원</dutyName>
				<dutyTel1>02-2298-4500</dutyTel1>
				<dutyTime1c>1900</dutyTime1c>
				<dutyTime1s>900</dutyTime1s>
				<wgs84Lat>37.5647245037701</wgs84Lat>
				<wgs84Lon>127.029161746373</wgs84Lon>
			</item>
			<item>
				<dutyName>서울성심의원</dutyName>
				<dutyTel1>02-465-4331</dutyTel1>
				<dutyTime1c>1900</dutyTime1c>
				<dutyTime1s>900</dutyTime1s>
				<wgs84Lat>37.5367422057787</wgs84Lat>
				<wgs84Lon>127.057518453182</wgs84Lon>
			</item>
			<item>
				<dutyName>서울숲치과의원</dutyName>
				<dutyTel1>02-466-0295</dutyTel1>
				<dutyTime1c>1830</dutyTime1c>
				<dutyTime1s>1000</dutyTime1s>
				<wgs84Lat>37.5391048963817</wgs84Lat>
				<wgs84Lon>127.046702126348</wgs84Lon>
			</item>
			<item>
				<dutyName>서울숲한의원</dutyName>
				<dutyTel1>02-467-3570</dutyTel1>
				<dutyTime1c>1900</dutyTime1c>
				<dutyTime1s>930</dutyTime1s>
				<wgs84Lat>37.541214401669</wgs84Lat>
				<wgs84Lon>127.045772672554</wgs84Lon>
			</item>
			<item>
				<dutyName>서울스마트치과의원</dutyName>
				<dutyTel1>02-462-2875</dutyTel1>
				<dutyTime1c>1900</dutyTime1c>
				<dutyTime1s>1000</dutyTime1s>
				<wgs84Lat>37.5448653296516</wgs84Lat>
				<wgs84Lon>127.054284194582</wgs84Lon>
			</item>
			<item>
				<dutyName>서울신경외과의원</dutyName>
				<dutyTel1>02-2282-3119</dutyTel1>
				<dutyTime1c>1800</dutyTime1c>
				<dutyTime1s>900</dutyTime1s>
				<wgs84Lat>37.5471303897627</wgs84Lat>
				<wgs84Lon>127.020251274393</wgs84Lon>
			</item>
			<item>
				<dutyName>서울연세병원</dutyName>
				<dutyTel1>02-2293-7582</dutyTel1>
				<dutyTime1c>2400</dutyTime1c>
				<dutyTime1s>0</dutyTime1s>
				<wgs84Lat>37.5606415653084</wgs84Lat>
				<wgs84Lon>127.036150079494</wgs84Lon>
			</item>
			<item>
				<dutyName>서울은치과의원</dutyName>
				<dutyTel1>02-497-2808</dutyTel1>
				<dutyTime1c>1830</dutyTime1c>
				<dutyTime1s>1000</dutyTime1s>
				<wgs84Lat>37.5369269283157</wgs84Lat>
				<wgs84Lon>127.055600781396</wgs84Lon>
			</item>
			<item>
				<dutyName>서울정형외과의원</dutyName>
				<dutyTel1>02-465-7321</dutyTel1>
				<dutyTime1c>1500</dutyTime1c>
				<dutyTime1s>830</dutyTime1s>
				<wgs84Lat>37.5484686612887</wgs84Lat>
				<wgs84Lon>127.06621836491</wgs84Lon>
			</item>
			<item>
				<dutyName>서울중앙병원</dutyName>
				<dutyTel1>02-2233-3993</dutyTel1>
				<dutyTime1c>1800</dutyTime1c>
				<dutyTime1s>900</dutyTime1s>
				<wgs84Lat>37.551977936938</wgs84Lat>
				<wgs84Lon>127.019234052328</wgs84Lon>
			</item>
			<item>
				<dutyName>서울중앙의원</dutyName>
				<dutyTel1>02-497-9095</dutyTel1>
				<dutyTime1c>1900</dutyTime1c>
				<dutyTime1s>900</dutyTime1s>
				<wgs84Lat>37.546114446285</wgs84Lat>
				<wgs84Lon>127.044964978255</wgs84Lon>
			</item>
			<item>
				<dutyName>서울특별시장애인치과병원</dutyName>
				<dutyTel1>02-2282-0001</dutyTel1>
				<dutyTime1c>1730</dutyTime1c>
				<dutyTime1s>900</dutyTime1s>
				<wgs84Lat>37.5667080489603</wgs84Lat>
				<wgs84Lon>127.0328071031</wgs84Lon>
			</item>
			<item>
				<dutyName>서울프라임병원</dutyName>
				<dutyTel1>02-464-2700</dutyTel1>
				<dutyTime1c>1800</dutyTime1c>
				<dutyTime1s>900</dutyTime1s>
				<wgs84Lat>37.5444004810797</wgs84Lat>
				<wgs84Lon>127.064911181342</wgs84Lon>
			</item>
			<item>
				<dutyName>서울필마취통증의학과의원</dutyName>
				<dutyTel1>02-2296-7575</dutyTel1>
				<dutyTime1c>1900</dutyTime1c>
				<dutyTime1s>900</dutyTime1s>
				<wgs84Lat>37.5481756611</wgs84Lat>
				<wgs84Lon>127.0196133008</wgs84Lon>
			</item>
			<item>
				<dutyName>서울하이안치과의원</dutyName>
				<dutyTel1>02-2291-2875</dutyTel1>
				<dutyTime1c>1900</dutyTime1c>
				<dutyTime1s>1000</dutyTime1s>
				<wgs84Lat>37.5618040246251</wgs84Lat>
				<wgs84Lon>127.034154259659</wgs84Lon>
			</item>
			<item>
				<dutyName>서울한의원</dutyName>
				<dutyTel1>02-2242-8386</dutyTel1>
				<dutyTime1c>1800</dutyTime1c>
				<dutyTime1s>900</dutyTime1s>
				<wgs84Lat>37.5543385691236</wgs84Lat>
				<wgs84Lon>127.034884038759</wgs84Lon>
			</item>
			<item>
				<dutyName>서울효사랑요양병원</dutyName>
				<dutyTel1>02-462-0114</dutyTel1>
				<dutyTime1c>1800</dutyTime1c>
				<dutyTime1s>900</dutyTime1s>
				<wgs84Lat>37.5411506554973</wgs84Lat>
				<wgs84Lon>127.063102462277</wgs84Lon>
			</item>
			<item>
				<dutyName>서이치과의원</dutyName>
				<dutyTel1>02-2295-2828</dutyTel1>
				<dutyTime1c>1830</dutyTime1c>
				<dutyTime1s>930</dutyTime1s>
				<wgs84Lat>37.5572788584864</wgs84Lat>
				<wgs84Lon>127.028593119796</wgs84Lon>
			</item>
			<item>
				<dutyName>성광한의원</dutyName>
				<dutyTel1>02-2299-7879</dutyTel1>
				<dutyTime1c>1800</dutyTime1c>
				<dutyTime1s>930</dutyTime1s>
				<wgs84Lat>37.5508378166824</wgs84Lat>
				<wgs84Lon>127.025829096346</wgs84Lon>
			</item>
			<item>
				<dutyName>성동구보건소</dutyName>
				<dutyTel1>02-2286-7000</dutyTel1>
				<dutyTime1c>1800</dutyTime1c>
				<dutyTime1s>900</dutyTime1s>
				<wgs84Lat>37.5670791452692</wgs84Lat>
				<wgs84Lon>127.033214753272</wgs84Lon>
			</item>
			<item>
				<dutyName>성동리아한의원</dutyName>
				<dutyTel1>02-2295-8875</dutyTel1>
				<dutyTime1c>1900</dutyTime1c>
				<dutyTime1s>930</dutyTime1s>
				<wgs84Lat>37.5581280968241</wgs84Lat>
				<wgs84Lon>127.033754275227</wgs84Lon>
			</item>
			<item>
				<dutyName>성동아이누리한의원</dutyName>
				<dutyTel1>02-2295-1275</dutyTel1>
				<dutyTime1c>1800</dutyTime1c>
				<dutyTime1s>1400</dutyTime1s>
				<wgs84Lat>37.5636882376282</wgs84Lat>
				<wgs84Lon>127.031606009118</wgs84Lon>
			</item>
			<item>
				<dutyName>성동재활의원</dutyName>
				<dutyTel1>02-2204-9970</dutyTel1>
				<dutyTime1c>1800</dutyTime1c>
				<dutyTime1s>1000</dutyTime1s>
				<wgs84Lat>37.5454289206069</wgs84Lat>
				<wgs84Lon>127.046947077584</wgs84Lon>
			</item>
			<item>
				<dutyName>성모가정의학과의원</dutyName>
				<dutyTel1>02-463-7582</dutyTel1>
				<dutyTime1c>1830</dutyTime1c>
				<dutyTime1s>900</dutyTime1s>
				<wgs84Lat>37.5469470017759</wgs84Lat>
				<wgs84Lon>127.049148216693</wgs84Lon>
			</item>
			<item>
				<dutyName>성모센트라스정형외과의원</dutyName>
				<dutyTel1>02-2291-1175</dutyTel1>
				<dutyTime1c>1900</dutyTime1c>
				<dutyTime1s>900</dutyTime1s>
				<wgs84Lat>37.5665912196</wgs84Lat>
				<wgs84Lon>127.0240823503</wgs84Lon>
			</item>
			<item>
				<dutyName>성산한의원</dutyName>
				<dutyTel1>02-2296-9090</dutyTel1>
				<dutyTime1c>1900</dutyTime1c>
				<dutyTime1s>900</dutyTime1s>
				<wgs84Lat>37.5632666418596</wgs84Lat>
				<wgs84Lon>127.031325152423</wgs84Lon>
			</item>
			<item>
				<dutyName>성수샤인한의원</dutyName>
				<dutyTel1>02-462-7249</dutyTel1>
				<dutyTime1c>1900</dutyTime1c>
				<dutyTime1s>930</dutyTime1s>
				<wgs84Lat>37.544238661674</wgs84Lat>
				<wgs84Lon>127.049254721794</wgs84Lon>
			</item>
			<item>
				<dutyName>성수성모내과의원</dutyName>
				<dutyTel1>02-467-6788</dutyTel1>
				<dutyTime1c>1830</dutyTime1c>
				<dutyTime1s>900</dutyTime1s>
				<wgs84Lat>37.53901094008</wgs84Lat>
				<wgs84Lon>127.05366860035</wgs84Lon>
			</item>
			<item>
				<dutyName>성수성모안과의원</dutyName>
				<dutyTel1>02-468-5555</dutyTel1>
				<dutyTime1c>1800</dutyTime1c>
				<dutyTime1s>900</dutyTime1s>
				<wgs84Lat>37.539007339023</wgs84Lat>
				<wgs84Lon>127.053650514619</wgs84Lon>
			</item>
			<item>
				<dutyName>성수연세의원</dutyName>
				<dutyTel1>02-497-7089</dutyTel1>
				<dutyTime1c>1830</dutyTime1c>
				<dutyTime1s>920</dutyTime1s>
				<wgs84Lat>37.5436415173661</wgs84Lat>
				<wgs84Lon>127.054889472741</wgs84Lon>
			</item>
			<item>
				<dutyName>성수연세이비인후과의원</dutyName>
				<dutyTel1>02-402-0600</dutyTel1>
				<dutyTime1c>1900</dutyTime1c>
				<dutyTime1s>900</dutyTime1s>
				<wgs84Lat>37.5453717022928</wgs84Lat>
				<wgs84Lon>127.05430233973</wgs84Lon>
			</item>
			<item>
				<dutyName>성수우리들안과의원</dutyName>
				<dutyTel1>02-499-0030</dutyTel1>
				<dutyTime1c>1830</dutyTime1c>
				<dutyTime1s>930</dutyTime1s>
				<wgs84Lat>37.5380419657062</wgs84Lat>
				<wgs84Lon>127.052540982009</wgs84Lon>
			</item>
			<item>
				<dutyName>성수의원</dutyName>
				<dutyTel1>02-468-7908</dutyTel1>
				<dutyTime1c>1830</dutyTime1c>
				<dutyTime1s>1000</dutyTime1s>
				<wgs84Lat>37.5442259524027</wgs84Lat>
				<wgs84Lon>127.049282272182</wgs84Lon>
			</item>
			<item>
				<dutyName>성수최이비인후과의원</dutyName>
				<dutyTel1>02-467-4174</dutyTel1>
				<dutyTime1c>1830</dutyTime1c>
				<dutyTime1s>900</dutyTime1s>
				<wgs84Lat>37.537843957526</wgs84Lat>
				<wgs84Lon>127.052074657916</wgs84Lon>
			</item>
			<item>
				<dutyName>성수한사랑의원</dutyName>
				<dutyTel1>02-2205-0896</dutyTel1>
				<dutyTime1c>1900</dutyTime1c>
				<dutyTime1s>900</dutyTime1s>
				<wgs84Lat>37.5390496044763</wgs84Lat>
				<wgs84Lon>127.047531470814</wgs84Lon>
			</item>
			<item>
				<dutyName>성심부부치과의원</dutyName>
				<dutyTel1>02-2297-7200</dutyTel1>
				<dutyTime1c>1800</dutyTime1c>
				<dutyTime1s>930</dutyTime1s>
				<wgs84Lat>37.5479361111111</wgs84Lat>
				<wgs84Lon>127.021497222222</wgs84Lon>
			</item>
			<item>
				<dutyName>성지한방내과한의원</dutyName>
				<dutyTel1>02-2233-1075</dutyTel1>
				<dutyTime1c>1800</dutyTime1c>
				<dutyTime1s>1000</dutyTime1s>
				<wgs84Lat>37.5484675703</wgs84Lat>
				<wgs84Lon>127.019699381</wgs84Lon>
			</item>
			<item>
				<dutyName>세명성모내과의원</dutyName>
				<dutyTel1>02-2282-2266</dutyTel1>
				<dutyTime1c>1800</dutyTime1c>
				<dutyTime1s>900</dutyTime1s>
				<wgs84Lat>37.5668707773389</wgs84Lat>
				<wgs84Lon>127.03075165321</wgs84Lon>
			</item>
			<item>
				<dutyName>센트라스서울안과의원</dutyName>
				<dutyTel1>02-2291-1001</dutyTel1>
				<dutyTime1c>1800</dutyTime1c>
				<dutyTime1s>930</dutyTime1s>
				<wgs84Lat>37.5665912196</wgs84Lat>
				<wgs84Lon>127.0240823503</wgs84Lon>
			</item>
			<item>
				<dutyName>센트라스치과의원</dutyName>
				<dutyTel1>02-2296-2385</dutyTel1>
				<dutyTime1c>1830</dutyTime1c>
				<dutyTime1s>930</dutyTime1s>
				<wgs84Lat>37.5665912196</wgs84Lat>
				<wgs84Lon>127.0240823503</wgs84Lon>
			</item>
			<item>
				<dutyName>소울치과의원</dutyName>
				<dutyTel1>02-2297-2875</dutyTel1>
				<dutyTime1c>1830</dutyTime1c>
				<dutyTime1s>930</dutyTime1s>
				<wgs84Lat>37.5652873598109</wgs84Lat>
				<wgs84Lon>127.02628246878</wgs84Lon>
			</item>
			<item>
				<dutyName>소정정신건강의학과의원</dutyName>
				<dutyTel1>02-469-0900</dutyTel1>
				<dutyTime1c>1830</dutyTime1c>
				<dutyTime1s>930</dutyTime1s>
				<wgs84Lat>37.546433559</wgs84Lat>
				<wgs84Lon>127.0491022687</wgs84Lon>
			</item>
			<item>
				<dutyName>소진백한의원</dutyName>
				<dutyTel1>02-2293-5474</dutyTel1>
				<dutyTime1c>1830</dutyTime1c>
				<dutyTime1s>1030</dutyTime1s>
				<wgs84Lat>37.5613533696741</wgs84Lat>
				<wgs84Lon>127.034729024474</wgs84Lon>
			</item>
			<item>
				<dutyName>손내과의원</dutyName>
				<dutyTel1>02-2298-8275</dutyTel1>
				<dutyTime1c>1830</dutyTime1c>
				<dutyTime1s>900</dutyTime1s>
				<wgs84Lat>37.557275265934</wgs84Lat>
				<wgs84Lon>127.028543321406</wgs84Lon>
			</item>
			<item>
				<dutyName>손치과의원</dutyName>
				<dutyTel1>02-462-3323</dutyTel1>
				<dutyTime1c>1830</dutyTime1c>
				<dutyTime1s>1000</dutyTime1s>
				<wgs84Lat>37.5497189922494</wgs84Lat>
				<wgs84Lon>127.047787488565</wgs84Lon>
			</item>
			<item>
				<dutyName>손한의원</dutyName>
				<dutyTel1>02-2297-7575</dutyTel1>
				<dutyTime1c>1830</dutyTime1c>
				<dutyTime1s>900</dutyTime1s>
				<wgs84Lat>37.5499103191051</wgs84Lat>
				<wgs84Lon>127.031102264486</wgs84Lon>
			</item>
			<item>
				<dutyName>송병용한의원</dutyName>
				<dutyTel1>02-462-6622</dutyTel1>
				<dutyTime1c>1900</dutyTime1c>
				<dutyTime1s>930</dutyTime1s>
				<wgs84Lat>37.546467672254</wgs84Lat>
				<wgs84Lon>127.044874662604</wgs84Lon>
			</item>
			<item>
				<dutyName>송보한의원</dutyName>
				<dutyTel1>02-2237-1275</dutyTel1>
				<dutyTime1c>1900</dutyTime1c>
				<dutyTime1s>900</dutyTime1s>
				<wgs84Lat>37.5484640353108</wgs84Lat>
				<wgs84Lon>127.019251276061</wgs84Lon>
			</item>
			<item>
				<dutyName>송봉근뉴하트내과의원</dutyName>
				<dutyTel1>02-466-1275</dutyTel1>
				<dutyTime1c>1900</dutyTime1c>
				<dutyTime1s>900</dutyTime1s>
				<wgs84Lat>37.5447518471732</wgs84Lat>
				<wgs84Lon>127.054243027765</wgs84Lon>
			</item>
			<item>
				<dutyName>송정한의원</dutyName>
				<dutyTel1>02-466-4460</dutyTel1>
				<dutyTime1c>1900</dutyTime1c>
				<dutyTime1s>1000</dutyTime1s>
				<wgs84Lat>37.5484329549229</wgs84Lat>
				<wgs84Lon>127.06562083409</wgs84Lon>
			</item>
			<item>
				<dutyName>송정훼밀리의원</dutyName>
				<dutyTel1>02-464-2633</dutyTel1>
				<dutyTime1c>1900</dutyTime1c>
				<dutyTime1s>900</dutyTime1s>
				<wgs84Lat>37.5501440372826</wgs84Lat>
				<wgs84Lon>127.067070850267</wgs84Lon>
			</item>
			<item>
				<dutyName>수왕십리내과의원</dutyName>
				<dutyTel1>02-3462-7005</dutyTel1>
				<dutyTime1c>1800</dutyTime1c>
				<dutyTime1s>900</dutyTime1s>
				<wgs84Lat>37.4823521312918</wgs84Lat>
				<wgs84Lon>127.058685805995</wgs84Lon>
			</item>
			<item>
				<dutyName>수이비인후과의원</dutyName>
				<dutyTel1>02-466-0008</dutyTel1>
				<dutyTime1c>1830</dutyTime1c>
				<dutyTime1s>900</dutyTime1s>
				<wgs84Lat>37.5469181773536</wgs84Lat>
				<wgs84Lon>127.049130092827</wgs84Lon>
			</item>
			<item>
				<dutyName>수치과의원</dutyName>
				<dutyTel1>02-2247-0532</dutyTel1>
				<dutyTime1c>1830</dutyTime1c>
				<dutyTime1s>930</dutyTime1s>
				<wgs84Lat>37.5652657506964</wgs84Lat>
				<wgs84Lon>127.05425565557</wgs84Lon>
			</item>
			<item>
				<dutyName>스누피부과의원</dutyName>
				<dutyTel1>02-499-6008</dutyTel1>
				<dutyTime1c>2000</dutyTime1c>
				<dutyTime1s>1000</dutyTime1s>
				<wgs84Lat>37.546433559</wgs84Lat>
				<wgs84Lon>127.0491022687</wgs84Lon>
			</item>
			<item>
				<dutyName>스마일치과의원</dutyName>
				<dutyTel1>02-498-6279</dutyTel1>
				<dutyTime1c>1900</dutyTime1c>
				<dutyTime1s>930</dutyTime1s>
				<wgs84Lat>37.537778943392</wgs84Lat>
				<wgs84Lon>127.052395949158</wgs84Lon>
			</item>
			<item>
				<dutyName>스타일치과의원</dutyName>
				<dutyTel1>02-2282-2119</dutyTel1>
				<dutyTime1c>1830</dutyTime1c>
				<dutyTime1s>930</dutyTime1s>
				<wgs84Lat>37.5613065398523</wgs84Lat>
				<wgs84Lon>127.034652040404</wgs84Lon>
			</item>
			<item>
				<dutyName>스타키즈치과의원</dutyName>
				<dutyTel1>02-2299-2877</dutyTel1>
				<dutyTime1c>1830</dutyTime1c>
				<dutyTime1s>1000</dutyTime1s>
				<wgs84Lat>37.5442695810566</wgs84Lat>
				<wgs84Lon>127.015190123084</wgs84Lon>
			</item>
			<item>
				<dutyName>시온요양병원</dutyName>
				<dutyTel1>02-2247-7272</dutyTel1>
				<dutyTime1c>1730</dutyTime1c>
				<dutyTime1s>900</dutyTime1s>
				<wgs84Lat>37.5604927473282</wgs84Lat>
				<wgs84Lon>127.067369773217</wgs84Lon>
			</item>
			<item>
				<dutyName>신범식한의원</dutyName>
				<dutyTel1>02-2298-4575</dutyTel1>
				<dutyTime1c>2000</dutyTime1c>
				<dutyTime1s>800</dutyTime1s>
				<wgs84Lat>37.5588440730046</wgs84Lat>
				<wgs84Lon>127.033088864679</wgs84Lon>
			</item>
			<item>
				<dutyName>신성치과의원</dutyName>
				<dutyTel1>02-464-1574</dutyTel1>
				<dutyTime1c>1900</dutyTime1c>
				<dutyTime1s>1000</dutyTime1s>
				<wgs84Lat>37.5446019286385</wgs84Lat>
				<wgs84Lon>127.054976523894</wgs84Lon>
			</item>
			<item>
				<dutyName>신세계마취통증의학과의원</dutyName>
				<dutyTel1>02-2292-3456</dutyTel1>
				<dutyTime1c>1900</dutyTime1c>
				<dutyTime1s>900</dutyTime1s>
				<wgs84Lat>37.5550447533</wgs84Lat>
				<wgs84Lon>127.0203122451</wgs84Lon>
			</item>
			<item>
				<dutyName>신한철치과의원</dutyName>
				<dutyTel1>02-2292-5050</dutyTel1>
				<dutyTime1c>1830</dutyTime1c>
				<dutyTime1s>1000</dutyTime1s>
				<wgs84Lat>37.5599710053161</wgs84Lat>
				<wgs84Lon>127.041351662452</wgs84Lon>
			</item>
			<item>
				<dutyName>신호균모두드림내과의원</dutyName>
				<dutyTel1>02-2295-5312</dutyTel1>
				<dutyTime1c>1730</dutyTime1c>
				<dutyTime1s>800</dutyTime1s>
				<wgs84Lat>37.5629073890968</wgs84Lat>
				<wgs84Lon>127.032085742452</wgs84Lon>
			</item>
			<item>
				<dutyName>씨엔에스치과의원</dutyName>
				<dutyTel1>02-2296-2881</dutyTel1>
				<dutyTime1c>1830</dutyTime1c>
				<dutyTime1s>930</dutyTime1s>
				<wgs84Lat>37.5629145934926</wgs84Lat>
				<wgs84Lon>127.032099327444</wgs84Lon>
			</item>
			<item>
				<dutyName>아름다운이치과의원</dutyName>
				<dutyTel1>02-2281-2828</dutyTel1>
				<dutyTime1c>1800</dutyTime1c>
				<dutyTime1s>930</dutyTime1s>
				<wgs84Lat>37.5628222222222</wgs84Lat>
				<wgs84Lon>127.033327777778</wgs84Lon>
			</item>
			<item>
				<dutyName>아이그루소아청소년과의원</dutyName>
				<dutyTel1>02-2295-7579</dutyTel1>
				<dutyTime1c>1830</dutyTime1c>
				<dutyTime1s>900</dutyTime1s>
				<wgs84Lat>37.5516739686943</wgs84Lat>
				<wgs84Lon>127.025711690541</wgs84Lon>
			</item>
			<item>
				<dutyName>아이들소아청소년과의원</dutyName>
				<dutyTel1>02-2298-0144</dutyTel1>
				<dutyTime1c>2100</dutyTime1c>
				<dutyTime1s>900</dutyTime1s>
				<wgs84Lat>37.5605265047</wgs84Lat>
				<wgs84Lon>127.0352672118</wgs84Lon>
			</item>
			<item>
				<dutyName>아이앤아이의원</dutyName>
				<dutyTel1>02-2299-2324</dutyTel1>
				<dutyTime1c>1900</dutyTime1c>
				<dutyTime1s>1000</dutyTime1s>
				<wgs84Lat>37.5700306843578</wgs84Lat>
				<wgs84Lon>127.023657926534</wgs84Lon>
			</item>
			<item>
				<dutyName>아이편한소아청소년과의원</dutyName>
				<dutyTel1>02-2298-6119</dutyTel1>
				<dutyTime1c>1900</dutyTime1c>
				<dutyTime1s>900</dutyTime1s>
				<wgs84Lat>37.5647640833676</wgs84Lat>
				<wgs84Lon>127.029433408677</wgs84Lon>
			</item>
			<item>
				<dutyName>아침이비인후과의원</dutyName>
				<dutyTel1>02-2282-1151</dutyTel1>
				<dutyTime1c>1900</dutyTime1c>
				<dutyTime1s>930</dutyTime1s>
				<wgs84Lat>37.5416252185738</wgs84Lat>
				<wgs84Lon>127.017779222793</wgs84Lon>
			</item>
			<item>
				<dutyName>안관식치과의원</dutyName>
				<dutyTel1>02-466-4355</dutyTel1>
				<dutyTime1c>1830</dutyTime1c>
				<dutyTime1s>1000</dutyTime1s>
				<wgs84Lat>37.5374379710814</wgs84Lat>
				<wgs84Lon>127.055226647175</wgs84Lon>
			</item>
			<item>
				<dutyName>안병석치과의원</dutyName>
				<dutyTel1>02-2295-7528</dutyTel1>
				<dutyTime1c>1820</dutyTime1c>
				<dutyTime1s>930</dutyTime1s>
				<wgs84Lat>37.558835667108</wgs84Lat>
				<wgs84Lon>127.037118014779</wgs84Lon>
			</item>
			<item>
				<dutyName>안심파라메딕의원</dutyName>
				<dutyTel1>02-6300-7472</dutyTel1>
				<dutyTime1c>1800</dutyTime1c>
				<dutyTime1s>900</dutyTime1s>
				<wgs84Lat>37.5422673640111</wgs84Lat>
				<wgs84Lon>127.049040696494</wgs84Lon>
			</item>
			<item>
				<dutyName>안진균피부과의원</dutyName>
				<dutyTel1>02-2292-7005</dutyTel1>
				<dutyTime1c>1900</dutyTime1c>
				<dutyTime1s>930</dutyTime1s>
				<wgs84Lat>37.5478304970621</wgs84Lat>
				<wgs84Lon>127.022555961703</wgs84Lon>
			</item>
			<item>
				<dutyName>안희정소아과의원</dutyName>
				<dutyTel1>02-2234-0448</dutyTel1>
				<dutyTime1c>1830</dutyTime1c>
				<dutyTime1s>900</dutyTime1s>
				<wgs84Lat>37.5483878840248</wgs84Lat>
				<wgs84Lon>127.021958087223</wgs84Lon>
			</item>
			<item>
				<dutyName>압구정한의원</dutyName>
				<dutyTel1>02-515-5875</dutyTel1>
				<dutyTime1c>1900</dutyTime1c>
				<dutyTime1s>1000</dutyTime1s>
				<wgs84Lat>37.5363753619</wgs84Lat>
				<wgs84Lon>127.0559386534</wgs84Lon>
			</item>
			<item>
				<dutyName>양의원</dutyName>
				<dutyTel1>02-469-3871</dutyTel1>
				<dutyTime1c>1900</dutyTime1c>
				<dutyTime1s>900</dutyTime1s>
				<wgs84Lat>37.5468129965684</wgs84Lat>
				<wgs84Lon>127.05495971491</wgs84Lon>
			</item>
			<item>
				<dutyName>양지한의원</dutyName>
				<dutyTel1>02-2292-7443</dutyTel1>
				<dutyTime1c>1800</dutyTime1c>
				<dutyTime1s>930</dutyTime1s>
				<wgs84Lat>37.5644994321844</wgs84Lat>
				<wgs84Lon>127.030456392095</wgs84Lon>
			</item>
			<item>
				<dutyName>에이(A)플란트치과의원</dutyName>
				<dutyTel1>02-2292-7962</dutyTel1>
				<dutyTime1c>1800</dutyTime1c>
				<dutyTime1s>930</dutyTime1s>
				<wgs84Lat>37.5623216081459</wgs84Lat>
				<wgs84Lon>127.034186021324</wgs84Lon>
			</item>
			<item>
				<dutyName>에이스남성의원</dutyName>
				<dutyTel1>02-2248-1055</dutyTel1>
				<dutyTime1c>1800</dutyTime1c>
				<dutyTime1s>900</dutyTime1s>
				<wgs84Lat>37.5664377376</wgs84Lat>
				<wgs84Lon>127.0527374755</wgs84Lon>
			</item>
			<item>
				<dutyName>엘림신경정신과의원</dutyName>
				<dutyTel1>02-2299-1942</dutyTel1>
				<dutyTime1c>1800</dutyTime1c>
				<dutyTime1s>840</dutyTime1s>
				<wgs84Lat>37.5604613101332</wgs84Lat>
				<wgs84Lon>127.036317520848</wgs84Lon>
			</item>
			<item>
				<dutyName>엘소아청소년과의원</dutyName>
				<dutyTel1>02-2291-8200</dutyTel1>
				<dutyTime1c>1830</dutyTime1c>
				<dutyTime1s>830</dutyTime1s>
				<wgs84Lat>37.5667073905299</wgs84Lat>
				<wgs84Lon>127.025934315247</wgs84Lon>
			</item>
			<item>
				<dutyName>여봉구정형외과의원</dutyName>
				<dutyTel1>02-2281-3875</dutyTel1>
				<dutyTime1c>1900</dutyTime1c>
				<dutyTime1s>930</dutyTime1s>
				<wgs84Lat>37.5585953418425</wgs84Lat>
				<wgs84Lon>127.033287948171</wgs84Lon>
			</item>
			<item>
				<dutyName>연세가정의원</dutyName>
				<dutyTel1>02-2214-1717</dutyTel1>
				<dutyTime1c>1900</dutyTime1c>
				<dutyTime1s>900</dutyTime1s>
				<wgs84Lat>37.564491851972</wgs84Lat>
				<wgs84Lon>127.05212944193</wgs84Lon>
			</item>
			<item>
				<dutyName>연세고마운치과의원</dutyName>
				<dutyTel1>02-6495-2828</dutyTel1>
				<dutyTime1c>1830</dutyTime1c>
				<dutyTime1s>930</dutyTime1s>
				<wgs84Lat>37.5647750171799</wgs84Lat>
				<wgs84Lon>127.028912754627</wgs84Lon>
			</item>
			<item>
				<dutyName>연세글로리치과의원</dutyName>
				<dutyTel1>02-2299-2885</dutyTel1>
				<dutyTime1c>1830</dutyTime1c>
				<dutyTime1s>930</dutyTime1s>
				<wgs84Lat>37.5696883037929</wgs84Lat>
				<wgs84Lon>127.023684991757</wgs84Lon>
			</item>
			<item>
				<dutyName>연세내과의원</dutyName>
				<dutyTel1>02-2296-7582</dutyTel1>
				<dutyTime1c>1930</dutyTime1c>
				<dutyTime1s>900</dutyTime1s>
				<wgs84Lat>37.5605265047342</wgs84Lat>
				<wgs84Lon>127.035267211827</wgs84Lon>
			</item>
			<item>
				<dutyName>연세더블유산부인과의원</dutyName>
				<dutyTel1>02-2281-0045</dutyTel1>
				<dutyTime1c>1700</dutyTime1c>
				<dutyTime1s>1000</dutyTime1s>
				<wgs84Lat>37.5623939619</wgs84Lat>
				<wgs84Lon>127.0332262552</wgs84Lon>
			</item>
			<item>
				<dutyName>연세더블유치과의원</dutyName>
				<dutyTel1>02-2282-2882</dutyTel1>
				<dutyTime1c>1900</dutyTime1c>
				<dutyTime1s>1000</dutyTime1s>
				<wgs84Lat>37.5566663672818</wgs84Lat>
				<wgs84Lon>127.027787097298</wgs84Lon>
			</item>
			<item>
				<dutyName>연세드림소아청소년과의원</dutyName>
				<dutyTel1>02-2233-7577</dutyTel1>
				<dutyTime1c>1900</dutyTime1c>
				<dutyTime1s>830</dutyTime1s>
				<wgs84Lat>37.5533122604038</wgs84Lat>
				<wgs84Lon>127.021792478505</wgs84Lon>
			</item>
			<item>
				<dutyName>연세새봄의원</dutyName>
				<dutyTel1>02-3395-0999</dutyTel1>
				<dutyTime1c>1800</dutyTime1c>
				<dutyTime1s>900</dutyTime1s>
				<wgs84Lat>37.5658510141023</wgs84Lat>
				<wgs84Lon>127.041938823032</wgs84Lon>
			</item>
			<item>
				<dutyName>연세소아청소년과의원</dutyName>
				<dutyTel1>02-2298-4300</dutyTel1>
				<dutyTime1c>1830</dutyTime1c>
				<dutyTime1s>900</dutyTime1s>
				<wgs84Lat>37.5410114325</wgs84Lat>
				<wgs84Lon>127.0161987738</wgs84Lon>
			</item>
			<item>
				<dutyName>연세수치과의원</dutyName>
				<dutyTel1>02-466-7227</dutyTel1>
				<dutyTime1c>1900</dutyTime1c>
				<dutyTime1s>1000</dutyTime1s>
				<wgs84Lat>37.5483660226</wgs84Lat>
				<wgs84Lon>127.0473336726</wgs84Lon>
			</item>
			<item>
				<dutyName>연세슬기병원</dutyName>
				<dutyTel1>02-2281-0010</dutyTel1>
				<dutyTime1c>1800</dutyTime1c>
				<dutyTime1s>900</dutyTime1s>
				<wgs84Lat>37.5642687240015</wgs84Lat>
				<wgs84Lon>127.030678123434</wgs84Lon>
			</item>
			<item>
				<dutyName>연세안과의원</dutyName>
				<dutyTel1>02-2291-3155</dutyTel1>
				<dutyTime1c>1830</dutyTime1c>
				<dutyTime1s>900</dutyTime1s>
				<wgs84Lat>37.5613533747661</wgs84Lat>
				<wgs84Lon>127.034710915457</wgs84Lon>
			</item>
			<item>
				<dutyName>연세예치과</dutyName>
				<dutyTel1>02-2292-2875</dutyTel1>
				<dutyTime1c>1830</dutyTime1c>
				<dutyTime1s>930</dutyTime1s>
				<wgs84Lat>37.5572932857335</wgs84Lat>
				<wgs84Lon>127.028543327913</wgs84Lon>
			</item>
			<item>
				<dutyName>연세오케이이비인후과의원</dutyName>
				<dutyTel1>02-6015-6051</dutyTel1>
				<dutyTime1c>1900</dutyTime1c>
				<dutyTime1s>930</dutyTime1s>
				<wgs84Lat>37.5677200677466</wgs84Lat>
				<wgs84Lon>127.026097640806</wgs84Lon>
			</item>
			<item>
				<dutyName>연세유앤외과의원</dutyName>
				<dutyTel1>02-2282-2755</dutyTel1>
				<dutyTime1c>1800</dutyTime1c>
				<dutyTime1s>930</dutyTime1s>
				<wgs84Lat>37.56275417</wgs84Lat>
				<wgs84Lon>127.0338964669</wgs84Lon>
			</item>
			<item>
				<dutyName>연세이비인후과의원</dutyName>
				<dutyTel1>02-2294-0750</dutyTel1>
				<dutyTime1c>1900</dutyTime1c>
				<dutyTime1s>900</dutyTime1s>
				<wgs84Lat>37.5612416800484</wgs84Lat>
				<wgs84Lon>127.03461126645</wgs84Lon>
			</item>
			<item>
				<dutyName>연세재활의학과의원</dutyName>
				<dutyTel1>02-2232-7613</dutyTel1>
				<dutyTime1c>1800</dutyTime1c>
				<dutyTime1s>900</dutyTime1s>
				<wgs84Lat>37.5488765776126</wgs84Lat>
				<wgs84Lon>127.016445480211</wgs84Lon>
			</item>
			<item>
				<dutyName>연세정형외과의원</dutyName>
				<dutyTel1>02-465-9119</dutyTel1>
				<dutyTime1c>1900</dutyTime1c>
				<dutyTime1s>900</dutyTime1s>
				<wgs84Lat>37.5442386617</wgs84Lat>
				<wgs84Lon>127.0492547218</wgs84Lon>
			</item>
			<item>
				<dutyName>연세치과의원</dutyName>
				<dutyTel1>02-2282-0877</dutyTel1>
				<dutyTime1c>1900</dutyTime1c>
				<dutyTime1s>1000</dutyTime1s>
				<wgs84Lat>37.5665912196</wgs84Lat>
				<wgs84Lon>127.0240823503</wgs84Lon>
			</item>
			<item>
				<dutyName>연세탑치과의원</dutyName>
				<dutyTel1>02-2281-2275</dutyTel1>
				<dutyTime1c>1830</dutyTime1c>
				<dutyTime1s>930</dutyTime1s>
				<wgs84Lat>37.5483251027598</wgs84Lat>
				<wgs84Lon>127.016974966887</wgs84Lon>
			</item>
			<item>
				<dutyName>연세파스텔피부과의원</dutyName>
				<dutyTel1>02-2296-7007</dutyTel1>
				<dutyTime1c>2100</dutyTime1c>
				<dutyTime1s>1000</dutyTime1s>
				<wgs84Lat>37.5665912196</wgs84Lat>
				<wgs84Lon>127.0240823503</wgs84Lon>
			</item>
			<item>
				<dutyName>연세현주니어치과의원</dutyName>
				<dutyTel1>02-6406-8020</dutyTel1>
				<dutyTime1c>1900</dutyTime1c>
				<dutyTime1s>1000</dutyTime1s>
				<wgs84Lat>37.5482138888889</wgs84Lat>
				<wgs84Lon>127.048436111111</wgs84Lon>
			</item>
			<item>
				<dutyName>연세화이트치과의원</dutyName>
				<dutyTel1>02-2292-5156</dutyTel1>
				<dutyTime1c>1800</dutyTime1c>
				<dutyTime1s>930</dutyTime1s>
				<wgs84Lat>37.55660128694</wgs84Lat>
				<wgs84Lon>127.028710575819</wgs84Lon>
			</item>
			<item>
				<dutyName>연합의원</dutyName>
				<dutyTel1>02-2235-6991</dutyTel1>
				<dutyTime1c>1830</dutyTime1c>
				<dutyTime1s>900</dutyTime1s>
				<wgs84Lat>37.548366047217</wgs84Lat>
				<wgs84Lon>127.023048989388</wgs84Lon>
			</item>
			<item>
				<dutyName>영의원</dutyName>
				<dutyTel1>02-955-9531</dutyTel1>
				<dutyTime1c>1900</dutyTime1c>
				<dutyTime1s>900</dutyTime1s>
				<wgs84Lat>37.5539636186</wgs84Lat>
				<wgs84Lon>127.0199452772</wgs84Lon>
			</item>
			<item>
				<dutyName>예스항외과의원</dutyName>
				<dutyTel1>02-2291-4114</dutyTel1>
				<dutyTime1c>1830</dutyTime1c>
				<dutyTime1s>930</dutyTime1s>
				<wgs84Lat>37.5605625347629</wgs84Lat>
				<wgs84Lon>127.035285358442</wgs84Lon>
			</item>
			<item>
				<dutyName>예원내과의원</dutyName>
				<dutyTel1>02-2253-7898</dutyTel1>
				<dutyTime1c>1900</dutyTime1c>
				<dutyTime1s>900</dutyTime1s>
				<wgs84Lat>37.5488657662887</wgs84Lat>
				<wgs84Lon>127.016440951555</wgs84Lon>
			</item>
			<item>
				<dutyName>예은치과의원</dutyName>
				<dutyTel1>02-2296-7075</dutyTel1>
				<dutyTime1c>1830</dutyTime1c>
				<dutyTime1s>930</dutyTime1s>
				<wgs84Lat>37.5600216004965</wgs84Lat>
				<wgs84Lon>127.040935189354</wgs84Lon>
			</item>
			<item>
				<dutyName>예인한의원</dutyName>
				<dutyTel1>02-2232-2205</dutyTel1>
				<dutyTime1c>2100</dutyTime1c>
				<dutyTime1s>800</dutyTime1s>
				<wgs84Lat>37.55435291751</wgs84Lat>
				<wgs84Lon>127.019510822295</wgs84Lon>
			</item>
			<item>
				<dutyName>예일치과의원</dutyName>
				<dutyTel1>02-497-1203</dutyTel1>
				<dutyTime1c>1800</dutyTime1c>
				<dutyTime1s>1000</dutyTime1s>
				<wgs84Lat>37.543711794402</wgs84Lat>
				<wgs84Lon>127.054880492437</wgs84Lon>
			</item>
			<item>
				<dutyName>오렌지치과의원</dutyName>
				<dutyTel1>02-2282-0075</dutyTel1>
				<dutyTime1c>1830</dutyTime1c>
				<dutyTime1s>1000</dutyTime1s>
				<wgs84Lat>37.5605265047342</wgs84Lat>
				<wgs84Lon>127.035267211827</wgs84Lon>
			</item>
			<item>
				<dutyName>오한석한의원</dutyName>
				<dutyTel1>02-2299-5371</dutyTel1>
				<dutyTime1c>1900</dutyTime1c>
				<dutyTime1s>930</dutyTime1s>
				<wgs84Lat>37.5572392221891</wgs84Lat>
				<wgs84Lon>127.028561416414</wgs84Lon>
			</item>
			<item>
				<dutyName>옥수명이비인후과</dutyName>
				<dutyTel1>02-2282-5557</dutyTel1>
				<dutyTime1c>1830</dutyTime1c>
				<dutyTime1s>900</dutyTime1s>
				<wgs84Lat>37.5410114324624</wgs84Lat>
				<wgs84Lon>127.016198773752</wgs84Lon>
			</item>
			<item>
				<dutyName>옥수행복한내과의원</dutyName>
				<dutyTel1>02-2299-8201</dutyTel1>
				<dutyTime1c>1830</dutyTime1c>
				<dutyTime1s>900</dutyTime1s>
				<wgs84Lat>37.5411783895739</wgs84Lat>
				<wgs84Lon>127.017312944157</wgs84Lon>
			</item>
			<item>
				<dutyName>올쏘치과의원</dutyName>
				<dutyTel1>02-2297-1919</dutyTel1>
				<dutyTime1c>1830</dutyTime1c>
				<dutyTime1s>1000</dutyTime1s>
				<wgs84Lat>37.5440871070424</wgs84Lat>
				<wgs84Lon>127.014756248656</wgs84Lon>
			</item>
			<item>
				<dutyName>올치과의원</dutyName>
				<dutyTel1>02-2281-2270</dutyTel1>
				<dutyTime1c>1900</dutyTime1c>
				<dutyTime1s>1000</dutyTime1s>
				<wgs84Lat>37.5523098080081</wgs84Lat>
				<wgs84Lon>127.024779834217</wgs84Lon>
			</item>
			<item>
				<dutyName>와이즈치과의원</dutyName>
				<dutyTel1>02-2294-2875</dutyTel1>
				<dutyTime1c>1830</dutyTime1c>
				<dutyTime1s>930</dutyTime1s>
				<wgs84Lat>37.5659167982711</wgs84Lat>
				<wgs84Lon>127.041894736799</wgs84Lon>
			</item>
			<item>
				<dutyName>와인치과의원</dutyName>
				<dutyTel1>02-2282-7887</dutyTel1>
				<dutyTime1c>1830</dutyTime1c>
				<dutyTime1s>1000</dutyTime1s>
				<wgs84Lat>37.543821763755</wgs84Lat>
				<wgs84Lon>127.01530999797</wgs84Lon>
			</item>
			<item>
				<dutyName>왕십리옥토한의원</dutyName>
				<dutyTel1>02-2297-8575</dutyTel1>
				<dutyTime1c>1930</dutyTime1c>
				<dutyTime1s>900</dutyTime1s>
				<wgs84Lat>37.560457710578</wgs84Lat>
				<wgs84Lon>127.036317498443</wgs84Lon>
			</item>
			<item>
				<dutyName>용답경희한의원</dutyName>
				<dutyTel1>02-2245-1075</dutyTel1>
				<dutyTime1c>1830</dutyTime1c>
				<dutyTime1s>930</dutyTime1s>
				<wgs84Lat>37.5636013357328</wgs84Lat>
				<wgs84Lon>127.052875846907</wgs84Lon>
			</item>
			<item>
				<dutyName>우리가정의원</dutyName>
				<dutyTel1>02-2292-5851</dutyTel1>
				<dutyTime1c>1730</dutyTime1c>
				<dutyTime1s>800</dutyTime1s>
				<wgs84Lat>37.563299379451</wgs84Lat>
				<wgs84Lon>127.041964577732</wgs84Lon>
			</item>
			<item>
				<dutyName>우리들의원</dutyName>
				<dutyTel1>02-2248-8276</dutyTel1>
				<dutyTime1c>1830</dutyTime1c>
				<dutyTime1s>900</dutyTime1s>
				<wgs84Lat>37.5626673398</wgs84Lat>
				<wgs84Lon>127.0541292478</wgs84Lon>
			</item>
			<item>
				<dutyName>우리들치과의원</dutyName>
				<dutyTel1>02-2298-2875</dutyTel1>
				<dutyTime1c>1830</dutyTime1c>
				<dutyTime1s>1000</dutyTime1s>
				<wgs84Lat>37.5409428037976</wgs84Lat>
				<wgs84Lon>127.017275960522</wgs84Lon>
			</item>
			<item>
				<dutyName>우리아이치과의원</dutyName>
				<dutyTel1>02-2299-2275</dutyTel1>
				<dutyTime1c>1800</dutyTime1c>
				<dutyTime1s>930</dutyTime1s>
				<wgs84Lat>37.5605454293464</wgs84Lat>
				<wgs84Lon>127.035240077949</wgs84Lon>
			</item>
			<item>
				<dutyName>우리좋은내과의원</dutyName>
				<dutyTel1>02-2296-1230</dutyTel1>
				<dutyTime1c>1830</dutyTime1c>
				<dutyTime1s>830</dutyTime1s>
				<wgs84Lat>37.5645441580744</wgs84Lat>
				<wgs84Lon>127.029786467567</wgs84Lon>
			</item>
			<item>
				<dutyName>우리치과의원</dutyName>
				<dutyTel1>02-462-7528</dutyTel1>
				<dutyTime1c>1830</dutyTime1c>
				<dutyTime1s>930</dutyTime1s>
				<wgs84Lat>37.5390428984</wgs84Lat>
				<wgs84Lon>127.0547095899</wgs84Lon>
			</item>
			<item>
				<dutyName>우리한의원</dutyName>
				<dutyTel1>02-465-8910</dutyTel1>
				<dutyTime1c>2100</dutyTime1c>
				<dutyTime1s>930</dutyTime1s>
				<wgs84Lat>37.5451433230062</wgs84Lat>
				<wgs84Lon>127.057126571297</wgs84Lon>
			</item>
			<item>
				<dutyName>우아주한방소아과한의원</dutyName>
				<dutyTel1>02-6338-0550</dutyTel1>
				<dutyTime1c>1800</dutyTime1c>
				<dutyTime1s>900</dutyTime1s>
				<wgs84Lat>37.5672228284548</wgs84Lat>
				<wgs84Lon>127.025581329877</wgs84Lon>
			</item>
			<item>
				<dutyName>위너스비뇨기과의원</dutyName>
				<dutyTel1>02-2299-7887</dutyTel1>
				<dutyTime1c>1900</dutyTime1c>
				<dutyTime1s>900</dutyTime1s>
				<wgs84Lat>37.5625270733</wgs84Lat>
				<wgs84Lon>127.0340548217</wgs84Lon>
			</item>
			<item>
				<dutyName>위드치과의원</dutyName>
				<dutyTel1>02-3409-2875</dutyTel1>
				<dutyTime1c>1900</dutyTime1c>
				<dutyTime1s>1000</dutyTime1s>
				<wgs84Lat>37.5451433230062</wgs84Lat>
				<wgs84Lon>127.057126571297</wgs84Lon>
			</item>
			<item>
				<dutyName>유노부부치과의원</dutyName>
				<dutyTel1>02-2293-7528</dutyTel1>
				<dutyTime1c>1830</dutyTime1c>
				<dutyTime1s>930</dutyTime1s>
				<wgs84Lat>37.5416720726721</wgs84Lat>
				<wgs84Lon>127.017761128709</wgs84Lon>
			</item>
			<item>
				<dutyName>유노치과의원</dutyName>
				<dutyTel1>02-2294-2275</dutyTel1>
				<dutyTime1c>1830</dutyTime1c>
				<dutyTime1s>915</dutyTime1s>
				<wgs84Lat>37.5662558240177</wgs84Lat>
				<wgs84Lon>127.042754021928</wgs84Lon>
			</item>
			<item>
				<dutyName>유디치과의원</dutyName>
				<dutyTel1>02-2247-0002</dutyTel1>
				<dutyTime1c>1830</dutyTime1c>
				<dutyTime1s>930</dutyTime1s>
				<wgs84Lat>37.56193612907</wgs84Lat>
				<wgs84Lon>127.056840567574</wgs84Lon>
			</item>
			<item>
				<dutyName>유앤강마취통증의학과의원</dutyName>
				<dutyTel1>02-2291-7900</dutyTel1>
				<dutyTime1c>1900</dutyTime1c>
				<dutyTime1s>900</dutyTime1s>
				<wgs84Lat>37.5478124756196</wgs84Lat>
				<wgs84Lon>127.022565009511</wgs84Lon>
			</item>
			<item>
				<dutyName>유앤아이피부과의원</dutyName>
				<dutyTel1>02-2295-6020</dutyTel1>
				<dutyTime1c>2100</dutyTime1c>
				<dutyTime1s>1000</dutyTime1s>
				<wgs84Lat>37.5617197281</wgs84Lat>
				<wgs84Lon>127.0342355468</wgs84Lon>
			</item>
			<item>
				<dutyName>유창길한의원</dutyName>
				<dutyTel1>02-2242-7575</dutyTel1>
				<dutyTime1c>1830</dutyTime1c>
				<dutyTime1s>930</dutyTime1s>
				<wgs84Lat>37.5613381088512</wgs84Lat>
				<wgs84Lon>127.063612896797</wgs84Lon>
			</item>
			<item>
				<dutyName>유치과의원</dutyName>
				<dutyTel1>02-2295-6767</dutyTel1>
				<dutyTime1c>1830</dutyTime1c>
				<dutyTime1s>930</dutyTime1s>
				<wgs84Lat>37.5579366200498</wgs84Lat>
				<wgs84Lon>127.030286197933</wgs84Lon>
			</item>
			<item>
				<dutyName>유하균치과의원</dutyName>
				<dutyTel1>02-466-2889</dutyTel1>
				<dutyTime1c>1830</dutyTime1c>
				<dutyTime1s>1000</dutyTime1s>
				<wgs84Lat>37.5479279735534</wgs84Lat>
				<wgs84Lon>127.06322155073</wgs84Lon>
			</item>
			<item>
				<dutyName>윤안과의원</dutyName>
				<dutyTel1>02-2297-3793</dutyTel1>
				<dutyTime1c>1800</dutyTime1c>
				<dutyTime1s>900</dutyTime1s>
				<wgs84Lat>37.5476128787</wgs84Lat>
				<wgs84Lon>127.0227318846</wgs84Lon>
			</item>
			<item>
				<dutyName>윤이비인후과의원</dutyName>
				<dutyTel1>02-2282-5119</dutyTel1>
				<dutyTime1c>1900</dutyTime1c>
				<dutyTime1s>900</dutyTime1s>
				<wgs84Lat>37.558163652942</wgs84Lat>
				<wgs84Lon>127.035479101137</wgs84Lon>
			</item>
			<item>
				<dutyName>으뜸한의원</dutyName>
				<dutyTel1>02-2234-4100</dutyTel1>
				<dutyTime1c>2100</dutyTime1c>
				<dutyTime1s>930</dutyTime1s>
				<wgs84Lat>37.5545547245144</wgs84Lat>
				<wgs84Lon>127.019610466274</wgs84Lon>
			</item>
			<item>
				<dutyName>은준영내과의원</dutyName>
				<dutyTel1>02-2138-5678</dutyTel1>
				<dutyTime1c>1900</dutyTime1c>
				<dutyTime1s>830</dutyTime1s>
				<wgs84Lat>37.546433559</wgs84Lat>
				<wgs84Lon>127.0491022687</wgs84Lon>
			</item>
			<item>
				<dutyName>이가편한치과의원</dutyName>
				<dutyTel1>02-465-2828</dutyTel1>
				<dutyTime1c>2030</dutyTime1c>
				<dutyTime1s>930</dutyTime1s>
				<wgs84Lat>37.5446929154173</wgs84Lat>
				<wgs84Lon>127.056936123703</wgs84Lon>
			</item>
			<item>
				<dutyName>이규철치과의원</dutyName>
				<dutyTel1>02-2292-7763</dutyTel1>
				<dutyTime1c>1800</dutyTime1c>
				<dutyTime1s>930</dutyTime1s>
				<wgs84Lat>37.5697390274423</wgs84Lat>
				<wgs84Lon>127.037281877342</wgs84Lon>
			</item>
			<item>
				<dutyName>이병준치과의원</dutyName>
				<dutyTel1>02-469-3366</dutyTel1>
				<dutyTime1c>1800</dutyTime1c>
				<dutyTime1s>900</dutyTime1s>
				<wgs84Lat>37.546222662952</wgs84Lat>
				<wgs84Lon>127.05339766118</wgs84Lon>
			</item>
			<item>
				<dutyName>이병직내과의원</dutyName>
				<dutyTel1>02-498-8370</dutyTel1>
				<dutyTime1c>1830</dutyTime1c>
				<dutyTime1s>900</dutyTime1s>
				<wgs84Lat>37.5374569459971</wgs84Lat>
				<wgs84Lon>127.055111252096</wgs84Lon>
			</item>
			<item>
				<dutyName>이사랑치과의원</dutyName>
				<dutyTel1>02-2252-2879</dutyTel1>
				<dutyTime1c>1900</dutyTime1c>
				<dutyTime1s>1000</dutyTime1s>
				<wgs84Lat>37.5484892385553</wgs84Lat>
				<wgs84Lon>127.019432322453</wgs84Lon>
			</item>
			<item>
				<dutyName>이성훈한의원</dutyName>
				<dutyTel1>02-2299-7575</dutyTel1>
				<dutyTime1c>1800</dutyTime1c>
				<dutyTime1s>900</dutyTime1s>
				<wgs84Lat>37.5415178427593</wgs84Lat>
				<wgs84Lon>127.01094485569</wgs84Lon>
			</item>
			<item>
				<dutyName>이스마일치과의원</dutyName>
				<dutyTel1>02-2293-2875</dutyTel1>
				<dutyTime1c>1900</dutyTime1c>
				<dutyTime1s>1000</dutyTime1s>
				<wgs84Lat>37.5582198876324</wgs84Lat>
				<wgs84Lon>127.035483425555</wgs84Lon>
			</item>
			<item>
				<dutyName>이안치과의원</dutyName>
				<dutyTel1>02-2233-2835</dutyTel1>
				<dutyTime1c>1830</dutyTime1c>
				<dutyTime1s>1000</dutyTime1s>
				<wgs84Lat>37.5487388888889</wgs84Lat>
				<wgs84Lon>127.016997222222</wgs84Lon>
			</item>
			<item>
				<dutyName>이안행복치과의원</dutyName>
				<dutyTel1>02-499-2805</dutyTel1>
				<dutyTime1c>1830</dutyTime1c>
				<dutyTime1s>930</dutyTime1s>
				<wgs84Lat>37.5474813615851</wgs84Lat>
				<wgs84Lon>127.055277323424</wgs84Lon>
			</item>
			<item>
				<dutyName>이안힐텍소아청소년과의원</dutyName>
				<dutyTel1>02-498-7582</dutyTel1>
				<dutyTime1c>2100</dutyTime1c>
				<dutyTime1s>1000</dutyTime1s>
				<wgs84Lat>37.5399968235222</wgs84Lat>
				<wgs84Lon>127.053253370161</wgs84Lon>
			</item>
			<item>
				<dutyName>이영수마취통증의학과의원</dutyName>
				<dutyTel1>02-2298-8875</dutyTel1>
				<dutyTime1c>1830</dutyTime1c>
				<dutyTime1s>900</dutyTime1s>
				<wgs84Lat>37.5629060433892</wgs84Lat>
				<wgs84Lon>127.032085581532</wgs84Lon>
			</item>
			<item>
				<dutyName>이영환이비인후과의원</dutyName>
				<dutyTel1>02-2298-9304</dutyTel1>
				<dutyTime1c>1800</dutyTime1c>
				<dutyTime1s>915</dutyTime1s>
				<wgs84Lat>37.5477933434059</wgs84Lat>
				<wgs84Lon>127.021283489217</wgs84Lon>
			</item>
			<item>
				<dutyName>이웃치과의원</dutyName>
				<dutyTel1>02-2216-6662</dutyTel1>
				<dutyTime1c>1830</dutyTime1c>
				<dutyTime1s>1000</dutyTime1s>
				<wgs84Lat>37.5650138888889</wgs84Lat>
				<wgs84Lon>127.054491666667</wgs84Lon>
			</item>
			<item>
				<dutyName>이재진정신건강의학과의원</dutyName>
				<dutyTel1>02-2295-2544</dutyTel1>
				<dutyTime1c>1830</dutyTime1c>
				<dutyTime1s>930</dutyTime1s>
				<wgs84Lat>37.5572919402688</wgs84Lat>
				<wgs84Lon>127.02854302438</wgs84Lon>
			</item>
			<item>
				<dutyName>이종문신경과의원</dutyName>
				<dutyTel1>02-2281-4342</dutyTel1>
				<dutyTime1c>1830</dutyTime1c>
				<dutyTime1s>830</dutyTime1s>
				<wgs84Lat>37.5444185977882</wgs84Lat>
				<wgs84Lon>127.015403558277</wgs84Lon>
			</item>
			<item>
				<dutyName>이지신경외과의원</dutyName>
				<dutyTel1>02-2253-3737</dutyTel1>
				<dutyTime1c>1830</dutyTime1c>
				<dutyTime1s>930</dutyTime1s>
				<wgs84Lat>37.5484675703</wgs84Lat>
				<wgs84Lon>127.019699381</wgs84Lon>
			</item>
			<item>
				<dutyName>이창영치과의원</dutyName>
				<dutyTel1>02-2297-8588</dutyTel1>
				<dutyTime1c>1800</dutyTime1c>
				<dutyTime1s>1000</dutyTime1s>
				<wgs84Lat>37.5426805963709</wgs84Lat>
				<wgs84Lon>127.011890228389</wgs84Lon>
			</item>
			<item>
				<dutyName>이튼주니어치과의원</dutyName>
				<dutyTel1>02-2291-2804</dutyTel1>
				<dutyTime1c>1800</dutyTime1c>
				<dutyTime1s>1000</dutyTime1s>
				<wgs84Lat>37.5578321379838</wgs84Lat>
				<wgs84Lon>127.03015487037</wgs84Lon>
			</item>
			<item>
				<dutyName>이편한무학치과의원</dutyName>
				<dutyTel1>02-2297-3457</dutyTel1>
				<dutyTime1c>1830</dutyTime1c>
				<dutyTime1s>1000</dutyTime1s>
				<wgs84Lat>37.5629158907578</wgs84Lat>
				<wgs84Lon>127.032302920948</wgs84Lon>
			</item>
			<item>
				<dutyName>이현치과의원</dutyName>
				<dutyTel1>02-2294-2879</dutyTel1>
				<dutyTime1c>1830</dutyTime1c>
				<dutyTime1s>930</dutyTime1s>
				<wgs84Lat>37.5410055325143</wgs84Lat>
				<wgs84Lon>127.016280974107</wgs84Lon>
			</item>
			<item>
				<dutyName>이혜경산부인과의원</dutyName>
				<dutyTel1>02-2282-1588</dutyTel1>
				<dutyTime1c>1800</dutyTime1c>
				<dutyTime1s>930</dutyTime1s>
				<wgs84Lat>37.5572608480219</wgs84Lat>
				<wgs84Lon>127.028552370214</wgs84Lon>
			</item>
			<item>
				<dutyName>이환구이비인후과의원</dutyName>
				<dutyTel1>02-2298-2803</dutyTel1>
				<dutyTime1c>1800</dutyTime1c>
				<dutyTime1s>930</dutyTime1s>
				<wgs84Lat>37.5641511646038</wgs84Lat>
				<wgs84Lon>127.030456377872</wgs84Lon>
			</item>
			<item>
				<dutyName>임청산한의원</dutyName>
				<dutyTel1>02-2298-9408</dutyTel1>
				<dutyTime1c>1900</dutyTime1c>
				<dutyTime1s>930</dutyTime1s>
				<wgs84Lat>37.5562506281349</wgs84Lat>
				<wgs84Lon>127.027528583048</wgs84Lon>
			</item>
			<item>
				<dutyName>임플라인치과의원</dutyName>
				<dutyTel1>02-466-2828</dutyTel1>
				<dutyTime1c>1900</dutyTime1c>
				<dutyTime1s>1000</dutyTime1s>
				<wgs84Lat>37.5467863571</wgs84Lat>
				<wgs84Lon>127.050039467</wgs84Lon>
			</item>
			<item>
				<dutyName>자세본재활의학과의원</dutyName>
				<dutyTel1>02-2293-0088</dutyTel1>
				<dutyTime1c>1900</dutyTime1c>
				<dutyTime1s>900</dutyTime1s>
				<wgs84Lat>37.564493279989</wgs84Lat>
				<wgs84Lon>127.029867230391</wgs84Lon>
			</item>
			<item>
				<dutyName>자애산부인과의원</dutyName>
				<dutyTel1>02-499-9961</dutyTel1>
				<dutyTime1c>1830</dutyTime1c>
				<dutyTime1s>830</dutyTime1s>
				<wgs84Lat>37.5380419657062</wgs84Lat>
				<wgs84Lon>127.052540982009</wgs84Lon>
			</item>
			<item>
				<dutyName>장미치과의원</dutyName>
				<dutyTel1>02-2281-8228</dutyTel1>
				<dutyTime1c>1800</dutyTime1c>
				<dutyTime1s>1000</dutyTime1s>
				<wgs84Lat>37.5577781242636</wgs84Lat>
				<wgs84Lon>127.029973765595</wgs84Lon>
			</item>
			<item>
				<dutyName>장인내과의원</dutyName>
				<dutyTel1>02-2295-4005</dutyTel1>
				<dutyTime1c>1900</dutyTime1c>
				<dutyTime1s>830</dutyTime1s>
				<wgs84Lat>37.5617197281</wgs84Lat>
				<wgs84Lon>127.0342355468</wgs84Lon>
			</item>
			<item>
				<dutyName>장일성정형외과의원</dutyName>
				<dutyTel1>02-2238-0005</dutyTel1>
				<dutyTime1c>1900</dutyTime1c>
				<dutyTime1s>900</dutyTime1s>
				<wgs84Lat>37.5484786485</wgs84Lat>
				<wgs84Lon>127.0180336272</wgs84Lon>
			</item>
			<item>
				<dutyName>재단법인씨젠의료재단 씨젠의원</dutyName>
				<dutyTel1>02-2244-6500</dutyTel1>
				<dutyTime1c>1800</dutyTime1c>
				<dutyTime1s>900</dutyTime1s>
				<wgs84Lat>37.5644076010633</wgs84Lat>
				<wgs84Lon>127.055131079134</wgs84Lon>
			</item>
			<item>
				<dutyName>정광호치과의원</dutyName>
				<dutyTel1>02-2292-3139</dutyTel1>
				<dutyTime1c>1830</dutyTime1c>
				<dutyTime1s>930</dutyTime1s>
				<wgs84Lat>37.5701214602599</wgs84Lat>
				<wgs84Lon>127.037376061488</wgs84Lon>
			</item>
			<item>
				<dutyName>정마취통증의학과의원</dutyName>
				<dutyTel1>02-2236-1011</dutyTel1>
				<dutyTime1c>1800</dutyTime1c>
				<dutyTime1s>900</dutyTime1s>
				<wgs84Lat>37.5483299700068</wgs84Lat>
				<wgs84Lon>127.023239091438</wgs84Lon>
			</item>
			<item>
				<dutyName>정소아청소년과의원</dutyName>
				<dutyTel1>02-2298-0018</dutyTel1>
				<dutyTime1c>1800</dutyTime1c>
				<dutyTime1s>900</dutyTime1s>
				<wgs84Lat>37.5538630842</wgs84Lat>
				<wgs84Lon>127.0340554057</wgs84Lon>
			</item>
			<item>
				<dutyName>정치과의원</dutyName>
				<dutyTel1>02-466-8633</dutyTel1>
				<dutyTime1c>1830</dutyTime1c>
				<dutyTime1s>930</dutyTime1s>
				<wgs84Lat>37.5477091260777</wgs84Lat>
				<wgs84Lon>127.044762591415</wgs84Lon>
			</item>
			<item>
				<dutyName>정표진치과의원</dutyName>
				<dutyTel1>02-2299-1227</dutyTel1>
				<dutyTime1c>1900</dutyTime1c>
				<dutyTime1s>1000</dutyTime1s>
				<wgs84Lat>37.5614596692251</wgs84Lat>
				<wgs84Lon>127.033065141916</wgs84Lon>
			</item>
			<item>
				<dutyName>정희수산부인과의원</dutyName>
				<dutyTel1>02-2234-1049</dutyTel1>
				<dutyTime1c>1800</dutyTime1c>
				<dutyTime1s>930</dutyTime1s>
				<wgs84Lat>37.5478377066062</wgs84Lat>
				<wgs84Lon>127.022546910854</wgs84Lon>
			</item>
			<item>
				<dutyName>제원한의원</dutyName>
				<dutyTel1>02-2295-4175</dutyTel1>
				<dutyTime1c>1830</dutyTime1c>
				<dutyTime1s>1000</dutyTime1s>
				<wgs84Lat>37.5654066164857</wgs84Lat>
				<wgs84Lon>127.024675245665</wgs84Lon>
			</item>
			<item>
				<dutyName>제이에스(JS)항외과의원</dutyName>
				<dutyTel1>02-2088-7175</dutyTel1>
				<dutyTime1c>1830</dutyTime1c>
				<dutyTime1s>900</dutyTime1s>
				<wgs84Lat>37.5605379053884</wgs84Lat>
				<wgs84Lon>127.067148054303</wgs84Lon>
			</item>
			<item>
				<dutyName>조가정의학과의원</dutyName>
				<dutyTel1>02-2233-7570</dutyTel1>
				<dutyTime1c>1800</dutyTime1c>
				<dutyTime1s>900</dutyTime1s>
				<wgs84Lat>37.5487274768309</wgs84Lat>
				<wgs84Lon>127.016969973768</wgs84Lon>
			</item>
			<item>
				<dutyName>조창현내과의원</dutyName>
				<dutyTel1>02-2297-0406</dutyTel1>
				<dutyTime1c>1830</dutyTime1c>
				<dutyTime1s>900</dutyTime1s>
				<wgs84Lat>37.54804186757</wgs84Lat>
				<wgs84Lon>127.022134518692</wgs84Lon>
			</item>
			<item>
				<dutyName>좋은사람들성모안과의원</dutyName>
				<dutyTel1>02-556-6551</dutyTel1>
				<dutyTime1c>1830</dutyTime1c>
				<dutyTime1s>930</dutyTime1s>
				<wgs84Lat>37.5617197280679</wgs84Lat>
				<wgs84Lon>127.034235546762</wgs84Lon>
			</item>
			<item>
				<dutyName>좋은치과의원</dutyName>
				<dutyTel1>02-469-8228</dutyTel1>
				<dutyTime1c>1800</dutyTime1c>
				<dutyTime1s>1000</dutyTime1s>
				<wgs84Lat>37.5440407402</wgs84Lat>
				<wgs84Lon>127.0566278431</wgs84Lon>
			</item>
			<item>
				<dutyName>주외과의원</dutyName>
				<dutyTel1>02-2292-1613</dutyTel1>
				<dutyTime1c>1800</dutyTime1c>
				<dutyTime1s>900</dutyTime1s>
				<wgs84Lat>37.5670357240335</wgs84Lat>
				<wgs84Lon>127.044656089038</wgs84Lon>
			</item>
			<item>
				<dutyName>준정형외과의원</dutyName>
				<dutyTel1>02-2038-9941</dutyTel1>
				<dutyTime1c>1900</dutyTime1c>
				<dutyTime1s>900</dutyTime1s>
				<wgs84Lat>37.5469670028252</wgs84Lat>
				<wgs84Lon>127.048975878803</wgs84Lon>
			</item>
			<item>
				<dutyName>중국대인당한의원</dutyName>
				<dutyTel1>02-2292-4218</dutyTel1>
				<dutyTime1c>1830</dutyTime1c>
				<dutyTime1s>930</dutyTime1s>
				<wgs84Lat>37.5582631050856</wgs84Lat>
				<wgs84Lon>127.035569481686</wgs84Lon>
			</item>
			<item>
				<dutyName>중앙한의원</dutyName>
				<dutyTel1>02-2212-6615</dutyTel1>
				<dutyTime1c>1800</dutyTime1c>
				<dutyTime1s>830</dutyTime1s>
				<wgs84Lat>37.5681058398</wgs84Lat>
				<wgs84Lon>127.0453675561</wgs84Lon>
			</item>
			<item>
				<dutyName>차내과의원</dutyName>
				<dutyTel1>02-2248-0385</dutyTel1>
				<dutyTime1c>1800</dutyTime1c>
				<dutyTime1s>900</dutyTime1s>
				<wgs84Lat>37.5652405321757</wgs84Lat>
				<wgs84Lon>127.054235263411</wgs84Lon>
			</item>
			<item>
				<dutyName>착한몸한의원</dutyName>
				<dutyTel1>02-2295-1075</dutyTel1>
				<dutyTime1c>2100</dutyTime1c>
				<dutyTime1s>1000</dutyTime1s>
				<wgs84Lat>37.5437542001</wgs84Lat>
				<wgs84Lon>127.0152624382</wgs84Lon>
			</item>
			<item>
				<dutyName>참사랑소아과의원</dutyName>
				<dutyTel1>02-2292-0575</dutyTel1>
				<dutyTime1c>1830</dutyTime1c>
				<dutyTime1s>900</dutyTime1s>
				<wgs84Lat>37.5702622686283</wgs84Lat>
				<wgs84Lon>127.041995630327</wgs84Lon>
			</item>
			<item>
				<dutyName>참조은한의원</dutyName>
				<dutyTel1>02-2212-0541</dutyTel1>
				<dutyTime1c>1900</dutyTime1c>
				<dutyTime1s>900</dutyTime1s>
				<wgs84Lat>37.5665928258132</wgs84Lat>
				<wgs84Lon>127.052474983557</wgs84Lon>
			</item>
			<item>
				<dutyName>척척나은정형외과의원</dutyName>
				<dutyTel1>02-2291-1170</dutyTel1>
				<dutyTime1c>1900</dutyTime1c>
				<dutyTime1s>900</dutyTime1s>
				<wgs84Lat>37.5582598451</wgs84Lat>
				<wgs84Lon>127.0344241021</wgs84Lon>
			</item>
			<item>
				<dutyName>천지인한의원</dutyName>
				<dutyTel1>02-499-1075</dutyTel1>
				<dutyTime1c>1900</dutyTime1c>
				<dutyTime1s>900</dutyTime1s>
				<wgs84Lat>37.5373959355</wgs84Lat>
				<wgs84Lon>127.0545680855</wgs84Lon>
			</item>
			<item>
				<dutyName>청담소아청소년과의원</dutyName>
				<dutyTel1>02-2281-8858</dutyTel1>
				<dutyTime1c>1830</dutyTime1c>
				<dutyTime1s>900</dutyTime1s>
				<wgs84Lat>37.5476128786558</wgs84Lat>
				<wgs84Lon>127.02273188462</wgs84Lon>
			</item>
			<item>
				<dutyName>청포도내과예방의학과의원</dutyName>
				<dutyTel1>02-2291-8900</dutyTel1>
				<dutyTime1c>1830</dutyTime1c>
				<dutyTime1s>830</dutyTime1s>
				<wgs84Lat>37.5550447533</wgs84Lat>
				<wgs84Lon>127.0203122451</wgs84Lon>
			</item>
			<item>
				<dutyName>최대홍내과의원</dutyName>
				<dutyTel1>02-2292-2754</dutyTel1>
				<dutyTime1c>1830</dutyTime1c>
				<dutyTime1s>930</dutyTime1s>
				<wgs84Lat>37.5600777971849</wgs84Lat>
				<wgs84Lon>127.040876239424</wgs84Lon>
			</item>
			<item>
				<dutyName>최비뇨기과의원</dutyName>
				<dutyTel1>02-2297-7775</dutyTel1>
				<dutyTime1c>1830</dutyTime1c>
				<dutyTime1s>930</dutyTime1s>
				<wgs84Lat>37.5478509456499</wgs84Lat>
				<wgs84Lon>127.021622991208</wgs84Lon>
			</item>
			<item>
				<dutyName>최성호성형외과의원</dutyName>
				<dutyTel1>02-2297-0056</dutyTel1>
				<dutyTime1c>1830</dutyTime1c>
				<dutyTime1s>1000</dutyTime1s>
				<wgs84Lat>37.5613605788617</wgs84Lat>
				<wgs84Lon>127.034724500418</wgs84Lon>
			</item>
			<item>
				<dutyName>최영인소아청소년과의원</dutyName>
				<dutyTel1>02-2293-5500</dutyTel1>
				<dutyTime1c>1800</dutyTime1c>
				<dutyTime1s>900</dutyTime1s>
				<wgs84Lat>37.5572919402688</wgs84Lat>
				<wgs84Lon>127.02854302438</wgs84Lon>
			</item>
			<item>
				<dutyName>최준혁마취통증의학과의원</dutyName>
				<dutyTel1>02-2299-6552</dutyTel1>
				<dutyTime1c>1900</dutyTime1c>
				<dutyTime1s>900</dutyTime1s>
				<wgs84Lat>37.5548609451239</wgs84Lat>
				<wgs84Lon>127.020312215833</wgs84Lon>
			</item>
			<item>
				<dutyName>최춘기이비인후과의원</dutyName>
				<dutyTel1>02-2243-2929</dutyTel1>
				<dutyTime1c>1800</dutyTime1c>
				<dutyTime1s>900</dutyTime1s>
				<wgs84Lat>37.5652405321757</wgs84Lat>
				<wgs84Lon>127.054235263411</wgs84Lon>
			</item>
			<item>
				<dutyName>최치과의원</dutyName>
				<dutyTel1>02-2238-2467</dutyTel1>
				<dutyTime1c>1830</dutyTime1c>
				<dutyTime1s>930</dutyTime1s>
				<wgs84Lat>37.5484024005652</wgs84Lat>
				<wgs84Lon>127.021383245571</wgs84Lon>
			</item>
			<item>
				<dutyName>최흥렬피부과의원</dutyName>
				<dutyTel1>02-2216-5666</dutyTel1>
				<dutyTime1c>1800</dutyTime1c>
				<dutyTime1s>930</dutyTime1s>
				<wgs84Lat>37.5652405321757</wgs84Lat>
				<wgs84Lon>127.054235263411</wgs84Lon>
			</item>
			<item>
				<dutyName>치아사랑치과의원</dutyName>
				<dutyTel1>02-2244-0028</dutyTel1>
				<dutyTime1c>1830</dutyTime1c>
				<dutyTime1s>930</dutyTime1s>
				<wgs84Lat>37.565851615758</wgs84Lat>
				<wgs84Lon>127.053334629561</wgs84Lon>
			</item>
			<item>
				<dutyName>친한의원</dutyName>
				<dutyTel1>02-352-5806</dutyTel1>
				<dutyTime1c>1900</dutyTime1c>
				<dutyTime1s>930</dutyTime1s>
				<wgs84Lat>37.5700955205411</wgs84Lat>
				<wgs84Lon>127.02384358487</wgs84Lon>
			</item>
			<item>
				<dutyName>퀸즈파크성형외과의원</dutyName>
				<dutyTel1>02-2296-5735</dutyTel1>
				<dutyTime1c>1800</dutyTime1c>
				<dutyTime1s>1000</dutyTime1s>
				<wgs84Lat>37.5544752472233</wgs84Lat>
				<wgs84Lon>127.020746670551</wgs84Lon>
			</item>
			<item>
				<dutyName>태양치과의원</dutyName>
				<dutyTel1>02-2299-8975</dutyTel1>
				<dutyTime1c>1900</dutyTime1c>
				<dutyTime1s>930</dutyTime1s>
				<wgs84Lat>37.5586686968588</wgs84Lat>
				<wgs84Lon>127.033731872639</wgs84Lon>
			</item>
			<item>
				<dutyName>텐즈경희한의원</dutyName>
				<dutyTel1>02-2282-2075</dutyTel1>
				<dutyTime1c>2000</dutyTime1c>
				<dutyTime1s>900</dutyTime1s>
				<wgs84Lat>37.567712836222</wgs84Lat>
				<wgs84Lon>127.026210829426</wgs84Lon>
			</item>
			<item>
				<dutyName>톡(TOK)성형외과의원</dutyName>
				<dutyTel1>02-2294-9933</dutyTel1>
				<dutyTime1c>1900</dutyTime1c>
				<dutyTime1s>1000</dutyTime1s>
				<wgs84Lat>37.5647136290639</wgs84Lat>
				<wgs84Lon>127.029428862394</wgs84Lon>
			</item>
			<item>
				<dutyName>트루맨남성의원</dutyName>
				<dutyTel1>02-2281-0544</dutyTel1>
				<dutyTime1c>1830</dutyTime1c>
				<dutyTime1s>930</dutyTime1s>
				<wgs84Lat>37.5625806475831</wgs84Lat>
				<wgs84Lon>127.035698279839</wgs84Lon>
			</item>
			<item>
				<dutyName>튼튼이소아치과의원</dutyName>
				<dutyTel1>02-2296-7528</dutyTel1>
				<dutyTime1c>1830</dutyTime1c>
				<dutyTime1s>1000</dutyTime1s>
				<wgs84Lat>37.5650198909981</wgs84Lat>
				<wgs84Lon>127.029741372546</wgs84Lon>
			</item>
			<item>
				<dutyName>파티마의원</dutyName>
				<dutyTel1>02-2292-3377</dutyTel1>
				<dutyTime1c>1900</dutyTime1c>
				<dutyTime1s>900</dutyTime1s>
				<wgs84Lat>37.5699357092075</wgs84Lat>
				<wgs84Lon>127.037834409515</wgs84Lon>
			</item>
			<item>
				<dutyName>편안한의원</dutyName>
				<dutyTel1>02-462-1075</dutyTel1>
				<dutyTime1c>1930</dutyTime1c>
				<dutyTime1s>1000</dutyTime1s>
				<wgs84Lat>37.5444361748427</wgs84Lat>
				<wgs84Lon>127.054913038303</wgs84Lon>
			</item>
			<item>
				<dutyName>편한치과의원</dutyName>
				<dutyTel1>02-6291-2875</dutyTel1>
				<dutyTime1c>1830</dutyTime1c>
				<dutyTime1s>930</dutyTime1s>
				<wgs84Lat>37.5501951412</wgs84Lat>
				<wgs84Lon>127.0306949874</wgs84Lon>
			</item>
			<item>
				<dutyName>평화의원</dutyName>
				<dutyTel1>02-2282-3004</dutyTel1>
				<dutyTime1c>1830</dutyTime1c>
				<dutyTime1s>830</dutyTime1s>
				<wgs84Lat>37.5477800286155</wgs84Lat>
				<wgs84Lon>127.022628370465</wgs84Lon>
			</item>
			<item>
				<dutyName>폴리한의원</dutyName>
				<dutyTel1>02-6952-9688</dutyTel1>
				<dutyTime1c>1830</dutyTime1c>
				<dutyTime1s>930</dutyTime1s>
				<wgs84Lat>37.5646559668489</wgs84Lat>
				<wgs84Lon>127.029424313428</wgs84Lon>
			</item>
			<item>
				<dutyName>푸른성모이비인후과의원</dutyName>
				<dutyTel1>02-2299-1305</dutyTel1>
				<dutyTime1c>1900</dutyTime1c>
				<dutyTime1s>900</dutyTime1s>
				<wgs84Lat>37.5572896786646</wgs84Lat>
				<wgs84Lon>127.028556907638</wgs84Lon>
			</item>
			<item>
				<dutyName>푸른이비인후과의원</dutyName>
				<dutyTel1>02-2293-0303</dutyTel1>
				<dutyTime1c>1830</dutyTime1c>
				<dutyTime1s>930</dutyTime1s>
				<wgs84Lat>37.5480431010891</wgs84Lat>
				<wgs84Lon>127.022723500097</wgs84Lon>
			</item>
			<item>
				<dutyName>프렌드정신건강의학과의원</dutyName>
				<dutyTel1>02-2281-8593</dutyTel1>
				<dutyTime1c>1900</dutyTime1c>
				<dutyTime1s>1000</dutyTime1s>
				<wgs84Lat>37.5617197281</wgs84Lat>
				<wgs84Lon>127.0342355468</wgs84Lon>
			</item>
			<item>
				<dutyName>하나가정의원</dutyName>
				<dutyTel1>02-2281-8912</dutyTel1>
				<dutyTime1c>1800</dutyTime1c>
				<dutyTime1s>830</dutyTime1s>
				<wgs84Lat>37.5624040864583</wgs84Lat>
				<wgs84Lon>127.035585011718</wgs84Lon>
			</item>
			<item>
				<dutyName>하나웰남성의원</dutyName>
				<dutyTel1>02-2246-7788</dutyTel1>
				<dutyTime1c>1830</dutyTime1c>
				<dutyTime1s>930</dutyTime1s>
				<wgs84Lat>37.5609425677</wgs84Lat>
				<wgs84Lon>127.0653375111</wgs84Lon>
			</item>
			<item>
				<dutyName>하나의원</dutyName>
				<dutyTel1>02-2254-0089</dutyTel1>
				<dutyTime1c>1800</dutyTime1c>
				<dutyTime1s>900</dutyTime1s>
				<wgs84Lat>37.5483336206</wgs84Lat>
				<wgs84Lon>127.0230263263</wgs84Lon>
			</item>
			<item>
				<dutyName>하나이비인후과의원</dutyName>
				<dutyTel1>02-2298-9930</dutyTel1>
				<dutyTime1c>1900</dutyTime1c>
				<dutyTime1s>900</dutyTime1s>
				<wgs84Lat>37.5442695811</wgs84Lat>
				<wgs84Lon>127.0151901231</wgs84Lon>
			</item>
			<item>
				<dutyName>하내과의원</dutyName>
				<dutyTel1>02-2295-8275</dutyTel1>
				<dutyTime1c>1830</dutyTime1c>
				<dutyTime1s>900</dutyTime1s>
				<wgs84Lat>37.5410958282292</wgs84Lat>
				<wgs84Lon>127.014615412878</wgs84Lon>
			</item>
			<item>
				<dutyName>하늘봄한의원</dutyName>
				<dutyTel1>02-2292-1275</dutyTel1>
				<dutyTime1c>2100</dutyTime1c>
				<dutyTime1s>1000</dutyTime1s>
				<wgs84Lat>37.5645694922194</wgs84Lat>
				<wgs84Lon>127.029338259633</wgs84Lon>
			</item>
			<item>
				<dutyName>학교법인대진교육재단제인병원</dutyName>
				<dutyTel1>02-3408-2100</dutyTel1>
				<dutyTime1c>1800</dutyTime1c>
				<dutyTime1s>900</dutyTime1s>
				<wgs84Lat>37.5494609971893</wgs84Lat>
				<wgs84Lon>127.056944276928</wgs84Lon>
			</item>
			<item>
				<dutyName>한누리한의원</dutyName>
				<dutyTel1>02-2296-7510</dutyTel1>
				<dutyTime1c>2100</dutyTime1c>
				<dutyTime1s>900</dutyTime1s>
				<wgs84Lat>37.5618136736241</wgs84Lat>
				<wgs84Lon>127.033375419739</wgs84Lon>
			</item>
			<item>
				<dutyName>한마음부부치과의원</dutyName>
				<dutyTel1>02-2281-8080</dutyTel1>
				<dutyTime1c>1830</dutyTime1c>
				<dutyTime1s>930</dutyTime1s>
				<wgs84Lat>37.5548153538535</wgs84Lat>
				<wgs84Lon>127.02033523691</wgs84Lon>
			</item>
			<item>
				<dutyName>한빛안과의원</dutyName>
				<dutyTel1>02-2295-8013</dutyTel1>
				<dutyTime1c>1800</dutyTime1c>
				<dutyTime1s>930</dutyTime1s>
				<wgs84Lat>37.5484384812813</wgs84Lat>
				<wgs84Lon>127.021156930359</wgs84Lon>
			</item>
			<item>
				<dutyName>한빛의원</dutyName>
				<dutyTel1>02-498-8275</dutyTel1>
				<dutyTime1c>1900</dutyTime1c>
				<dutyTime1s>900</dutyTime1s>
				<wgs84Lat>37.5377285782449</wgs84Lat>
				<wgs84Lon>127.052178693124</wgs84Lon>
			</item>
			<item>
				<dutyName>한상일의원</dutyName>
				<dutyTel1>02-2293-1571</dutyTel1>
				<dutyTime1c>1600</dutyTime1c>
				<dutyTime1s>900</dutyTime1s>
				<wgs84Lat>37.5582198876324</wgs84Lat>
				<wgs84Lon>127.035483425555</wgs84Lon>
			</item>
			<item>
				<dutyName>한솔내과의원</dutyName>
				<dutyTel1>02-2297-8275</dutyTel1>
				<dutyTime1c>1830</dutyTime1c>
				<dutyTime1s>900</dutyTime1s>
				<wgs84Lat>37.5565868470757</wgs84Lat>
				<wgs84Lon>127.028814690804</wgs84Lon>
			</item>
			<item>
				<dutyName>한솔한의원</dutyName>
				<dutyTel1>02-497-5515</dutyTel1>
				<dutyTime1c>1900</dutyTime1c>
				<dutyTime1s>930</dutyTime1s>
				<wgs84Lat>37.5380166408527</wgs84Lat>
				<wgs84Lon>127.052758206475</wgs84Lon>
			</item>
			<item>
				<dutyName>한승룡소아청소년과의원</dutyName>
				<dutyTel1>02-2293-8038</dutyTel1>
				<dutyTime1c>1900</dutyTime1c>
				<dutyTime1s>900</dutyTime1s>
				<wgs84Lat>37.5548609451239</wgs84Lat>
				<wgs84Lon>127.020312215833</wgs84Lon>
			</item>
			<item>
				<dutyName>한양대학교병원</dutyName>
				<dutyTel1>02-2290-8114</dutyTel1>
				<dutyTime1c>1800</dutyTime1c>
				<dutyTime1s>900</dutyTime1s>
				<wgs84Lat>37.5599445335647</wgs84Lat>
				<wgs84Lon>127.04488284062</wgs84Lon>
			</item>
			<item>
				<dutyName>한양류마엄완식내과의원</dutyName>
				<dutyTel1>02-466-7447</dutyTel1>
				<dutyTime1c>1800</dutyTime1c>
				<dutyTime1s>900</dutyTime1s>
				<wgs84Lat>37.5446929176</wgs84Lat>
				<wgs84Lon>127.0569315974</wgs84Lon>
			</item>
			<item>
				<dutyName>함소아한의원</dutyName>
				<dutyTel1>02-2299-1075</dutyTel1>
				<dutyTime1c>1730</dutyTime1c>
				<dutyTime1s>1000</dutyTime1s>
				<wgs84Lat>37.5627541699615</wgs84Lat>
				<wgs84Lon>127.033896466898</wgs84Lon>
			</item>
			<item>
				<dutyName>해민정신건강의학과의원</dutyName>
				<dutyTel1>02-2292-1535</dutyTel1>
				<dutyTime1c>1830</dutyTime1c>
				<dutyTime1s>930</dutyTime1s>
				<wgs84Lat>37.5613772477807</wgs84Lat>
				<wgs84Lon>127.034583991605</wgs84Lon>
			</item>
			<item>
				<dutyName>행당서울치과의원</dutyName>
				<dutyTel1>02-2299-4933</dutyTel1>
				<dutyTime1c>1830</dutyTime1c>
				<dutyTime1s>930</dutyTime1s>
				<wgs84Lat>37.5580524074985</wgs84Lat>
				<wgs84Lon>127.033776877898</wgs84Lon>
			</item>
			<item>
				<dutyName>행당성모안과의원</dutyName>
				<dutyTel1>02-2299-2298</dutyTel1>
				<dutyTime1c>1800</dutyTime1c>
				<dutyTime1s>900</dutyTime1s>
				<wgs84Lat>37.5572932857335</wgs84Lat>
				<wgs84Lon>127.028543327913</wgs84Lon>
			</item>
			<item>
				<dutyName>행당외과영상의학과의원</dutyName>
				<dutyTel1>02-2292-7323</dutyTel1>
				<dutyTime1c>1830</dutyTime1c>
				<dutyTime1s>900</dutyTime1s>
				<wgs84Lat>37.5613569825405</wgs84Lat>
				<wgs84Lon>127.034697335292</wgs84Lon>
			</item>
			<item>
				<dutyName>행복한내과의원</dutyName>
				<dutyTel1>02-496-9933</dutyTel1>
				<dutyTime1c>1830</dutyTime1c>
				<dutyTime1s>900</dutyTime1s>
				<wgs84Lat>37.5389423528</wgs84Lat>
				<wgs84Lon>127.0539129517</wgs84Lon>
			</item>
			<item>
				<dutyName>행복한치과의원</dutyName>
				<dutyTel1>02-2295-2872</dutyTel1>
				<dutyTime1c>1830</dutyTime1c>
				<dutyTime1s>930</dutyTime1s>
				<wgs84Lat>37.5704764674901</wgs84Lat>
				<wgs84Lon>127.037341127422</wgs84Lon>
			</item>
			<item>
