<?xml version="1.0" encoding="UTF-8" standalone="yes"?>
<response xmlns:xsi="http://www.w3.org/2001/XMLSchema-instance">
	<body>
		<items>
			<item>
				<dutyName>(학)고려중앙학원고려대학교의과대학부속병원(안암병원)</dutyName>
				<dutyTel1>1577-0083</dutyTel1>
				<dutyTime1c>1730</dutyTime1c>
				<dutyTime1s>900</dutyTime1s>
				<wgs84Lat>37.5871560800237</wgs84Lat>
				<wgs84Lon>127.02647086386</wgs84Lon>
			</item>
			<item>
				<dutyName>21세기연세산부인과의원</dutyName>
				<dutyTel1>02-929-8800</dutyTel1>
				<dutyTime1c>1830</dutyTime1c>
				<dutyTime1s>900</dutyTime1s>
				<wgs84Lat>37.5900703622327</wgs84Lat>
				<wgs84Lon>127.010466372604</wgs84Lon>
			</item>
			<item>
				<dutyName>365봄이비인후과의원</dutyName>
				<dutyTel1>02-943-9119</dutyTel1>
				<dutyTime1c>1930</dutyTime1c>
				<dutyTime1s>900</dutyTime1s>
				<wgs84Lat>37.6050252194845</wgs84Lat>
				<wgs84Lon>127.022214194576</wgs84Lon>
			</item>
			<item>
				<dutyName>365엠씨의원</dutyName>
				<dutyTel1>02-924-3653</dutyTel1>
				<dutyTime1c>2000</dutyTime1c>
				<dutyTime1s>1100</dutyTime1s>
				<wgs84Lat>37.5930241252</wgs84Lat>
				<wgs84Lon>127.0161738073</wgs84Lon>
			</item>
			<item>
				<dutyName>JHW가인안과의원</dutyName>
				<dutyTel1>02-919-5255</dutyTel1>
				<dutyTime1c>1800</dutyTime1c>
				<dutyTime1s>930</dutyTime1s>
				<wgs84Lat>37.6034669675</wgs84Lat>
				<wgs84Lon>127.0245562766</wgs84Lon>
			</item>
			<item>
				<dutyName>SKY서울가정의학과의원</dutyName>
				<dutyTel1>02-928-3175</dutyTel1>
				<dutyTime1c>1830</dutyTime1c>
				<dutyTime1s>830</dutyTime1s>
				<wgs84Lat>37.5945247632329</wgs84Lat>
				<wgs84Lon>127.011313878132</wgs84Lon>
			</item>
			<item>
				<dutyName>강북사랑으로치과의원</dutyName>
				<dutyTel1>02-916-2828</dutyTel1>
				<dutyTime1c>1830</dutyTime1c>
				<dutyTime1s>1000</dutyTime1s>
				<wgs84Lat>37.6044360929</wgs84Lat>
				<wgs84Lon>127.0391655265</wgs84Lon>
			</item>
			<item>
				<dutyName>강북삼성의원</dutyName>
				<dutyTel1>02-965-6900</dutyTel1>
				<dutyTime1c>1800</dutyTime1c>
				<dutyTime1s>900</dutyTime1s>
				<wgs84Lat>37.6136403541</wgs84Lat>
				<wgs84Lon>127.0643732976</wgs84Lon>
			</item>
			<item>
				<dutyName>강신언안과의원</dutyName>
				<dutyTel1>02-916-1722</dutyTel1>
				<dutyTime1c>1830</dutyTime1c>
				<dutyTime1s>900</dutyTime1s>
				<wgs84Lat>37.6020560497613</wgs84Lat>
				<wgs84Lon>127.019332470105</wgs84Lon>
			</item>
			<item>
				<dutyName>강피부과의원</dutyName>
				<dutyTel1>02-3443-1010</dutyTel1>
				<dutyTime1c>1830</dutyTime1c>
				<dutyTime1s>930</dutyTime1s>
				<wgs84Lat>37.5937526063537</wgs84Lat>
				<wgs84Lon>127.01917649754</wgs84Lon>
			</item>
			<item>
				<dutyName>개운한의원</dutyName>
				<dutyTel1>02-3291-7575</dutyTel1>
				<dutyTime1c>1800</dutyTime1c>
				<dutyTime1s>930</dutyTime1s>
				<wgs84Lat>37.5865161962</wgs84Lat>
				<wgs84Lon>127.03023437</wgs84Lon>
			</item>
			<item>
				<dutyName>경희강한의원</dutyName>
				<dutyTel1>02-914-1700</dutyTel1>
				<dutyTime1c>2000</dutyTime1c>
				<dutyTime1s>930</dutyTime1s>
				<wgs84Lat>37.6072237577126</wgs84Lat>
				<wgs84Lon>127.021394867537</wgs84Lon>
			</item>
			<item>
				<dutyName>경희길한의원</dutyName>
				<dutyTel1>02-953-5811</dutyTel1>
				<dutyTime1c>1900</dutyTime1c>
				<dutyTime1s>900</dutyTime1s>
				<wgs84Lat>37.5835595028446</wgs84Lat>
				<wgs84Lon>127.020057329173</wgs84Lon>
			</item>
			<item>
				<dutyName>경희나음한의원</dutyName>
				<dutyTel1>02-953-9975</dutyTel1>
				<dutyTime1c>1900</dutyTime1c>
				<dutyTime1s>900</dutyTime1s>
				<wgs84Lat>37.5968950827</wgs84Lat>
				<wgs84Lon>127.0138329225</wgs84Lon>
			</item>
			<item>
				<dutyName>경희민한의원</dutyName>
				<dutyTel1>02-981-1075</dutyTel1>
				<dutyTime1c>2100</dutyTime1c>
				<dutyTime1s>930</dutyTime1s>
				<wgs84Lat>37.612216198219</wgs84Lat>
				<wgs84Lon>127.029683025943</wgs84Lon>
			</item>
			<item>
				<dutyName>경희부부한의원</dutyName>
				<dutyTel1>02-910-7575</dutyTel1>
				<dutyTime1c>1900</dutyTime1c>
				<dutyTime1s>930</dutyTime1s>
				<wgs84Lat>37.6107262562</wgs84Lat>
				<wgs84Lon>127.0196704881</wgs84Lon>
			</item>
			<item>
				<dutyName>경희숲한의원</dutyName>
				<dutyTel1>02-909-1942</dutyTel1>
				<dutyTime1c>1830</dutyTime1c>
				<dutyTime1s>900</dutyTime1s>
				<wgs84Lat>37.6111311973998</wgs84Lat>
				<wgs84Lon>127.008974539008</wgs84Lon>
			</item>
			<item>
				<dutyName>경희의감한의원</dutyName>
				<dutyTel1>02-913-2311</dutyTel1>
				<dutyTime1c>1900</dutyTime1c>
				<dutyTime1s>1000</dutyTime1s>
				<wgs84Lat>37.6030220290587</wgs84Lat>
				<wgs84Lon>127.01848110199</wgs84Lon>
			</item>
			<item>
				<dutyName>경희일침한의원</dutyName>
				<dutyTel1>02-747-1888</dutyTel1>
				<dutyTime1c>1830</dutyTime1c>
				<dutyTime1s>930</dutyTime1s>
				<wgs84Lat>37.5888452061008</wgs84Lat>
				<wgs84Lon>127.007576775271</wgs84Lon>
			</item>
			<item>
				<dutyName>경희정토한의원</dutyName>
				<dutyTel1>02-925-1638</dutyTel1>
				<dutyTime1c>1800</dutyTime1c>
				<dutyTime1s>930</dutyTime1s>
				<wgs84Lat>37.5888831389583</wgs84Lat>
				<wgs84Lon>127.01636312746</wgs84Lon>
			</item>
			<item>
				<dutyName>구본호정형외과의원</dutyName>
				<dutyTel1>02-942-1919</dutyTel1>
				<dutyTime1c>1900</dutyTime1c>
				<dutyTime1s>900</dutyTime1s>
				<wgs84Lat>37.6161200709638</wgs84Lat>
				<wgs84Lon>127.056981480646</wgs84Lon>
			</item>
			<item>
				<dutyName>굿모닝이비인후과의원</dutyName>
				<dutyTel1>02-941-1175</dutyTel1>
				<dutyTime1c>1900</dutyTime1c>
				<dutyTime1s>900</dutyTime1s>
				<wgs84Lat>37.6030067353207</wgs84Lat>
				<wgs84Lon>127.023767349277</wgs84Lon>
			</item>
			<item>
				<dutyName>굿모닝플러스외과의원</dutyName>
				<dutyTel1>02-909-2296</dutyTel1>
				<dutyTime1c>1900</dutyTime1c>
				<dutyTime1s>900</dutyTime1s>
				<wgs84Lat>37.6009572807509</wgs84Lat>
				<wgs84Lon>127.034175882888</wgs84Lon>
			</item>
			<item>
				<dutyName>굿프렌마취통증의학과의원</dutyName>
				<dutyTel1>02-6268-2215</dutyTel1>
				<dutyTime1c>1700</dutyTime1c>
				<dutyTime1s>900</dutyTime1s>
				<wgs84Lat>37.6067458833769</wgs84Lat>
				<wgs84Lon>127.027664962851</wgs84Lon>
			</item>
			<item>
				<dutyName>권강진정형외과의원</dutyName>
				<dutyTel1>02-953-1010</dutyTel1>
				<dutyTime1c>1800</dutyTime1c>
				<dutyTime1s>900</dutyTime1s>
				<wgs84Lat>37.5837143793</wgs84Lat>
				<wgs84Lon>127.0206053368</wgs84Lon>
			</item>
			<item>
				<dutyName>권소아과의원</dutyName>
				<dutyTel1>02-915-0133</dutyTel1>
				<dutyTime1c>1800</dutyTime1c>
				<dutyTime1s>900</dutyTime1s>
				<wgs84Lat>37.6083740572023</wgs84Lat>
				<wgs84Lon>127.051566584044</wgs84Lon>
			</item>
			<item>
				<dutyName>기린i소아청소년과의원</dutyName>
				<dutyTel1>02-918-0700</dutyTel1>
				<dutyTime1c>1800</dutyTime1c>
				<dutyTime1s>900</dutyTime1s>
				<wgs84Lat>37.6114685546533</wgs84Lat>
				<wgs84Lon>127.0355676037</wgs84Lon>
			</item>
			<item>
				<dutyName>길음경희용한의원</dutyName>
				<dutyTel1>02-556-9124</dutyTel1>
				<dutyTime1c>1830</dutyTime1c>
				<dutyTime1s>930</dutyTime1s>
				<wgs84Lat>37.6084456949907</wgs84Lat>
				<wgs84Lon>127.020135822718</wgs84Lon>
			</item>
			<item>
				<dutyName>길음연세치과의원</dutyName>
				<dutyTel1>02-919-7876</dutyTel1>
				<dutyTime1c>1830</dutyTime1c>
				<dutyTime1s>930</dutyTime1s>
				<wgs84Lat>37.6045819000767</wgs84Lat>
				<wgs84Lon>127.022417916077</wgs84Lon>
			</item>
			<item>
				<dutyName>길음한의원</dutyName>
				<dutyTel1>02-943-1668</dutyTel1>
				<dutyTime1c>1900</dutyTime1c>
				<dutyTime1s>930</dutyTime1s>
				<wgs84Lat>37.6044149404967</wgs84Lat>
				<wgs84Lon>127.023904303381</wgs84Lon>
			</item>
			<item>
				<dutyName>김가풍정형외과의원</dutyName>
				<dutyTel1>02-941-3232</dutyTel1>
				<dutyTime1c>1800</dutyTime1c>
				<dutyTime1s>900</dutyTime1s>
				<wgs84Lat>37.6040004703613</wgs84Lat>
				<wgs84Lon>127.037756527863</wgs84Lon>
			</item>
			<item>
				<dutyName>김기범이비인후과의원</dutyName>
				<dutyTel1>02-927-2751</dutyTel1>
				<dutyTime1c>1830</dutyTime1c>
				<dutyTime1s>900</dutyTime1s>
				<wgs84Lat>37.5943193755124</wgs84Lat>
				<wgs84Lon>127.010860926087</wgs84Lon>
			</item>
			<item>
				<dutyName>김동일내과의원</dutyName>
				<dutyTel1>02-925-0800</dutyTel1>
				<dutyTime1c>1900</dutyTime1c>
				<dutyTime1s>830</dutyTime1s>
				<wgs84Lat>37.592083861393</wgs84Lat>
				<wgs84Lon>127.013184363132</wgs84Lon>
			</item>
			<item>
				<dutyName>김두현치과의원</dutyName>
				<dutyTel1>02-910-9174</dutyTel1>
				<dutyTime1c>1900</dutyTime1c>
				<dutyTime1s>930</dutyTime1s>
				<wgs84Lat>37.6073346205</wgs84Lat>
				<wgs84Lon>127.0362089061</wgs84Lon>
			</item>
			<item>
				<dutyName>김두현치과의원</dutyName>
				<dutyTel1>02-914-7030</dutyTel1>
				<dutyTime1c>1800</dutyTime1c>
				<dutyTime1s>900</dutyTime1s>
				<wgs84Lat>37.6085038206</wgs84Lat>
				<wgs84Lon>127.0101112905</wgs84Lon>
			</item>
			<item>
				<dutyName>김명선내과의원</dutyName>
				<dutyTel1>02-747-7582</dutyTel1>
				<dutyTime1c>1800</dutyTime1c>
				<dutyTime1s>900</dutyTime1s>
				<wgs84Lat>37.5891326634</wgs84Lat>
				<wgs84Lon>127.0081838556</wgs84Lon>
			</item>
			<item>
				<dutyName>김백선내과의원</dutyName>
				<dutyTel1>02-919-1353</dutyTel1>
				<dutyTime1c>1900</dutyTime1c>
				<dutyTime1s>900</dutyTime1s>
				<wgs84Lat>37.6043436205454</wgs84Lat>
				<wgs84Lon>127.024669189298</wgs84Lon>
			</item>
			<item>
				<dutyName>김선영소아과의원</dutyName>
				<dutyTel1>02-921-6188</dutyTel1>
				<dutyTime1c>1830</dutyTime1c>
				<dutyTime1s>830</dutyTime1s>
				<wgs84Lat>37.5988904223167</wgs84Lat>
				<wgs84Lon>127.022090689047</wgs84Lon>
			</item>
			<item>
				<dutyName>김성경내과의원</dutyName>
				<dutyTel1>02-918-7555</dutyTel1>
				<dutyTime1c>1800</dutyTime1c>
				<dutyTime1s>900</dutyTime1s>
				<wgs84Lat>37.6085903132672</wgs84Lat>
				<wgs84Lon>127.010111322945</wgs84Lon>
			</item>
			<item>
				<dutyName>김세진소아청소년과의원</dutyName>
				<dutyTel1>02-910-1255</dutyTel1>
				<dutyTime1c>2100</dutyTime1c>
				<dutyTime1s>900</dutyTime1s>
				<wgs84Lat>37.601826386933</wgs84Lat>
				<wgs84Lon>127.040464194584</wgs84Lon>
			</item>
			<item>
				<dutyName>김안과의원</dutyName>
				<dutyTel1>02-909-5270</dutyTel1>
				<dutyTime1c>1800</dutyTime1c>
				<dutyTime1s>930</dutyTime1s>
				<wgs84Lat>37.6027449094224</wgs84Lat>
				<wgs84Lon>127.041855360987</wgs84Lon>
			</item>
			<item>
				<dutyName>김앤김안과의원</dutyName>
				<dutyTel1>02-742-2385</dutyTel1>
				<dutyTime1c>1800</dutyTime1c>
				<dutyTime1s>900</dutyTime1s>
				<wgs84Lat>37.5899975523</wgs84Lat>
				<wgs84Lon>127.0090580523</wgs84Lon>
			</item>
			<item>
				<dutyName>김영명이비인후과의원</dutyName>
				<dutyTel1>02-943-7562</dutyTel1>
				<dutyTime1c>1800</dutyTime1c>
				<dutyTime1s>930</dutyTime1s>
				<wgs84Lat>37.6038800699699</wgs84Lat>
				<wgs84Lon>127.042100609826</wgs84Lon>
			</item>
			<item>
				<dutyName>김영호외과의원</dutyName>
				<dutyTel1>02-919-2255</dutyTel1>
				<dutyTime1c>1800</dutyTime1c>
				<dutyTime1s>945</dutyTime1s>
				<wgs84Lat>37.6039018427367</wgs84Lat>
				<wgs84Lon>127.014952562482</wgs84Lon>
			</item>
			<item>
				<dutyName>김용재이비인후과의원</dutyName>
				<dutyTel1>02-914-6465</dutyTel1>
				<dutyTime1c>1810</dutyTime1c>
				<dutyTime1s>900</dutyTime1s>
				<wgs84Lat>37.6024885249807</wgs84Lat>
				<wgs84Lon>127.013009558319</wgs84Lon>
			</item>
			<item>
				<dutyName>김윤호서울외과의원</dutyName>
				<dutyTel1>02-929-2345</dutyTel1>
				<dutyTime1c>1800</dutyTime1c>
				<dutyTime1s>900</dutyTime1s>
				<wgs84Lat>37.5941554732914</wgs84Lat>
				<wgs84Lon>127.018216756562</wgs84Lon>
			</item>
			<item>
				<dutyName>김인식내과의원</dutyName>
				<dutyTel1>02-919-6500</dutyTel1>
				<dutyTime1c>1800</dutyTime1c>
				<dutyTime1s>900</dutyTime1s>
				<wgs84Lat>37.6020696031</wgs84Lat>
				<wgs84Lon>127.019323947</wgs84Lon>
			</item>
			<item>
				<dutyName>김장욱가정의학과의원</dutyName>
				<dutyTel1>02-941-1097</dutyTel1>
				<dutyTime1c>1830</dutyTime1c>
				<dutyTime1s>900</dutyTime1s>
				<wgs84Lat>37.6008629596031</wgs84Lat>
				<wgs84Lon>127.036341013299</wgs84Lon>
			</item>
			<item>
				<dutyName>김재주피부과의원</dutyName>
				<dutyTel1>02-923-1165</dutyTel1>
				<dutyTime1c>1800</dutyTime1c>
				<dutyTime1s>1000</dutyTime1s>
				<wgs84Lat>37.5936219545373</wgs84Lat>
				<wgs84Lon>127.019031911476</wgs84Lon>
			</item>
			<item>
				<dutyName>김정피부과의원</dutyName>
				<dutyTel1>02-2117-1890</dutyTel1>
				<dutyTime1c>1830</dutyTime1c>
				<dutyTime1s>1100</dutyTime1s>
				<wgs84Lat>37.6083998425</wgs84Lat>
				<wgs84Lon>127.0287437491</wgs84Lon>
			</item>
			<item>
				<dutyName>김종탁치과의원</dutyName>
				<dutyTel1>02-919-1399</dutyTel1>
				<dutyTime1c>1830</dutyTime1c>
				<dutyTime1s>1000</dutyTime1s>
				<wgs84Lat>37.6133231095905</wgs84Lat>
				<wgs84Lon>127.049653625136</wgs84Lon>
			</item>
			<item>
				<dutyName>김철수비뇨기과의원</dutyName>
				<dutyTel1>02-918-1201</dutyTel1>
				<dutyTime1c>1800</dutyTime1c>
				<dutyTime1s>900</dutyTime1s>
				<wgs84Lat>37.6020696030702</wgs84Lat>
				<wgs84Lon>127.019323947041</wgs84Lon>
			</item>
			<item>
				<dutyName>김항중마취통증의학과의원</dutyName>
				<dutyTel1>02-745-0930</dutyTel1>
				<dutyTime1c>1900</dutyTime1c>
				<dutyTime1s>1030</dutyTime1s>
				<wgs84Lat>37.5885525742528</wgs84Lat>
				<wgs84Lon>127.0055479705</wgs84Lon>
			</item>
			<item>
				<dutyName>김효석내과의원</dutyName>
				<dutyTel1>02-943-1412</dutyTel1>
				<dutyTime1c>1830</dutyTime1c>
				<dutyTime1s>900</dutyTime1s>
				<wgs84Lat>37.5974311716288</wgs84Lat>
				<wgs84Lon>127.035415998324</wgs84Lon>
			</item>
			<item>
				<dutyName>김희균치과의원</dutyName>
				<dutyTel1>02-745-2882</dutyTel1>
				<dutyTime1c>1830</dutyTime1c>
				<dutyTime1s>930</dutyTime1s>
				<wgs84Lat>37.5894219230947</wgs84Lat>
				<wgs84Lon>127.007517013983</wgs84Lon>
			</item>
			<item>
				<dutyName>나은치과의원</dutyName>
				<dutyTel1>02-922-2788</dutyTel1>
				<dutyTime1c>1800</dutyTime1c>
				<dutyTime1s>930</dutyTime1s>
				<wgs84Lat>37.5869970219</wgs84Lat>
				<wgs84Lon>127.0236767981</wgs84Lon>
			</item>
			<item>
				<dutyName>나종보치과의원</dutyName>
				<dutyTel1>02-941-1863</dutyTel1>
				<dutyTime1c>1830</dutyTime1c>
				<dutyTime1s>930</dutyTime1s>
				<wgs84Lat>37.6110541379</wgs84Lat>
				<wgs84Lon>127.0354405579</wgs84Lon>
			</item>
			<item>
				<dutyName>나준의원</dutyName>
				<dutyTel1>02-929-7357</dutyTel1>
				<dutyTime1c>1730</dutyTime1c>
				<dutyTime1s>1000</dutyTime1s>
				<wgs84Lat>37.5941554732914</wgs84Lat>
				<wgs84Lon>127.018216756562</wgs84Lon>
			</item>
			<item>
				<dutyName>나현내과의원</dutyName>
				<dutyTel1>02-943-7261</dutyTel1>
				<dutyTime1c>1830</dutyTime1c>
				<dutyTime1s>900</dutyTime1s>
				<wgs84Lat>37.6170028686292</wgs84Lat>
				<wgs84Lon>127.003410881659</wgs84Lon>
			</item>
			<item>
				<dutyName>노블레스타워 부속의원</dutyName>
				<dutyTel1>02-917-6090</dutyTel1>
				<dutyTime1c>1800</dutyTime1c>
				<dutyTime1s>900</dutyTime1s>
				<wgs84Lat>37.5984474963</wgs84Lat>
				<wgs84Lon>127.0354028707</wgs84Lon>
			</item>
			<item>
				<dutyName>노신경외과의원</dutyName>
				<dutyTel1>02-911-0006</dutyTel1>
				<dutyTime1c>1800</dutyTime1c>
				<dutyTime1s>830</dutyTime1s>
				<wgs84Lat>37.6026980804046</wgs84Lat>
				<wgs84Lon>127.041791917611</wgs84Lon>
			</item>
			<item>
				<dutyName>노아치과의원</dutyName>
				<dutyTel1>02-914-3530</dutyTel1>
				<dutyTime1c>1700</dutyTime1c>
				<dutyTime1s>900</dutyTime1s>
				<wgs84Lat>37.6031551561</wgs84Lat>
				<wgs84Lon>127.013924678</wgs84Lon>
			</item>
			<item>
				<dutyName>노종호치과의원</dutyName>
				<dutyTel1>02-909-2875</dutyTel1>
				<dutyTime1c>1830</dutyTime1c>
				<dutyTime1s>1000</dutyTime1s>
				<wgs84Lat>37.6007980660695</wgs84Lat>
				<wgs84Lon>127.036417987001</wgs84Lon>
			</item>
			<item>
				<dutyName>누가이비인후과의원</dutyName>
				<dutyTel1>02-941-7250</dutyTel1>
				<dutyTime1c>1900</dutyTime1c>
				<dutyTime1s>900</dutyTime1s>
				<wgs84Lat>37.6082140448908</wgs84Lat>
				<wgs84Lon>127.036010027423</wgs84Lon>
			</item>
			<item>
				<dutyName>누가한의원</dutyName>
				<dutyTel1>02-918-8822</dutyTel1>
				<dutyTime1c>1830</dutyTime1c>
				<dutyTime1s>900</dutyTime1s>
				<wgs84Lat>37.6114685547</wgs84Lat>
				<wgs84Lon>127.0355676037</wgs84Lon>
			</item>
			<item>
				<dutyName>뉴서울치과의원</dutyName>
				<dutyTel1>02-764-2204</dutyTel1>
				<dutyTime1c>1830</dutyTime1c>
				<dutyTime1s>1000</dutyTime1s>
				<wgs84Lat>37.5888480545311</wgs84Lat>
				<wgs84Lon>127.006499052575</wgs84Lon>
			</item>
			<item>
				<dutyName>뉴연세치과의원</dutyName>
				<dutyTel1>02-3676-3008</dutyTel1>
				<dutyTime1c>1900</dutyTime1c>
				<dutyTime1s>1000</dutyTime1s>
				<wgs84Lat>37.58883717806</wgs84Lat>
				<wgs84Lon>127.007581472073</wgs84Lon>
			</item>
			<item>
				<dutyName>뉴욕엔와이유치과의원</dutyName>
				<dutyTel1>02-766-2772</dutyTel1>
				<dutyTime1c>1830</dutyTime1c>
				<dutyTime1s>1000</dutyTime1s>
				<wgs84Lat>37.5880876413</wgs84Lat>
				<wgs84Lon>127.0060370376</wgs84Lon>
			</item>
			<item>
				<dutyName>뉴욕치과의원</dutyName>
				<dutyTel1>02-916-7582</dutyTel1>
				<dutyTime1c>1800</dutyTime1c>
				<dutyTime1s>1000</dutyTime1s>
				<wgs84Lat>37.6043871564205</wgs84Lat>
				<wgs84Lon>127.023147169312</wgs84Lon>
			</item>
			<item>
				<dutyName>뉴타운연세소아과의원</dutyName>
				<dutyTel1>02-911-0237</dutyTel1>
				<dutyTime1c>1830</dutyTime1c>
				<dutyTime1s>900</dutyTime1s>
				<wgs84Lat>37.6108634767539</wgs84Lat>
				<wgs84Lon>127.017976195364</wgs84Lon>
			</item>
			<item>
				<dutyName>뉴타운치과의원</dutyName>
				<dutyTel1>02-911-2670</dutyTel1>
				<dutyTime1c>1900</dutyTime1c>
				<dutyTime1s>1000</dutyTime1s>
				<wgs84Lat>37.6107262562</wgs84Lat>
				<wgs84Lon>127.0196704881</wgs84Lon>
			</item>
			<item>
				<dutyName>늘빛한의원</dutyName>
				<dutyTel1>02-2231-7588</dutyTel1>
				<dutyTime1c>1900</dutyTime1c>
				<dutyTime1s>930</dutyTime1s>
				<wgs84Lat>37.5848571366</wgs84Lat>
				<wgs84Lon>127.0188213382</wgs84Lon>
			</item>
			<item>
				<dutyName>늘푸른치과의원</dutyName>
				<dutyTel1>02-928-2807</dutyTel1>
				<dutyTime1c>1800</dutyTime1c>
				<dutyTime1s>930</dutyTime1s>
				<wgs84Lat>37.59457161216</wgs84Lat>
				<wgs84Lon>127.011341059871</wgs84Lon>
			</item>
			<item>
				<dutyName>다사랑이비인후과의원</dutyName>
				<dutyTel1>02-911-5075</dutyTel1>
				<dutyTime1c>1930</dutyTime1c>
				<dutyTime1s>830</dutyTime1s>
				<wgs84Lat>37.6050584042</wgs84Lat>
				<wgs84Lon>127.0309893131</wgs84Lon>
			</item>
			<item>
				<dutyName>다솜연세가정의학과의원</dutyName>
				<dutyTel1>02-968-5888</dutyTel1>
				<dutyTime1c>1830</dutyTime1c>
				<dutyTime1s>900</dutyTime1s>
				<wgs84Lat>37.6128365265</wgs84Lat>
				<wgs84Lon>127.0646398989</wgs84Lon>
			</item>
			<item>
				<dutyName>닥터민치과의원</dutyName>
				<dutyTel1>02-925-2879</dutyTel1>
				<dutyTime1c>1830</dutyTime1c>
				<dutyTime1s>930</dutyTime1s>
				<wgs84Lat>37.586660623945</wgs84Lat>
				<wgs84Lon>127.029165626021</wgs84Lon>
			</item>
			<item>
				<dutyName>달라스치과의원</dutyName>
				<dutyTel1>02-941-7523</dutyTel1>
				<dutyTime1c>1830</dutyTime1c>
				<dutyTime1s>930</dutyTime1s>
				<wgs84Lat>37.6084757051478</wgs84Lat>
				<wgs84Lon>127.009784529958</wgs84Lon>
			</item>
			<item>
				<dutyName>대유당한의원</dutyName>
				<dutyTel1>02-922-1275</dutyTel1>
				<dutyTime1c>1830</dutyTime1c>
				<dutyTime1s>900</dutyTime1s>
				<wgs84Lat>37.6026436333265</wgs84Lat>
				<wgs84Lon>127.031432231066</wgs84Lon>
			</item>
			<item>
				<dutyName>대한치과의원</dutyName>
				<dutyTel1>02-953-2875</dutyTel1>
				<dutyTime1c>1830</dutyTime1c>
				<dutyTime1s>930</dutyTime1s>
				<wgs84Lat>37.5835929632566</wgs84Lat>
				<wgs84Lon>127.020048117971</wgs84Lon>
			</item>
			<item>
				<dutyName>더(THE)꼼꼼한치과의원</dutyName>
				<dutyTel1>02-764-2804</dutyTel1>
				<dutyTime1c>1830</dutyTime1c>
				<dutyTime1s>930</dutyTime1s>
				<wgs84Lat>37.5887326786621</wgs84Lat>
				<wgs84Lon>127.007332369251</wgs84Lon>
			</item>
			<item>
				<dutyName>더나은마취통증의학과의원</dutyName>
				<dutyTel1>02-941-3600</dutyTel1>
				<dutyTime1c>1800</dutyTime1c>
				<dutyTime1s>900</dutyTime1s>
				<wgs84Lat>37.6088642187</wgs84Lat>
				<wgs84Lon>127.0100841582</wgs84Lon>
			</item>
			<item>
				<dutyName>더서울병원</dutyName>
				<dutyTel1>02-929-2114</dutyTel1>
				<dutyTime1c>1800</dutyTime1c>
				<dutyTime1s>900</dutyTime1s>
				<wgs84Lat>37.5942350124</wgs84Lat>
				<wgs84Lon>127.016504707</wgs84Lon>
			</item>
			<item>
				<dutyName>더서울치과의원</dutyName>
				<dutyTel1>02-928-2228</dutyTel1>
				<dutyTime1c>1830</dutyTime1c>
				<dutyTime1s>930</dutyTime1s>
				<wgs84Lat>37.5943260127863</wgs84Lat>
				<wgs84Lon>127.01641831874</wgs84Lon>
			</item>
			<item>
				<dutyName>더편한치과의원</dutyName>
				<dutyTel1>02-928-2888</dutyTel1>
				<dutyTime1c>1900</dutyTime1c>
				<dutyTime1s>900</dutyTime1s>
				<wgs84Lat>37.5921664720416</wgs84Lat>
				<wgs84Lon>127.015494248056</wgs84Lon>
			</item>
			<item>
				<dutyName>더행복한산부인과의원</dutyName>
				<dutyTel1>02-928-0809</dutyTel1>
				<dutyTime1c>1830</dutyTime1c>
				<dutyTime1s>1000</dutyTime1s>
				<wgs84Lat>37.5921890044045</wgs84Lat>
				<wgs84Lon>127.015376194651</wgs84Lon>
			</item>
			<item>
				<dutyName>덕생당한의원</dutyName>
				<dutyTel1>02-925-1033</dutyTel1>
				<dutyTime1c>1900</dutyTime1c>
				<dutyTime1s>930</dutyTime1s>
				<wgs84Lat>37.594241929427</wgs84Lat>
				<wgs84Lon>127.018468152861</wgs84Lon>
			</item>
			<item>
				<dutyName>도경한의원</dutyName>
				<dutyTel1>02-909-2575</dutyTel1>
				<dutyTime1c>1900</dutyTime1c>
				<dutyTime1s>930</dutyTime1s>
				<wgs84Lat>37.6021561988</wgs84Lat>
				<wgs84Lon>127.0186988621</wgs84Lon>
			</item>
			<item>
				<dutyName>도담가정의학과의원</dutyName>
				<dutyTel1>02-912-0616</dutyTel1>
				<dutyTime1c>1820</dutyTime1c>
				<dutyTime1s>930</dutyTime1s>
				<wgs84Lat>37.6081798972</wgs84Lat>
				<wgs84Lon>126.9997146019</wgs84Lon>
			</item>
			<item>
				<dutyName>돈암고운세상피부과의원</dutyName>
				<dutyTel1>02-926-1007</dutyTel1>
				<dutyTime1c>1930</dutyTime1c>
				<dutyTime1s>1000</dutyTime1s>
				<wgs84Lat>37.5933544943436</wgs84Lat>
				<wgs84Lon>127.01819901055</wgs84Lon>
			</item>
			<item>
				<dutyName>동명한의원</dutyName>
				<dutyTel1>02-911-3386</dutyTel1>
				<dutyTime1c>1800</dutyTime1c>
				<dutyTime1s>930</dutyTime1s>
				<wgs84Lat>37.6181572031254</wgs84Lat>
				<wgs84Lon>127.046730006782</wgs84Lon>
			</item>
			<item>
				<dutyName>동서요양병원</dutyName>
				<dutyTel1>02-942-3611</dutyTel1>
				<dutyTime1c>1800</dutyTime1c>
				<dutyTime1s>900</dutyTime1s>
				<wgs84Lat>37.6068933437531</wgs84Lat>
				<wgs84Lon>127.028924371435</wgs84Lon>
			</item>
			<item>
				<dutyName>동성제일한의원</dutyName>
				<dutyTel1>02-926-0512</dutyTel1>
				<dutyTime1c>1800</dutyTime1c>
				<dutyTime1s>1000</dutyTime1s>
				<wgs84Lat>37.5851103338112</wgs84Lat>
				<wgs84Lon>127.031433914837</wgs84Lon>
			</item>
			<item>
				<dutyName>동우미앤미치과의원</dutyName>
				<dutyTel1>02-963-2876</dutyTel1>
				<dutyTime1c>1900</dutyTime1c>
				<dutyTime1s>930</dutyTime1s>
				<wgs84Lat>37.6129480474372</wgs84Lat>
				<wgs84Lon>127.065006959159</wgs84Lon>
			</item>
			<item>
				<dutyName>동제의원</dutyName>
				<dutyTel1>02-921-4857</dutyTel1>
				<dutyTime1c>1800</dutyTime1c>
				<dutyTime1s>900</dutyTime1s>
				<wgs84Lat>37.5932979063315</wgs84Lat>
				<wgs84Lon>127.017029890282</wgs84Lon>
			</item>
			<item>
				<dutyName>동제한의원</dutyName>
				<dutyTel1>02-912-4857</dutyTel1>
				<dutyTime1c>1700</dutyTime1c>
				<dutyTime1s>1000</dutyTime1s>
				<wgs84Lat>37.5933267304596</wgs84Lat>
				<wgs84Lon>127.017061622179</wgs84Lon>
			</item>
			<item>
				<dutyName>동호의원</dutyName>
				<dutyTel1>02-763-2772</dutyTel1>
				<dutyTime1c>1730</dutyTime1c>
				<dutyTime1s>1000</dutyTime1s>
				<wgs84Lat>37.5888480545311</wgs84Lat>
				<wgs84Lon>127.006499052575</wgs84Lon>
			</item>
			<item>
				<dutyName>두기한의원</dutyName>
				<dutyTel1>02-986-0380</dutyTel1>
				<dutyTime1c>1800</dutyTime1c>
				<dutyTime1s>1000</dutyTime1s>
				<wgs84Lat>37.6075419859783</wgs84Lat>
				<wgs84Lon>127.029210018254</wgs84Lon>
			</item>
			<item>
				<dutyName>두산의원</dutyName>
				<dutyTel1>02-965-7513</dutyTel1>
				<dutyTime1c>1830</dutyTime1c>
				<dutyTime1s>930</dutyTime1s>
				<wgs84Lat>37.6138275829242</wgs84Lat>
				<wgs84Lon>127.0671766588</wgs84Lon>
			</item>
			<item>
				<dutyName>듀오피부과의원</dutyName>
				<dutyTel1>02-922-3723</dutyTel1>
				<dutyTime1c>1930</dutyTime1c>
				<dutyTime1s>930</dutyTime1s>
				<wgs84Lat>37.5922492697</wgs84Lat>
				<wgs84Lon>127.0161917563</wgs84Lon>
			</item>
			<item>
				<dutyName>라더마의원</dutyName>
				<dutyTel1>02-922-7550</dutyTel1>
				<dutyTime1c>2100</dutyTime1c>
				<dutyTime1s>1000</dutyTime1s>
				<wgs84Lat>37.5933701295403</wgs84Lat>
				<wgs84Lon>127.01600177142</wgs84Lon>
			</item>
			<item>
				<dutyName>라피아의원</dutyName>
				<dutyTel1>02-909-2061</dutyTel1>
				<dutyTime1c>1800</dutyTime1c>
				<dutyTime1s>1000</dutyTime1s>
				<wgs84Lat>37.6041009918332</wgs84Lat>
				<wgs84Lon>127.025833911445</wgs84Lon>
			</item>
			<item>
				<dutyName>로덴치과병원</dutyName>
				<dutyTel1>02-941-4974</dutyTel1>
				<dutyTime1c>2100</dutyTime1c>
				<dutyTime1s>930</dutyTime1s>
				<wgs84Lat>37.5969168607558</wgs84Lat>
				<wgs84Lon>127.035623527909</wgs84Lon>
			</item>
			<item>
				<dutyName>루시나산부인과의원</dutyName>
				<dutyTel1>02-922-7474</dutyTel1>
				<dutyTime1c>1930</dutyTime1c>
				<dutyTime1s>900</dutyTime1s>
				<wgs84Lat>37.5902419549079</wgs84Lat>
				<wgs84Lon>127.015477997442</wgs84Lon>
			</item>
			<item>
				<dutyName>리안치과의원</dutyName>
				<dutyTel1>02-923-4703</dutyTel1>
				<dutyTime1c>1300</dutyTime1c>
				<dutyTime1s>900</dutyTime1s>
				<wgs84Lat>37.5956406075</wgs84Lat>
				<wgs84Lon>127.0161562561</wgs84Lon>
			</item>
			<item>
				<dutyName>리츠서울내과의원</dutyName>
				<dutyTel1>02-953-8875</dutyTel1>
				<dutyTime1c>1800</dutyTime1c>
				<dutyTime1s>830</dutyTime1s>
				<wgs84Lat>37.5884289608</wgs84Lat>
				<wgs84Lon>127.0169155576</wgs84Lon>
			</item>
			<item>
				<dutyName>마디척한의원추의원</dutyName>
				<dutyTel1>02-925-3650</dutyTel1>
				<dutyTime1c>2030</dutyTime1c>
				<dutyTime1s>900</dutyTime1s>
				<wgs84Lat>37.596438349209</wgs84Lat>
				<wgs84Lon>127.012500826403</wgs84Lon>
			</item>
			<item>
				<dutyName>만세정형외과의원</dutyName>
				<dutyTel1>02-959-8875</dutyTel1>
				<dutyTime1c>1800</dutyTime1c>
				<dutyTime1s>900</dutyTime1s>
				<wgs84Lat>37.6104042358</wgs84Lat>
				<wgs84Lon>127.0569046353</wgs84Lon>
			</item>
			<item>
				<dutyName>맑은성모이비인후과의원</dutyName>
				<dutyTel1>02-913-8175</dutyTel1>
				<dutyTime1c>1900</dutyTime1c>
				<dutyTime1s>900</dutyTime1s>
				<wgs84Lat>37.6107198697791</wgs84Lat>
				<wgs84Lon>127.019515745853</wgs84Lon>
			</item>
			<item>
				<dutyName>맑은세상의원</dutyName>
				<dutyTel1>02-967-7856</dutyTel1>
				<dutyTime1c>1800</dutyTime1c>
				<dutyTime1s>930</dutyTime1s>
				<wgs84Lat>37.6100544240312</wgs84Lat>
				<wgs84Lon>127.057371004443</wgs84Lon>
			</item>
			<item>
				<dutyName>맑은숲한의원</dutyName>
				<dutyTel1>02-918-7588</dutyTel1>
				<dutyTime1c>1900</dutyTime1c>
				<dutyTime1s>930</dutyTime1s>
				<wgs84Lat>37.6047827218289</wgs84Lat>
				<wgs84Lon>127.023012026377</wgs84Lon>
			</item>
			<item>
				<dutyName>맑을청한의원</dutyName>
				<dutyTel1>02-766-7975</dutyTel1>
				<dutyTime1c>1900</dutyTime1c>
				<dutyTime1s>930</dutyTime1s>
				<wgs84Lat>37.5869557572329</wgs84Lat>
				<wgs84Lon>127.009573992372</wgs84Lon>
			</item>
			<item>
				<dutyName>맘편한내과의원</dutyName>
				<dutyTel1>02-953-7537</dutyTel1>
				<dutyTime1c>1830</dutyTime1c>
				<dutyTime1s>800</dutyTime1s>
				<wgs84Lat>37.5897604779629</wgs84Lat>
				<wgs84Lon>127.009714525657</wgs84Lon>
			</item>
			<item>
				<dutyName>메이저성형외과의원</dutyName>
				<dutyTel1>02-922-7575</dutyTel1>
				<dutyTime1c>2100</dutyTime1c>
				<dutyTime1s>1000</dutyTime1s>
				<wgs84Lat>37.5937422289787</wgs84Lat>
				<wgs84Lon>127.0159833976</wgs84Lon>
			</item>
			<item>
				<dutyName>메이저피부과의원</dutyName>
				<dutyTel1>02-927-1925</dutyTel1>
				<dutyTime1c>2000</dutyTime1c>
				<dutyTime1s>1000</dutyTime1s>
				<wgs84Lat>37.5926530500557</wgs84Lat>
				<wgs84Lon>127.015168247468</wgs84Lon>
			</item>
			<item>
				<dutyName>명가정의학과의원</dutyName>
				<dutyTel1>02-917-1577</dutyTel1>
				<dutyTime1c>1900</dutyTime1c>
				<dutyTime1s>900</dutyTime1s>
				<wgs84Lat>37.6070932311</wgs84Lat>
				<wgs84Lon>127.0463017677</wgs84Lon>
			</item>
			<item>
				<dutyName>명보경희한의원</dutyName>
				<dutyTel1>02-915-5239</dutyTel1>
				<dutyTime1c>1830</dutyTime1c>
				<dutyTime1s>930</dutyTime1s>
				<wgs84Lat>37.6071969672986</wgs84Lat>
				<wgs84Lon>127.038424063632</wgs84Lon>
			</item>
			<item>
				<dutyName>명성하한의원</dutyName>
				<dutyTel1>02-941-1075</dutyTel1>
				<dutyTime1c>1900</dutyTime1c>
				<dutyTime1s>930</dutyTime1s>
				<wgs84Lat>37.6134994673974</wgs84Lat>
				<wgs84Lon>127.050206478156</wgs84Lon>
			</item>
			<item>
				<dutyName>명안과의원</dutyName>
				<dutyTel1>02-909-7533</dutyTel1>
				<dutyTime1c>1830</dutyTime1c>
				<dutyTime1s>930</dutyTime1s>
				<wgs84Lat>37.6063975216</wgs84Lat>
				<wgs84Lon>127.0364349528</wgs84Lon>
			</item>
			<item>
				<dutyName>명제한의원</dutyName>
				<dutyTel1>02-922-0633</dutyTel1>
				<dutyTime1c>1900</dutyTime1c>
				<dutyTime1s>930</dutyTime1s>
				<wgs84Lat>37.5944691847383</wgs84Lat>
				<wgs84Lon>127.017084529498</wgs84Lon>
			</item>
			<item>
				<dutyName>미래의원</dutyName>
				<dutyTel1>02-942-1945</dutyTel1>
				<dutyTime1c>1830</dutyTime1c>
				<dutyTime1s>930</dutyTime1s>
				<wgs84Lat>37.6016998854892</wgs84Lat>
				<wgs84Lon>127.033465044786</wgs84Lon>
			</item>
			<item>
				<dutyName>미래정형외과의원</dutyName>
				<dutyTel1>02-922-1933</dutyTel1>
				<dutyTime1c>1900</dutyTime1c>
				<dutyTime1s>900</dutyTime1s>
				<wgs84Lat>37.5942500778974</wgs84Lat>
				<wgs84Lon>127.018297941138</wgs84Lon>
			</item>
			<item>
				<dutyName>미래치과의원</dutyName>
				<dutyTel1>02-941-2875</dutyTel1>
				<dutyTime1c>1830</dutyTime1c>
				<dutyTime1s>930</dutyTime1s>
				<wgs84Lat>37.6030824007792</wgs84Lat>
				<wgs84Lon>127.023857967457</wgs84Lon>
			</item>
			<item>
				<dutyName>미보치과의원</dutyName>
				<dutyTel1>02-964-2875</dutyTel1>
				<dutyTime1c>2000</dutyTime1c>
				<dutyTime1s>930</dutyTime1s>
				<wgs84Lat>37.6104042358357</wgs84Lat>
				<wgs84Lon>127.056904635315</wgs84Lon>
			</item>
			<item>
				<dutyName>미소본한의원</dutyName>
				<dutyTel1>02-923-2325</dutyTel1>
				<dutyTime1c>1830</dutyTime1c>
				<dutyTime1s>930</dutyTime1s>
				<wgs84Lat>37.592166472</wgs84Lat>
				<wgs84Lon>127.0154942481</wgs84Lon>
			</item>
			<item>
				<dutyName>미소진치과의원</dutyName>
				<dutyTel1>02-921-2522</dutyTel1>
				<dutyTime1c>1830</dutyTime1c>
				<dutyTime1s>930</dutyTime1s>
				<wgs84Lat>37.5884253549138</wgs84Lat>
				<wgs84Lon>127.016906519665</wgs84Lon>
			</item>
			<item>
				<dutyName>미소천사치과의원</dutyName>
				<dutyTel1>02-911-2875</dutyTel1>
				<dutyTime1c>2100</dutyTime1c>
				<dutyTime1s>1000</dutyTime1s>
				<wgs84Lat>37.6229461836</wgs84Lat>
				<wgs84Lon>127.0483958693</wgs84Lon>
			</item>
			<item>
				<dutyName>미치과의원</dutyName>
				<dutyTel1>02-912-2828</dutyTel1>
				<dutyTime1c>1830</dutyTime1c>
				<dutyTime1s>930</dutyTime1s>
				<wgs84Lat>37.6026764656371</wgs84Lat>
				<wgs84Lon>127.041773765587</wgs84Lon>
			</item>
			<item>
				<dutyName>민들레한의원</dutyName>
				<dutyTel1>02-916-9161</dutyTel1>
				<dutyTime1c>1900</dutyTime1c>
				<dutyTime1s>930</dutyTime1s>
				<wgs84Lat>37.6045484859</wgs84Lat>
				<wgs84Lon>127.0370908876</wgs84Lon>
			</item>
			<item>
				<dutyName>민트치과의원</dutyName>
				<dutyTel1>02-929-7528</dutyTel1>
				<dutyTime1c>1830</dutyTime1c>
				<dutyTime1s>1000</dutyTime1s>
				<wgs84Lat>37.5932078723</wgs84Lat>
				<wgs84Lon>127.0165724185</wgs84Lon>
			</item>
			<item>
				<dutyName>바로마취통증의학과의원</dutyName>
				<dutyTel1>02-928-2272</dutyTel1>
				<dutyTime1c>1800</dutyTime1c>
				<dutyTime1s>900</dutyTime1s>
				<wgs84Lat>37.5888985804</wgs84Lat>
				<wgs84Lon>127.0050633768</wgs84Lon>
			</item>
			<item>
				<dutyName>바른몸한의원</dutyName>
				<dutyTel1>02-989-0120</dutyTel1>
				<dutyTime1c>1900</dutyTime1c>
				<dutyTime1s>930</dutyTime1s>
				<wgs84Lat>37.6116178532</wgs84Lat>
				<wgs84Lon>127.030040664</wgs84Lon>
			</item>
			<item>
				<dutyName>바른부부치과의원</dutyName>
				<dutyTel1>02-968-8228</dutyTel1>
				<dutyTime1c>1830</dutyTime1c>
				<dutyTime1s>930</dutyTime1s>
				<wgs84Lat>37.6088499936904</wgs84Lat>
				<wgs84Lon>127.058815182258</wgs84Lon>
			</item>
			<item>
				<dutyName>박가정의학과의원</dutyName>
				<dutyTel1>02-987-2724</dutyTel1>
				<dutyTime1c>1820</dutyTime1c>
				<dutyTime1s>900</dutyTime1s>
				<wgs84Lat>37.6114577433344</wgs84Lat>
				<wgs84Lon>127.035558558673</wgs84Lon>
			</item>
			<item>
				<dutyName>박규호내과의원</dutyName>
				<dutyTel1>02-959-9697</dutyTel1>
				<dutyTime1c>1900</dutyTime1c>
				<dutyTime1s>900</dutyTime1s>
				<wgs84Lat>37.6092319406762</wgs84Lat>
				<wgs84Lon>127.058955939736</wgs84Lon>
			</item>
			<item>
				<dutyName>박내과의원</dutyName>
				<dutyTel1>02-911-2019</dutyTel1>
				<dutyTime1c>1800</dutyTime1c>
				<dutyTime1s>900</dutyTime1s>
				<wgs84Lat>37.6131391681569</wgs84Lat>
				<wgs84Lon>127.049979714488</wgs84Lon>
			</item>
			<item>
				<dutyName>박병곤의원</dutyName>
				<dutyTel1>02-747-2343</dutyTel1>
				<dutyTime1c>1840</dutyTime1c>
				<dutyTime1s>900</dutyTime1s>
				<wgs84Lat>37.5869629662769</wgs84Lat>
				<wgs84Lon>127.009560406769</wgs84Lon>
			</item>
			<item>
				<dutyName>박소아청소년과의원</dutyName>
				<dutyTel1>02-953-7582</dutyTel1>
				<dutyTime1c>1800</dutyTime1c>
				<dutyTime1s>900</dutyTime1s>
				<wgs84Lat>37.5835595028</wgs84Lat>
				<wgs84Lon>127.0200573292</wgs84Lon>
			</item>
			<item>
				<dutyName>박순옥산부인과의원</dutyName>
				<dutyTel1>02-918-7707</dutyTel1>
				<dutyTime1c>1730</dutyTime1c>
				<dutyTime1s>1000</dutyTime1s>
				<wgs84Lat>37.6140407059</wgs84Lat>
				<wgs84Lon>127.0486709874</wgs84Lon>
			</item>
			<item>
				<dutyName>박원배치과의원</dutyName>
				<dutyTel1>02-959-8610</dutyTel1>
				<dutyTime1c>1800</dutyTime1c>
				<dutyTime1s>930</dutyTime1s>
				<wgs84Lat>37.6100904151</wgs84Lat>
				<wgs84Lon>127.0574752069</wgs84Lon>
			</item>
			<item>
				<dutyName>박찬유치과의원</dutyName>
				<dutyTel1>02-912-9444</dutyTel1>
				<dutyTime1c>1800</dutyTime1c>
				<dutyTime1s>1000</dutyTime1s>
				<wgs84Lat>37.6033996240673</wgs84Lat>
				<wgs84Lon>127.023445850352</wgs84Lon>
			</item>
			<item>
				<dutyName>박치과의원</dutyName>
				<dutyTel1>02-918-5086</dutyTel1>
				<dutyTime1c>1800</dutyTime1c>
				<dutyTime1s>1000</dutyTime1s>
				<wgs84Lat>37.610892220882</wgs84Lat>
				<wgs84Lon>127.056532508184</wgs84Lon>
			</item>
			<item>
				<dutyName>박피부과의원</dutyName>
				<dutyTel1>02-742-8141</dutyTel1>
				<dutyTime1c>1630</dutyTime1c>
				<dutyTime1s>900</dutyTime1s>
				<wgs84Lat>37.5889669711676</wgs84Lat>
				<wgs84Lon>127.00669835804</wgs84Lon>
			</item>
			<item>
				<dutyName>백산한의원</dutyName>
				<dutyTel1>02-959-6077</dutyTel1>
				<dutyTime1c>1800</dutyTime1c>
				<dutyTime1s>900</dutyTime1s>
				<wgs84Lat>37.6139249776865</wgs84Lat>
				<wgs84Lon>127.064532130359</wgs84Lon>
			</item>
			<item>
				<dutyName>베드로신경정신과의원</dutyName>
				<dutyTel1>02-921-8846</dutyTel1>
				<dutyTime1c>1800</dutyTime1c>
				<dutyTime1s>900</dutyTime1s>
				<wgs84Lat>37.5922358465445</wgs84Lat>
				<wgs84Lon>127.01545319846</wgs84Lon>
			</item>
			<item>
				<dutyName>보림한의원</dutyName>
				<dutyTel1>02-918-9671</dutyTel1>
				<dutyTime1c>1700</dutyTime1c>
				<dutyTime1s>900</dutyTime1s>
				<wgs84Lat>37.6091014138358</wgs84Lat>
				<wgs84Lon>127.053012235622</wgs84Lon>
			</item>
			<item>
				<dutyName>보문제일의원</dutyName>
				<dutyTel1>02-929-7596</dutyTel1>
				<dutyTime1c>1800</dutyTime1c>
				<dutyTime1s>900</dutyTime1s>
				<wgs84Lat>37.5837143793075</wgs84Lat>
				<wgs84Lon>127.02060533682</wgs84Lon>
			</item>
			<item>
				<dutyName>보문치과의원</dutyName>
				<dutyTel1>02-923-2090</dutyTel1>
				<dutyTime1c>2030</dutyTime1c>
				<dutyTime1s>1400</dutyTime1s>
				<wgs84Lat>37.5836216972695</wgs84Lat>
				<wgs84Lon>127.020659486512</wgs84Lon>
			</item>
			<item>
				<dutyName>보문한의원</dutyName>
				<dutyTel1>02-926-8844</dutyTel1>
				<dutyTime1c>1900</dutyTime1c>
				<dutyTime1s>930</dutyTime1s>
				<wgs84Lat>37.5858839878199</wgs84Lat>
				<wgs84Lon>127.020488207366</wgs84Lon>
			</item>
			<item>
				<dutyName>보문효사랑요양병원</dutyName>
				<dutyTel1>02-929-3355</dutyTel1>
				<dutyTime1c>1800</dutyTime1c>
				<dutyTime1s>900</dutyTime1s>
				<wgs84Lat>37.5797352027853</wgs84Lat>
				<wgs84Lon>127.02272353342</wgs84Lon>
			</item>
			<item>
				<dutyName>봄빛서울의원</dutyName>
				<dutyTel1>02-921-0180</dutyTel1>
				<dutyTime1c>1800</dutyTime1c>
				<dutyTime1s>900</dutyTime1s>
				<wgs84Lat>37.5989352272533</wgs84Lat>
				<wgs84Lon>127.018067986981</wgs84Lon>
			</item>
			<item>
				<dutyName>봉사당한의원</dutyName>
				<dutyTel1>02-914-6080</dutyTel1>
				<dutyTime1c>1930</dutyTime1c>
				<dutyTime1s>900</dutyTime1s>
				<wgs84Lat>37.6051539069414</wgs84Lat>
				<wgs84Lon>127.037231616505</wgs84Lon>
			</item>
			<item>
				<dutyName>북한산한의원</dutyName>
				<dutyTel1>02-941-7955</dutyTel1>
				<dutyTime1c>1900</dutyTime1c>
				<dutyTime1s>900</dutyTime1s>
				<wgs84Lat>37.61164297802</wgs84Lat>
				<wgs84Lon>127.008693740297</wgs84Lon>
			</item>
			<item>
				<dutyName>빈센트치과의원</dutyName>
				<dutyTel1>02-923-2875</dutyTel1>
				<dutyTime1c>2100</dutyTime1c>
				<dutyTime1s>1000</dutyTime1s>
				<wgs84Lat>37.5934169657705</wgs84Lat>
				<wgs84Lon>127.016092386849</wgs84Lon>
			</item>
			<item>
				<dutyName>사람인치과의원</dutyName>
				<dutyTel1>02-929-2857</dutyTel1>
				<dutyTime1c>1800</dutyTime1c>
				<dutyTime1s>1000</dutyTime1s>
				<wgs84Lat>37.5865161961803</wgs84Lat>
				<wgs84Lon>127.030234370024</wgs84Lon>
			</item>
			<item>
				<dutyName>사암늘쾌차한의원</dutyName>
				<dutyTel1>02-742-3278</dutyTel1>
				<dutyTime1c>1900</dutyTime1c>
				<dutyTime1s>1000</dutyTime1s>
				<wgs84Lat>37.5884380518469</wgs84Lat>
				<wgs84Lon>127.005416459403</wgs84Lon>
			</item>
			<item>
				<dutyName>삼선치과의원</dutyName>
				<dutyTel1>02-742-3737</dutyTel1>
				<dutyTime1c>1500</dutyTime1c>
				<dutyTime1s>830</dutyTime1s>
				<wgs84Lat>37.588959767</wgs84Lat>
				<wgs84Lon>127.0066892787</wgs84Lon>
			</item>
			<item>
				<dutyName>삼성연합의원</dutyName>
				<dutyTel1>02-3676-7577</dutyTel1>
				<dutyTime1c>1800</dutyTime1c>
				<dutyTime1s>900</dutyTime1s>
				<wgs84Lat>37.5875369854834</wgs84Lat>
				<wgs84Lon>127.007377400295</wgs84Lon>
			</item>
			<item>
				<dutyName>삼성키즈소아청소년과의원</dutyName>
				<dutyTel1>02-941-7275</dutyTel1>
				<dutyTime1c>1900</dutyTime1c>
				<dutyTime1s>900</dutyTime1s>
				<wgs84Lat>37.6067480145193</wgs84Lat>
				<wgs84Lon>127.021539701114</wgs84Lon>
			</item>
			<item>
				<dutyName>삼성프렌드의원</dutyName>
				<dutyTel1>02-927-1010</dutyTel1>
				<dutyTime1c>1800</dutyTime1c>
				<dutyTime1s>830</dutyTime1s>
				<wgs84Lat>37.5835595028</wgs84Lat>
				<wgs84Lon>127.0200573292</wgs84Lon>
			</item>
			<item>
				<dutyName>삼혜이비인후과의원</dutyName>
				<dutyTel1>02-742-6522</dutyTel1>
				<dutyTime1c>1830</dutyTime1c>
				<dutyTime1s>900</dutyTime1s>
				<wgs84Lat>37.589150675957</wgs84Lat>
				<wgs84Lon>127.008288023945</wgs84Lon>
			</item>
			<item>
				<dutyName>새마음요양병원</dutyName>
				<dutyTel1>02-911-7115</dutyTel1>
				<dutyTime1c>1700</dutyTime1c>
				<dutyTime1s>900</dutyTime1s>
				<wgs84Lat>37.6012880331137</wgs84Lat>
				<wgs84Lon>127.021687717312</wgs84Lon>
			</item>
			<item>
				<dutyName>새생명한의원</dutyName>
				<dutyTel1>02-914-7510</dutyTel1>
				<dutyTime1c>1900</dutyTime1c>
				<dutyTime1s>930</dutyTime1s>
				<wgs84Lat>37.6043499122963</wgs84Lat>
				<wgs84Lon>127.024678874038</wgs84Lon>
			</item>
			<item>
				<dutyName>새서울정형외과의원</dutyName>
				<dutyTel1>02-925-0521</dutyTel1>
				<dutyTime1c>1830</dutyTime1c>
				<dutyTime1s>900</dutyTime1s>
				<wgs84Lat>37.5859924022435</wgs84Lat>
				<wgs84Lon>127.018731048399</wgs84Lon>
			</item>
			<item>
				<dutyName>샛별의원</dutyName>
				<dutyTel1>02-766-7525</dutyTel1>
				<dutyTime1c>2200</dutyTime1c>
				<dutyTime1s>900</dutyTime1s>
				<wgs84Lat>37.5898608489</wgs84Lat>
				<wgs84Lon>127.0048596362</wgs84Lon>
			</item>
			<item>
				<dutyName>생명마루한의원</dutyName>
				<dutyTel1>02-921-1975</dutyTel1>
				<dutyTime1c>2100</dutyTime1c>
				<dutyTime1s>1000</dutyTime1s>
				<wgs84Lat>37.5878953699912</wgs84Lat>
				<wgs84Lon>127.018278635383</wgs84Lon>
			</item>
			<item>
				<dutyName>샤인의원</dutyName>
				<dutyTel1>02-989-7654</dutyTel1>
				<dutyTime1c>2000</dutyTime1c>
				<dutyTime1s>1000</dutyTime1s>
				<wgs84Lat>37.6102519952</wgs84Lat>
				<wgs84Lon>127.0298770254</wgs84Lon>
			</item>
			<item>
				<dutyName>서경한의원</dutyName>
				<dutyTel1>02--911-8275</dutyTel1>
				<dutyTime1c>2000</dutyTime1c>
				<dutyTime1s>930</dutyTime1s>
				<wgs84Lat>37.608676254</wgs84Lat>
				<wgs84Lon>127.0152847548</wgs84Lon>
			</item>
			<item>
				<dutyName>서광윤신경정신과의원</dutyName>
				<dutyTel1>02-922-1183</dutyTel1>
				<dutyTime1c>1730</dutyTime1c>
				<dutyTime1s>930</dutyTime1s>
				<wgs84Lat>37.5856874661488</wgs84Lat>
				<wgs84Lon>127.029509432461</wgs84Lon>
			</item>
			<item>
				<dutyName>서우정한의원</dutyName>
				<dutyTel1>02-927-2888</dutyTel1>
				<dutyTime1c>1730</dutyTime1c>
				<dutyTime1s>900</dutyTime1s>
				<wgs84Lat>37.5984598482433</wgs84Lat>
				<wgs84Lon>127.033835078775</wgs84Lon>
			</item>
			<item>
				<dutyName>서울S플러스치과의원</dutyName>
				<dutyTel1>02-924-2275</dutyTel1>
				<dutyTime1c>1830</dutyTime1c>
				<dutyTime1s>930</dutyTime1s>
				<wgs84Lat>37.5931151158122</wgs84Lat>
				<wgs84Lon>127.016209735154</wgs84Lon>
			</item>
			<item>
				<dutyName>서울가정의학과의원</dutyName>
				<dutyTel1>02-953-8575</dutyTel1>
				<dutyTime1c>1800</dutyTime1c>
				<dutyTime1s>900</dutyTime1s>
				<wgs84Lat>37.6027095492171</wgs84Lat>
				<wgs84Lon>127.031313840601</wgs84Lon>
			</item>
			<item>
				<dutyName>서울경희통합의원</dutyName>
				<dutyTel1>02-745-8275</dutyTel1>
				<dutyTime1c>2000</dutyTime1c>
				<dutyTime1s>900</dutyTime1s>
				<wgs84Lat>37.5899622454011</wgs84Lat>
				<wgs84Lon>127.010448243714</wgs84Lon>
			</item>
			<item>
				<dutyName>서울경희한의원</dutyName>
				<dutyTel1>02-745-8275</dutyTel1>
				<dutyTime1c>2000</dutyTime1c>
				<dutyTime1s>900</dutyTime1s>
				<wgs84Lat>37.5900595616451</wgs84Lat>
				<wgs84Lon>127.010316914537</wgs84Lon>
			</item>
			<item>
				<dutyName>서울고운치과의원</dutyName>
				<dutyTel1>02-953-2275</dutyTel1>
				<dutyTime1c>1830</dutyTime1c>
				<dutyTime1s>930</dutyTime1s>
				<wgs84Lat>37.5888831389583</wgs84Lat>
				<wgs84Lon>127.01636312746</wgs84Lon>
			</item>
			<item>
				<dutyName>서울뉴치과의원</dutyName>
				<dutyTel1>02-942-0248</dutyTel1>
				<dutyTime1c>1900</dutyTime1c>
				<dutyTime1s>930</dutyTime1s>
				<wgs84Lat>37.604372425757</wgs84Lat>
				<wgs84Lon>127.024720803785</wgs84Lon>
			</item>
			<item>
				<dutyName>서울명인치과의원</dutyName>
				<dutyTel1>02-923-2080</dutyTel1>
				<dutyTime1c>1700</dutyTime1c>
				<dutyTime1s>930</dutyTime1s>
				<wgs84Lat>37.5932220874686</wgs84Lat>
				<wgs84Lon>127.01794477575</wgs84Lon>
			</item>
			<item>
				<dutyName>서울미래정형외과의원</dutyName>
				<dutyTel1>02-953-1414</dutyTel1>
				<dutyTime1c>1800</dutyTime1c>
				<dutyTime1s>930</dutyTime1s>
				<wgs84Lat>37.5988262861</wgs84Lat>
				<wgs84Lon>127.0341347731</wgs84Lon>
			</item>
			<item>
				<dutyName>서울미래치과의원</dutyName>
				<dutyTel1>02-929-9270</dutyTel1>
				<dutyTime1c>1830</dutyTime1c>
				<dutyTime1s>930</dutyTime1s>
				<wgs84Lat>37.5930682792122</wgs84Lat>
				<wgs84Lon>127.016091967387</wgs84Lon>
			</item>
			<item>
				<dutyName>서울미소치과의원</dutyName>
				<dutyTel1>02-941-2872</dutyTel1>
				<dutyTime1c>1800</dutyTime1c>
				<dutyTime1s>930</dutyTime1s>
				<wgs84Lat>37.6080393424382</wgs84Lat>
				<wgs84Lon>126.99958775909</wgs84Lon>
			</item>
			<item>
				<dutyName>서울민치과의원</dutyName>
				<dutyTel1>02-987-7528</dutyTel1>
				<dutyTime1c>1830</dutyTime1c>
				<dutyTime1s>930</dutyTime1s>
				<wgs84Lat>37.6108414056072</wgs84Lat>
				<wgs84Lon>127.035760995685</wgs84Lon>
			</item>
			<item>
				<dutyName>서울바른닥터치과의원</dutyName>
				<dutyTel1>02-6315-2875</dutyTel1>
				<dutyTime1c>1830</dutyTime1c>
				<dutyTime1s>930</dutyTime1s>
				<wgs84Lat>37.6025829126</wgs84Lat>
				<wgs84Lon>127.0413479131</wgs84Lon>
			</item>
			<item>
				<dutyName>서울비케이치과의원</dutyName>
				<dutyTel1>02-943-8942</dutyTel1>
				<dutyTime1c>1900</dutyTime1c>
				<dutyTime1s>1000</dutyTime1s>
				<wgs84Lat>37.61350314462</wgs84Lat>
				<wgs84Lon>127.050038833165</wgs84Lon>
			</item>
			<item>
				<dutyName>서울아이센터안과의원</dutyName>
				<dutyTel1>02-929-1119</dutyTel1>
				<dutyTime1c>1800</dutyTime1c>
				<dutyTime1s>930</dutyTime1s>
				<wgs84Lat>37.5933166666667</wgs84Lat>
				<wgs84Lon>127.0181</wgs84Lon>
			</item>
			<item>
				<dutyName>서울아트치과의원</dutyName>
				<dutyTel1>02-917-2275</dutyTel1>
				<dutyTime1c>1900</dutyTime1c>
				<dutyTime1s>1000</dutyTime1s>
				<wgs84Lat>37.6002461302</wgs84Lat>
				<wgs84Lon>127.0184990796</wgs84Lon>
			</item>
			<item>
				<dutyName>서울에이스치과의원</dutyName>
				<dutyTel1>02-745-8692</dutyTel1>
				<dutyTime1c>1800</dutyTime1c>
				<dutyTime1s>930</dutyTime1s>
				<wgs84Lat>37.5930504568484</wgs84Lat>
				<wgs84Lon>127.001005484877</wgs84Lon>
			</item>
			<item>
				<dutyName>서울에이치치과의원</dutyName>
				<dutyTel1>02-942-4900</dutyTel1>
				<dutyTime1c>1900</dutyTime1c>
				<dutyTime1s>1000</dutyTime1s>
				<wgs84Lat>37.6032744822551</wgs84Lat>
				<wgs84Lon>127.042449044744</wgs84Lon>
			</item>
			<item>
				<dutyName>서울예담치과의원</dutyName>
				<dutyTel1>02-941-2828</dutyTel1>
				<dutyTime1c>1800</dutyTime1c>
				<dutyTime1s>930</dutyTime1s>
				<wgs84Lat>37.6037247557391</wgs84Lat>
				<wgs84Lon>127.043060831418</wgs84Lon>
			</item>
			<item>
				<dutyName>서울온샘치과의원</dutyName>
				<dutyTel1>02-926-9386</dutyTel1>
				<dutyTime1c>1830</dutyTime1c>
				<dutyTime1s>1000</dutyTime1s>
				<wgs84Lat>37.5995291112</wgs84Lat>
				<wgs84Lon>127.03395391</wgs84Lon>
			</item>
			<item>
				<dutyName>서울온치과의원</dutyName>
				<dutyTel1>02-2135-2875</dutyTel1>
				<dutyTime1c>1830</dutyTime1c>
				<dutyTime1s>930</dutyTime1s>
				<wgs84Lat>37.6192751438</wgs84Lat>
				<wgs84Lon>127.0448911804</wgs84Lon>
			</item>
			<item>
				<dutyName>서울윤치과의원</dutyName>
				<dutyTel1>02-919-2844</dutyTel1>
				<dutyTime1c>1800</dutyTime1c>
				<dutyTime1s>1000</dutyTime1s>
				<wgs84Lat>37.6020696031</wgs84Lat>
				<wgs84Lon>127.019323947</wgs84Lon>
			</item>
			<item>
				<dutyName>서울의원</dutyName>
				<dutyTel1>02-997-2682</dutyTel1>
				<dutyTime1c>1830</dutyTime1c>
				<dutyTime1s>900</dutyTime1s>
				<wgs84Lat>37.586141493827</wgs84Lat>
				<wgs84Lon>127.029785888744</wgs84Lon>
			</item>
			<item>
				<dutyName>서울좋은치과의원</dutyName>
				<dutyTel1>02-924-7522</dutyTel1>
				<dutyTime1c>1830</dutyTime1c>
				<dutyTime1s>930</dutyTime1s>
				<wgs84Lat>37.6020180133</wgs84Lat>
				<wgs84Lon>127.0253213289</wgs84Lon>
			</item>
			<item>
				<dutyName>서울척병원</dutyName>
				<dutyTel1>1599-0033</dutyTel1>
				<dutyTime1c>1800</dutyTime1c>
				<dutyTime1s>900</dutyTime1s>
				<wgs84Lat>37.6088610199494</wgs84Lat>
				<wgs84Lon>127.029269426297</wgs84Lon>
			</item>
			<item>
				<dutyName>서울치과의원</dutyName>
				<dutyTel1>02-941-9030</dutyTel1>
				<dutyTime1c>1830</dutyTime1c>
				<dutyTime1s>930</dutyTime1s>
				<wgs84Lat>37.6132888888889</wgs84Lat>
				<wgs84Lon>127.061263888889</wgs84Lon>
			</item>
			<item>
				<dutyName>서울치과의원</dutyName>
				<dutyTel1>02-960-2875</dutyTel1>
				<dutyTime1c>1730</dutyTime1c>
				<dutyTime1s>930</dutyTime1s>
				<wgs84Lat>37.6092030977</wgs84Lat>
				<wgs84Lon>127.0589830773</wgs84Lon>
			</item>
			<item>
				<dutyName>서울탑정신건강의학과의원</dutyName>
				<dutyTel1>02-911-9700</dutyTel1>
				<dutyTime1c>1900</dutyTime1c>
				<dutyTime1s>1010</dutyTime1s>
				<wgs84Lat>37.6091308843762</wgs84Lat>
				<wgs84Lon>127.030963821591</wgs84Lon>
			</item>
			<item>
				<dutyName>서울필치과의원</dutyName>
				<dutyTel1>02-953-2828</dutyTel1>
				<dutyTime1c>1830</dutyTime1c>
				<dutyTime1s>930</dutyTime1s>
				<wgs84Lat>37.5929059279</wgs84Lat>
				<wgs84Lon>127.0094026242</wgs84Lon>
			</item>
			<item>
				<dutyName>서울하나내과의원</dutyName>
				<dutyTel1>02-916-0875</dutyTel1>
				<dutyTime1c>1800</dutyTime1c>
				<dutyTime1s>900</dutyTime1s>
				<wgs84Lat>37.6074653523471</wgs84Lat>
				<wgs84Lon>127.060245598649</wgs84Lon>
			</item>
			<item>
				<dutyName>서울하이안치과의원</dutyName>
				<dutyTel1>02-913-2829</dutyTel1>
				<dutyTime1c>1800</dutyTime1c>
				<dutyTime1s>930</dutyTime1s>
				<wgs84Lat>37.60475388735</wgs84Lat>
				<wgs84Lon>127.023039176258</wgs84Lon>
			</item>
			<item>
				<dutyName>서울효치과의원</dutyName>
				<dutyTel1>02-6436-2828</dutyTel1>
				<dutyTime1c>1830</dutyTime1c>
				<dutyTime1s>930</dutyTime1s>
				<wgs84Lat>37.6083632569</wgs84Lat>
				<wgs84Lon>127.0102199948</wgs84Lon>
			</item>
			<item>
				<dutyName>서울훈치과의원</dutyName>
				<dutyTel1>02-953-2870</dutyTel1>
				<dutyTime1c>2100</dutyTime1c>
				<dutyTime1s>1000</dutyTime1s>
				<wgs84Lat>37.5985751156677</wgs84Lat>
				<wgs84Lon>127.034048015551</wgs84Lon>
			</item>
			<item>
				<dutyName>서울휴치과의원</dutyName>
				<dutyTel1>02-941-2275</dutyTel1>
				<dutyTime1c>2030</dutyTime1c>
				<dutyTime1s>1000</dutyTime1s>
				<wgs84Lat>37.6170023365117</wgs84Lat>
				<wgs84Lon>127.003234893823</wgs84Lon>
			</item>
			<item>
				<dutyName>서이비인후과의원</dutyName>
				<dutyTel1>02-916-3035</dutyTel1>
				<dutyTime1c>1800</dutyTime1c>
				<dutyTime1s>930</dutyTime1s>
				<wgs84Lat>37.6048160745104</wgs84Lat>
				<wgs84Lon>127.022870970338</wgs84Lon>
			</item>
			<item>
				<dutyName>서호종의원</dutyName>
				<dutyTel1>02-909-2953</dutyTel1>
				<dutyTime1c>1800</dutyTime1c>
				<dutyTime1s>900</dutyTime1s>
				<wgs84Lat>37.6085768158561</wgs84Lat>
				<wgs84Lon>127.052245313896</wgs84Lon>
			</item>
			<item>
				<dutyName>석계고운이치과의원</dutyName>
				<dutyTel1>02-962-2755</dutyTel1>
				<dutyTime1c>2100</dutyTime1c>
				<dutyTime1s>930</dutyTime1s>
				<wgs84Lat>37.6134488869</wgs84Lat>
				<wgs84Lon>127.0652067348</wgs84Lon>
			</item>
			<item>
				<dutyName>석관서울좋은치과의원</dutyName>
				<dutyTel1>02-963-1485</dutyTel1>
				<dutyTime1c>1830</dutyTime1c>
				<dutyTime1s>930</dutyTime1s>
				<wgs84Lat>37.6103539112164</wgs84Lat>
				<wgs84Lon>127.05663278139</wgs84Lon>
			</item>
			<item>
				<dutyName>선맥씨라인한의원</dutyName>
				<dutyTel1>02-6368-2234</dutyTel1>
				<dutyTime1c>1900</dutyTime1c>
				<dutyTime1s>900</dutyTime1s>
				<wgs84Lat>37.6050584042043</wgs84Lat>
				<wgs84Lon>127.030989313092</wgs84Lon>
			</item>
			<item>
				<dutyName>선우치과의원</dutyName>
				<dutyTel1>02-922-7496</dutyTel1>
				<dutyTime1c>1830</dutyTime1c>
				<dutyTime1s>1000</dutyTime1s>
				<wgs84Lat>37.5922492697</wgs84Lat>
				<wgs84Lon>127.0161917563</wgs84Lon>
			</item>
			<item>
				<dutyName>선진한의원</dutyName>
				<dutyTel1>02-2042-7575</dutyTel1>
				<dutyTime1c>1800</dutyTime1c>
				<dutyTime1s>1000</dutyTime1s>
				<wgs84Lat>37.6065071755947</wgs84Lat>
				<wgs84Lon>127.010699923693</wgs84Lon>
			</item>
			<item>
				<dutyName>선치과의원</dutyName>
				<dutyTel1>02-921-4243</dutyTel1>
				<dutyTime1c>1800</dutyTime1c>
				<dutyTime1s>930</dutyTime1s>
				<wgs84Lat>37.588742461</wgs84Lat>
				<wgs84Lon>127.0172281261</wgs84Lon>
			</item>
			<item>
				<dutyName>성동한의원</dutyName>
				<dutyTel1>02-963-6363</dutyTel1>
				<dutyTime1c>1800</dutyTime1c>
				<dutyTime1s>1000</dutyTime1s>
				<wgs84Lat>37.6103317252426</wgs84Lat>
				<wgs84Lon>127.057792510705</wgs84Lon>
			</item>
			<item>
				<dutyName>성모안과의원</dutyName>
				<dutyTel1>02-796-0159</dutyTel1>
				<dutyTime1c>1800</dutyTime1c>
				<dutyTime1s>900</dutyTime1s>
				<wgs84Lat>37.5888831389583</wgs84Lat>
				<wgs84Lon>127.01636312746</wgs84Lon>
			</item>
			<item>
				<dutyName>성모의원</dutyName>
				<dutyTel1>02-915-5109</dutyTel1>
				<dutyTime1c>1700</dutyTime1c>
				<dutyTime1s>930</dutyTime1s>
				<wgs84Lat>37.6140397427972</wgs84Lat>
				<wgs84Lon>127.041780121309</wgs84Lon>
			</item>
			<item>
				<dutyName>성모치과의원</dutyName>
				<dutyTel1>02-922-6429</dutyTel1>
				<dutyTime1c>1800</dutyTime1c>
				<dutyTime1s>930</dutyTime1s>
				<wgs84Lat>37.5920942213</wgs84Lat>
				<wgs84Lon>127.0167488085</wgs84Lon>
			</item>
			<item>
				<dutyName>성북구보건소</dutyName>
				<dutyTel1>02-2241-6098</dutyTel1>
				<dutyTime1c>1800</dutyTime1c>
				<dutyTime1s>900</dutyTime1s>
				<wgs84Lat>37.602615951359</wgs84Lat>
				<wgs84Lon>127.039581333798</wgs84Lon>
			</item>
			<item>
				<dutyName>성북삼성정형외과의원</dutyName>
				<dutyTel1>02-965-0011</dutyTel1>
				<dutyTime1c>1900</dutyTime1c>
				<dutyTime1s>900</dutyTime1s>
				<wgs84Lat>37.6069944662527</wgs84Lat>
				<wgs84Lon>127.061351118745</wgs84Lon>
			</item>
			<item>
				<dutyName>성북서울요양병원</dutyName>
				<dutyTel1>02-6312-3700</dutyTel1>
				<dutyTime1c>1800</dutyTime1c>
				<dutyTime1s>900</dutyTime1s>
				<wgs84Lat>37.5931098775</wgs84Lat>
				<wgs84Lon>127.0358849679</wgs84Lon>
			</item>
			<item>
				<dutyName>성북성모안과의원</dutyName>
				<dutyTel1>02-922-6603</dutyTel1>
				<dutyTime1c>1800</dutyTime1c>
				<dutyTime1s>900</dutyTime1s>
				<wgs84Lat>37.5987542263378</wgs84Lat>
				<wgs84Lon>127.034057758437</wgs84Lon>
			</item>
			<item>
				<dutyName>성북성심신경과의원</dutyName>
				<dutyTel1>02-927-5100</dutyTel1>
				<dutyTime1c>1830</dutyTime1c>
				<dutyTime1s>830</dutyTime1s>
				<wgs84Lat>37.598453554153</wgs84Lat>
				<wgs84Lon>127.021481336949</wgs84Lon>
			</item>
			<item>
				<dutyName>성북성심의원</dutyName>
				<dutyTel1>02-927-9526</dutyTel1>
				<dutyTime1c>1800</dutyTime1c>
				<dutyTime1s>830</dutyTime1s>
				<wgs84Lat>37.5983895908</wgs84Lat>
				<wgs84Lon>127.0214428175</wgs84Lon>
			</item>
			<item>
				<dutyName>성북성심정형외과의원</dutyName>
				<dutyTel1>02-927-3752</dutyTel1>
				<dutyTime1c>1800</dutyTime1c>
				<dutyTime1s>830</dutyTime1s>
				<wgs84Lat>37.5983895907927</wgs84Lat>
				<wgs84Lon>127.021442817515</wgs84Lon>
			</item>
			<item>
				<dutyName>성북아이정신건강의학과의원</dutyName>
				<dutyTel1>02-922-7582</dutyTel1>
				<dutyTime1c>1830</dutyTime1c>
				<dutyTime1s>1000</dutyTime1s>
				<wgs84Lat>37.59225995188</wgs84Lat>
				<wgs84Lon>127.017111178701</wgs84Lon>
			</item>
			<item>
				<dutyName>성북우리아이들병원</dutyName>
				<dutyTel1>02-912-0100</dutyTel1>
				<dutyTime1c>2200</dutyTime1c>
				<dutyTime1s>900</dutyTime1s>
				<wgs84Lat>37.6068607951</wgs84Lat>
				<wgs84Lon>127.0293818937</wgs84Lon>
			</item>
			<item>
				<dutyName>성북웰니스요양병원</dutyName>
				<dutyTel1>02-3672-2233</dutyTel1>
				<dutyTime1c>1800</dutyTime1c>
				<dutyTime1s>900</dutyTime1s>
				<wgs84Lat>37.5830043359947</wgs84Lat>
				<wgs84Lon>127.0209493149</wgs84Lon>
			</item>
			<item>
				<dutyName>성북이엔이치과의원</dutyName>
				<dutyTel1>02-2117-1898</dutyTel1>
				<dutyTime1c>2000</dutyTime1c>
				<dutyTime1s>1030</dutyTime1s>
				<wgs84Lat>37.6083998425416</wgs84Lat>
				<wgs84Lon>127.028743749149</wgs84Lon>
			</item>
			<item>
				<dutyName>성북정형외과의원</dutyName>
				<dutyTel1>02-918-0649</dutyTel1>
				<dutyTime1c>1900</dutyTime1c>
				<dutyTime1s>900</dutyTime1s>
				<wgs84Lat>37.6128172628797</wgs84Lat>
				<wgs84Lon>127.060172919679</wgs84Lon>
			</item>
			<item>
				<dutyName>성북제일의원</dutyName>
				<dutyTel1>02-927-6011</dutyTel1>
				<dutyTime1c>1830</dutyTime1c>
				<dutyTime1s>900</dutyTime1s>
				<wgs84Lat>37.5979900372023</wgs84Lat>
				<wgs84Lon>127.034569244782</wgs84Lon>
			</item>
			<item>
				<dutyName>성북하선의원</dutyName>
				<dutyTel1>02-765-9875</dutyTel1>
				<dutyTime1c>1800</dutyTime1c>
				<dutyTime1s>900</dutyTime1s>
				<wgs84Lat>37.5892589891</wgs84Lat>
				<wgs84Lon>127.0047826044</wgs84Lon>
			</item>
			<item>
				<dutyName>성신연세휴치과의원</dutyName>
				<dutyTel1>02-921-2999</dutyTel1>
				<dutyTime1c>1830</dutyTime1c>
				<dutyTime1s>930</dutyTime1s>
				<wgs84Lat>37.5928043042005</wgs84Lat>
				<wgs84Lon>127.016019767053</wgs84Lon>
			</item>
			<item>
				<dutyName>성신의원</dutyName>
				<dutyTel1>02-983-6063</dutyTel1>
				<dutyTime1c>1830</dutyTime1c>
				<dutyTime1s>930</dutyTime1s>
				<wgs84Lat>37.6117814387538</wgs84Lat>
				<wgs84Lon>127.023879458188</wgs84Lon>
			</item>
			<item>
				<dutyName>성신한의원</dutyName>
				<dutyTel1>02-917-4503</dutyTel1>
				<dutyTime1c>2000</dutyTime1c>
				<dutyTime1s>930</dutyTime1s>
				<wgs84Lat>37.6155003683205</wgs84Lat>
				<wgs84Lon>127.048517920063</wgs84Lon>
			</item>
			<item>
				<dutyName>성심가정의학과의원</dutyName>
				<dutyTel1>02-917-4332</dutyTel1>
				<dutyTime1c>1830</dutyTime1c>
				<dutyTime1s>900</dutyTime1s>
				<wgs84Lat>37.6134639890849</wgs84Lat>
				<wgs84Lon>127.048874481662</wgs84Lon>
			</item>
			<item>
				<dutyName>성심당의원한의원</dutyName>
				<dutyTel1>02-924-8277</dutyTel1>
				<dutyTime1c>1830</dutyTime1c>
				<dutyTime1s>830</dutyTime1s>
				<wgs84Lat>37.5983895908</wgs84Lat>
				<wgs84Lon>127.0214428175</wgs84Lon>
			</item>
			<item>
				<dutyName>성심당의원한의원</dutyName>
				<dutyTel1>02-924-8277</dutyTel1>
				<dutyTime1c>1830</dutyTime1c>
				<dutyTime1s>830</dutyTime1s>
				<wgs84Lat>37.5983895908</wgs84Lat>
				<wgs84Lon>127.0214428175</wgs84Lon>
			</item>
			<item>
				<dutyName>성심바른치과의원</dutyName>
				<dutyTel1>02-922-2225</dutyTel1>
				<dutyTime1c>1800</dutyTime1c>
				<dutyTime1s>900</dutyTime1s>
				<wgs84Lat>37.5983895907927</wgs84Lat>
				<wgs84Lon>127.021442817515</wgs84Lon>
			</item>
			<item>
				<dutyName>성지치과의원</dutyName>
				<dutyTel1>02-925-0697</dutyTel1>
				<dutyTime1c>1800</dutyTime1c>
				<dutyTime1s>1000</dutyTime1s>
				<wgs84Lat>37.5962822356</wgs84Lat>
				<wgs84Lon>127.0152369252</wgs84Lon>
			</item>
			<item>
				<dutyName>세연가정의학과의원</dutyName>
				<dutyTel1>02-921-0149</dutyTel1>
				<dutyTime1c>1800</dutyTime1c>
				<dutyTime1s>900</dutyTime1s>
				<wgs84Lat>37.5943824753</wgs84Lat>
				<wgs84Lon>127.0185248037</wgs84Lon>
			</item>
			<item>
				<dutyName>세조의원</dutyName>
				<dutyTel1>02-923-4159</dutyTel1>
				<dutyTime1c>1830</dutyTime1c>
				<dutyTime1s>900</dutyTime1s>
				<wgs84Lat>37.5986218676601</wgs84Lat>
				<wgs84Lon>127.034405867345</wgs84Lon>
			</item>
			<item>
				<dutyName>세종치과의원</dutyName>
				<dutyTel1>02-953-8448</dutyTel1>
				<dutyTime1c>1800</dutyTime1c>
				<dutyTime1s>930</dutyTime1s>
				<wgs84Lat>37.5920838614</wgs84Lat>
				<wgs84Lon>127.0131843631</wgs84Lon>
			</item>
			<item>
				<dutyName>세창한의원</dutyName>
				<dutyTel1>02-926-5228</dutyTel1>
				<dutyTime1c>1800</dutyTime1c>
				<dutyTime1s>1000</dutyTime1s>
				<wgs84Lat>37.599072300415</wgs84Lat>
				<wgs84Lon>127.033983144672</wgs84Lon>
			</item>
			<item>
				<dutyName>소담월곡한의원</dutyName>
				<dutyTel1>02-912-8800</dutyTel1>
				<dutyTime1c>1900</dutyTime1c>
				<dutyTime1s>900</dutyTime1s>
				<wgs84Lat>37.6041476856</wgs84Lat>
				<wgs84Lon>127.0394371683</wgs84Lon>
			</item>
			<item>
				<dutyName>소생한의원</dutyName>
				<dutyTel1>02-929-6500</dutyTel1>
				<dutyTime1c>1830</dutyTime1c>
				<dutyTime1s>930</dutyTime1s>
				<wgs84Lat>37.5919897834</wgs84Lat>
				<wgs84Lon>127.0161962292</wgs84Lon>
			</item>
			<item>
				<dutyName>송내과의원</dutyName>
				<dutyTel1>02-927-2926</dutyTel1>
				<dutyTime1c>1900</dutyTime1c>
				<dutyTime1s>900</dutyTime1s>
				<wgs84Lat>37.5988262861</wgs84Lat>
				<wgs84Lon>127.0341347731</wgs84Lon>
			</item>
			<item>
				<dutyName>송이여성의원</dutyName>
				<dutyTel1>02-942-2700</dutyTel1>
				<dutyTime1c>1900</dutyTime1c>
				<dutyTime1s>930</dutyTime1s>
				<wgs84Lat>37.6081722753</wgs84Lat>
				<wgs84Lon>127.0098892693</wgs84Lon>
			</item>
			<item>
				<dutyName>송치과의원</dutyName>
				<dutyTel1>02-911-6822</dutyTel1>
				<dutyTime1c>1830</dutyTime1c>
				<dutyTime1s>930</dutyTime1s>
				<wgs84Lat>37.6041573248509</wgs84Lat>
				<wgs84Lon>127.042802877363</wgs84Lon>
			</item>
			<item>
				<dutyName>수비경희한의원</dutyName>
				<dutyTel1>02-953-0124</dutyTel1>
				<dutyTime1c>2100</dutyTime1c>
				<dutyTime1s>930</dutyTime1s>
				<wgs84Lat>37.601555977047</wgs84Lat>
				<wgs84Lon>127.032531867157</wgs84Lon>
			</item>
			<item>
				<dutyName>수석한의원</dutyName>
				<dutyTel1>02-929-1775</dutyTel1>
				<dutyTime1c>1900</dutyTime1c>
				<dutyTime1s>900</dutyTime1s>
				<wgs84Lat>37.6035593097165</wgs84Lat>
				<wgs84Lon>127.030390772041</wgs84Lon>
			</item>
			<item>
				<dutyName>수치과의원</dutyName>
				<dutyTel1>02-989-2824</dutyTel1>
				<dutyTime1c>1900</dutyTime1c>
				<dutyTime1s>930</dutyTime1s>
				<wgs84Lat>37.6089353190699</wgs84Lat>
				<wgs84Lon>127.023341743356</wgs84Lon>
			</item>
			<item>
				<dutyName>수호신경외과의원</dutyName>
				<dutyTel1>02-919-4242</dutyTel1>
				<dutyTime1c>1800</dutyTime1c>
				<dutyTime1s>900</dutyTime1s>
				<wgs84Lat>37.6042690538</wgs84Lat>
				<wgs84Lon>127.011370027</wgs84Lon>
			</item>
			<item>
				<dutyName>스타이비인후과의원</dutyName>
				<dutyTel1>02-909-8235</dutyTel1>
				<dutyTime1c>1900</dutyTime1c>
				<dutyTime1s>900</dutyTime1s>
				<wgs84Lat>37.6012013497909</wgs84Lat>
				<wgs84Lon>127.03395466998</wgs84Lon>
			</item>
			<item>
				<dutyName>시카고치과의원</dutyName>
				<dutyTel1>02-928-2898</dutyTel1>
				<dutyTime1c>1830</dutyTime1c>
				<dutyTime1s>930</dutyTime1s>
				<wgs84Lat>37.6042798639963</wgs84Lat>
				<wgs84Lon>127.011360989634</wgs84Lon>
			</item>
			<item>
				<dutyName>신라한의원</dutyName>
				<dutyTel1>02-962-3264</dutyTel1>
				<dutyTime1c>1900</dutyTime1c>
				<dutyTime1s>900</dutyTime1s>
				<wgs84Lat>37.6070322373658</wgs84Lat>
				<wgs84Lon>127.061481975963</wgs84Lon>
			</item>
			<item>
				<dutyName>신상윤내과의원</dutyName>
				<dutyTel1>02-941-3505</dutyTel1>
				<dutyTime1c>1900</dutyTime1c>
				<dutyTime1s>900</dutyTime1s>
				<wgs84Lat>37.6087297488</wgs84Lat>
				<wgs84Lon>127.0191535239</wgs84Lon>
			</item>
			<item>
				<dutyName>신세계한의원</dutyName>
				<dutyTel1>02-945-5080</dutyTel1>
				<dutyTime1c>1900</dutyTime1c>
				<dutyTime1s>930</dutyTime1s>
				<wgs84Lat>37.6119827829736</wgs84Lat>
				<wgs84Lon>127.030003745966</wgs84Lon>
			</item>
			<item>
				<dutyName>신용제이비인후과의원</dutyName>
				<dutyTel1>02-942-8191</dutyTel1>
				<dutyTime1c>1830</dutyTime1c>
				<dutyTime1s>900</dutyTime1s>
				<wgs84Lat>37.6031876082</wgs84Lat>
				<wgs84Lon>127.0137842595</wgs84Lon>
			</item>
			<item>
				<dutyName>실로암한의원</dutyName>
				<dutyTel1>02-962-9620</dutyTel1>
				<dutyTime1c>1800</dutyTime1c>
				<dutyTime1s>900</dutyTime1s>
				<wgs84Lat>37.6102521573395</wgs84Lat>
				<wgs84Lon>127.058358751598</wgs84Lon>
			</item>
			<item>
				<dutyName>아름다운치과의원</dutyName>
				<dutyTel1>02-967-2815</dutyTel1>
				<dutyTime1c>1900</dutyTime1c>
				<dutyTime1s>930</dutyTime1s>
				<wgs84Lat>37.6138816896278</wgs84Lat>
				<wgs84Lon>127.067090628069</wgs84Lon>
			</item>
			<item>
				<dutyName>아리랑가정의원</dutyName>
				<dutyTel1>02-922-5575</dutyTel1>
				<dutyTime1c>1830</dutyTime1c>
				<dutyTime1s>900</dutyTime1s>
				<wgs84Lat>37.6007693692</wgs84Lat>
				<wgs84Lon>127.0136162152</wgs84Lon>
			</item>
			<item>
				<dutyName>아미치과의원</dutyName>
				<dutyTel1>02-911-0075</dutyTel1>
				<dutyTime1c>1800</dutyTime1c>
				<dutyTime1s>1000</dutyTime1s>
				<wgs84Lat>37.6064299422538</wgs84Lat>
				<wgs84Lon>127.036475759596</wgs84Lon>
			</item>
			<item>
				<dutyName>아산드림의원</dutyName>
				<dutyTel1>02-916-9300</dutyTel1>
				<dutyTime1c>1900</dutyTime1c>
				<dutyTime1s>900</dutyTime1s>
				<wgs84Lat>37.6229209208714</wgs84Lat>
				<wgs84Lon>127.048477432167</wgs84Lon>
			</item>
			<item>
				<dutyName>아산키즈소아청소년과의원</dutyName>
				<dutyTel1>070-7728-3995</dutyTel1>
				<dutyTime1c>1830</dutyTime1c>
				<dutyTime1s>830</dutyTime1s>
				<wgs84Lat>37.6012013497909</wgs84Lat>
				<wgs84Lon>127.03395466998</wgs84Lon>
			</item>
			<item>
				<dutyName>아이&amp;I소아청소년과의원</dutyName>
				<dutyTel1>02-943-1333</dutyTel1>
				<dutyTime1c>1900</dutyTime1c>
				<dutyTime1s>830</dutyTime1s>
				<wgs84Lat>37.6096603067726</wgs84Lat>
				<wgs84Lon>127.019569852756</wgs84Lon>
			</item>
			<item>
				<dutyName>아이사랑소아청소년과의원</dutyName>
				<dutyTel1>02-911-7501</dutyTel1>
				<dutyTime1c>1800</dutyTime1c>
				<dutyTime1s>900</dutyTime1s>
				<wgs84Lat>37.6087639981272</wgs84Lat>
				<wgs84Lon>127.010083550237</wgs84Lon>
			</item>
			<item>
				<dutyName>아이조아한의원</dutyName>
				<dutyTel1>02-988-0688</dutyTel1>
				<dutyTime1c>1800</dutyTime1c>
				<dutyTime1s>1000</dutyTime1s>
				<wgs84Lat>37.6091452931543</wgs84Lat>
				<wgs84Lon>127.030981969082</wgs84Lon>
			</item>
			<item>
				<dutyName>안산부인과의원</dutyName>
				<dutyTel1>02-913-6446</dutyTel1>
				<dutyTime1c>2000</dutyTime1c>
				<dutyTime1s>900</dutyTime1s>
				<wgs84Lat>37.604288723925</wgs84Lat>
				<wgs84Lon>127.024298342867</wgs84Lon>
			</item>
			<item>
				<dutyName>안아픈세상한의원</dutyName>
				<dutyTel1>02-929-1515</dutyTel1>
				<dutyTime1c>1900</dutyTime1c>
				<dutyTime1s>900</dutyTime1s>
				<wgs84Lat>37.5855489912734</wgs84Lat>
				<wgs84Lon>127.019487239638</wgs84Lon>
			</item>
			<item>
				<dutyName>안암엘와이엔치과의원</dutyName>
				<dutyTel1>02-928-2875</dutyTel1>
				<dutyTime1c>1830</dutyTime1c>
				<dutyTime1s>930</dutyTime1s>
				<wgs84Lat>37.5796879317426</wgs84Lat>
				<wgs84Lon>127.024806583741</wgs84Lon>
			</item>
			<item>
				<dutyName>안암위드치과의원</dutyName>
				<dutyTel1>02-925-2875</dutyTel1>
				<dutyTime1c>1830</dutyTime1c>
				<dutyTime1s>930</dutyTime1s>
				<wgs84Lat>37.58325123049</wgs84Lat>
				<wgs84Lon>127.029309211641</wgs84Lon>
			</item>
			<item>
				<dutyName>안의원</dutyName>
				<dutyTel1>02-830-7505</dutyTel1>
				<dutyTime1c>1830</dutyTime1c>
				<dutyTime1s>930</dutyTime1s>
				<wgs84Lat>37.6081722753</wgs84Lat>
				<wgs84Lon>127.0098892693</wgs84Lon>
			</item>
			<item>
				<dutyName>약선당부부한의원</dutyName>
				<dutyTel1>02-6215-7888</dutyTel1>
				<dutyTime1c>2100</dutyTime1c>
				<dutyTime1s>900</dutyTime1s>
				<wgs84Lat>37.6104042358357</wgs84Lat>
				<wgs84Lon>127.056904635315</wgs84Lon>
			</item>
			<item>
				<dutyName>약초화한의원</dutyName>
				<dutyTel1>02-919-0700</dutyTel1>
				<dutyTime1c>2100</dutyTime1c>
				<dutyTime1s>930</dutyTime1s>
				<wgs84Lat>37.5931223287541</wgs84Lat>
				<wgs84Lon>127.016168973963</wgs84Lon>
			</item>
			<item>
				<dutyName>양지한의원</dutyName>
				<dutyTel1>02-953-7777</dutyTel1>
				<dutyTime1c>1900</dutyTime1c>
				<dutyTime1s>930</dutyTime1s>
				<wgs84Lat>37.6037755938792</wgs84Lat>
				<wgs84Lon>127.030209665581</wgs84Lon>
			</item>
			<item>
				<dutyName>엄한의원</dutyName>
				<dutyTel1>02-913-2668</dutyTel1>
				<dutyTime1c>1930</dutyTime1c>
				<dutyTime1s>930</dutyTime1s>
				<wgs84Lat>37.6045357052241</wgs84Lat>
				<wgs84Lon>127.042893713067</wgs84Lon>
			</item>
			<item>
				<dutyName>에덴치과의원</dutyName>
				<dutyTel1>02-986-2258</dutyTel1>
				<dutyTime1c>1800</dutyTime1c>
				<dutyTime1s>1000</dutyTime1s>
				<wgs84Lat>37.6048733537463</wgs84Lat>
				<wgs84Lon>127.024895847993</wgs84Lon>
			</item>
			<item>
				<dutyName>에벤에셀한의원</dutyName>
				<dutyTel1>02-921-4804</dutyTel1>
				<dutyTime1c>1800</dutyTime1c>
				<dutyTime1s>930</dutyTime1s>
				<wgs84Lat>37.5989424313091</wgs84Lat>
				<wgs84Lon>127.018095165765</wgs84Lon>
			</item>
			<item>
				<dutyName>에스메디센터내과외과의원</dutyName>
				<dutyTel1>02-6925-0700</dutyTel1>
				<dutyTime1c>1930</dutyTime1c>
				<dutyTime1s>900</dutyTime1s>
				<wgs84Lat>37.6107825615906</wgs84Lat>
				<wgs84Lon>127.035200323835</wgs84Lon>
			</item>
			<item>
				<dutyName>에스엔케이의원</dutyName>
				<dutyTel1>02-917-7100</dutyTel1>
				<dutyTime1c>1900</dutyTime1c>
				<dutyTime1s>930</dutyTime1s>
				<wgs84Lat>37.6043607254423</wgs84Lat>
				<wgs84Lon>127.024660778782</wgs84Lon>
			</item>
			<item>
				<dutyName>에이치엔비의원(하모니앤벨런스)</dutyName>
				<dutyTel1>02-923-5905</dutyTel1>
				<dutyTime1c>1800</dutyTime1c>
				<dutyTime1s>900</dutyTime1s>
				<wgs84Lat>37.586469609</wgs84Lat>
				<wgs84Lon>127.0291836667</wgs84Lon>
			</item>
			<item>
				<dutyName>엔젤소아청소년과의원</dutyName>
				<dutyTel1>02-911-0009</dutyTel1>
				<dutyTime1c>1900</dutyTime1c>
				<dutyTime1s>900</dutyTime1s>
				<wgs84Lat>37.6169480419</wgs84Lat>
				<wgs84Lon>127.008123474</wgs84Lon>
			</item>
			<item>
				<dutyName>엘에이치과의원</dutyName>
				<dutyTel1>02-919-0746</dutyTel1>
				<dutyTime1c>1830</dutyTime1c>
				<dutyTime1s>930</dutyTime1s>
				<wgs84Lat>37.6169480419</wgs84Lat>
				<wgs84Lon>127.008123474</wgs84Lon>
			</item>
			<item>
				<dutyName>연세가정의학과의원</dutyName>
				<dutyTel1>02-919-5455</dutyTel1>
				<dutyTime1c>1830</dutyTime1c>
				<dutyTime1s>900</dutyTime1s>
				<wgs84Lat>37.6171176720509</wgs84Lat>
				<wgs84Lon>127.002886037183</wgs84Lon>
			</item>
			<item>
				<dutyName>연세노블의원</dutyName>
				<dutyTel1>02-3292-8275</dutyTel1>
				<dutyTime1c>1900</dutyTime1c>
				<dutyTime1s>930</dutyTime1s>
				<wgs84Lat>37.6231454704556</wgs84Lat>
				<wgs84Lon>127.048390268406</wgs84Lon>
			</item>
			<item>
				<dutyName>연세다나아마취통증의학과의원</dutyName>
				<dutyTel1>02-959-7575</dutyTel1>
				<dutyTime1c>1900</dutyTime1c>
				<dutyTime1s>900</dutyTime1s>
				<wgs84Lat>37.6131100803</wgs84Lat>
				<wgs84Lon>127.065269865</wgs84Lon>
			</item>
			<item>
				<dutyName>연세란치과의원</dutyName>
				<dutyTel1>02-929-0442</dutyTel1>
				<dutyTime1c>1830</dutyTime1c>
				<dutyTime1s>1000</dutyTime1s>
				<wgs84Lat>37.5896121543</wgs84Lat>
				<wgs84Lon>127.0053396943</wgs84Lon>
			</item>
			<item>
				<dutyName>연세미소안치과의원</dutyName>
				<dutyTel1>02-945-2860</dutyTel1>
				<dutyTime1c>1900</dutyTime1c>
				<dutyTime1s>1000</dutyTime1s>
				<wgs84Lat>37.6104935310814</wgs84Lat>
				<wgs84Lon>127.029596245401</wgs84Lon>
			</item>
			<item>
				<dutyName>연세밝은아이치과의원</dutyName>
				<dutyTel1>02-985-1275</dutyTel1>
				<dutyTime1c>1800</dutyTime1c>
				<dutyTime1s>1000</dutyTime1s>
				<wgs84Lat>37.6077475250557</wgs84Lat>
				<wgs84Lon>127.028748028224</wgs84Lon>
			</item>
			<item>
				<dutyName>연세부부의원</dutyName>
				<dutyTel1>02-921-4530</dutyTel1>
				<dutyTime1c>1900</dutyTime1c>
				<dutyTime1s>930</dutyTime1s>
				<wgs84Lat>37.5901741009804</wgs84Lat>
				<wgs84Lon>127.009597049801</wgs84Lon>
			</item>
			<item>
				<dutyName>연세삼성산부인과의원</dutyName>
				<dutyTel1>02-762-2081</dutyTel1>
				<dutyTime1c>1900</dutyTime1c>
				<dutyTime1s>930</dutyTime1s>
				<wgs84Lat>37.58863986627</wgs84Lat>
				<wgs84Lon>127.005602155116</wgs84Lon>
			</item>
			<item>
				<dutyName>연세속편한의원</dutyName>
				<dutyTel1>02-967-3333</dutyTel1>
				<dutyTime1c>1900</dutyTime1c>
				<dutyTime1s>900</dutyTime1s>
				<wgs84Lat>37.6104042358357</wgs84Lat>
				<wgs84Lon>127.056904635315</wgs84Lon>
			</item>
			<item>
				<dutyName>연세수내과의원</dutyName>
				<dutyTel1>02-923-6500</dutyTel1>
				<dutyTime1c>1830</dutyTime1c>
				<dutyTime1s>900</dutyTime1s>
				<wgs84Lat>37.5930241252175</wgs84Lat>
				<wgs84Lon>127.016173807296</wgs84Lon>
			</item>
			<item>
				<dutyName>연세스타치과의원</dutyName>
				<dutyTel1>02-917-2080</dutyTel1>
				<dutyTime1c>1900</dutyTime1c>
				<dutyTime1s>1000</dutyTime1s>
				<wgs84Lat>37.6014527060568</wgs84Lat>
				<wgs84Lon>127.040495007902</wgs84Lon>
			</item>
			<item>
				<dutyName>연세아르떼의원</dutyName>
				<dutyTel1>02-921-7310</dutyTel1>
				<dutyTime1c>2100</dutyTime1c>
				<dutyTime1s>1000</dutyTime1s>
				<wgs84Lat>37.5921700783863</wgs84Lat>
				<wgs84Lon>127.015476132173</wgs84Lon>
			</item>
			<item>
				<dutyName>연세안치과의원</dutyName>
				<dutyTel1>02-943-2272</dutyTel1>
				<dutyTime1c>1830</dutyTime1c>
				<dutyTime1s>1000</dutyTime1s>
				<wgs84Lat>37.6111948636</wgs84Lat>
				<wgs84Lon>127.0348652751</wgs84Lon>
			</item>
			<item>
				<dutyName>연세에이의원</dutyName>
				<dutyTel1>02-953-7575</dutyTel1>
				<dutyTime1c>1900</dutyTime1c>
				<dutyTime1s>1000</dutyTime1s>
				<wgs84Lat>37.5928149305265</wgs84Lat>
				<wgs84Lon>127.017333236413</wgs84Lon>
			</item>
			<item>
				<dutyName>연세오내과의원</dutyName>
				<dutyTel1>02-943-1558</dutyTel1>
				<dutyTime1c>1750</dutyTime1c>
				<dutyTime1s>900</dutyTime1s>
				<wgs84Lat>37.606375</wgs84Lat>
				<wgs84Lon>127.036380555556</wgs84Lon>
			</item>
			<item>
				<dutyName>연세올바른정형외과의원</dutyName>
				<dutyTel1>02-943-2288</dutyTel1>
				<dutyTime1c>1830</dutyTime1c>
				<dutyTime1s>830</dutyTime1s>
				<wgs84Lat>37.6083632569</wgs84Lat>
				<wgs84Lon>127.0102199948</wgs84Lon>
			</item>
			<item>
				<dutyName>연세우리정형외과의원</dutyName>
				<dutyTel1>02-923-1090</dutyTel1>
				<dutyTime1c>1900</dutyTime1c>
				<dutyTime1s>900</dutyTime1s>
				<wgs84Lat>37.6003797591256</wgs84Lat>
				<wgs84Lon>127.033560216589</wgs84Lon>
			</item>
			<item>
				<dutyName>연세우리치과의원</dutyName>
				<dutyTel1>02-914-2228</dutyTel1>
				<dutyTime1c>1830</dutyTime1c>
				<dutyTime1s>930</dutyTime1s>
				<wgs84Lat>37.6087078377</wgs84Lat>
				<wgs84Lon>127.0358516891</wgs84Lon>
			</item>
			<item>
				<dutyName>연세이비인후과의원</dutyName>
				<dutyTel1>02-766-7582</dutyTel1>
				<dutyTime1c>1830</dutyTime1c>
				<dutyTime1s>930</dutyTime1s>
				<wgs84Lat>37.5888479873114</wgs84Lat>
				<wgs84Lon>127.007572435979</wgs84Lon>
			</item>
			<item>
				<dutyName>연세이치과의원</dutyName>
				<dutyTel1>02-963-1454</dutyTel1>
				<dutyTime1c>1730</dutyTime1c>
				<dutyTime1s>1000</dutyTime1s>
				<wgs84Lat>37.605562736441</wgs84Lat>
				<wgs84Lon>127.062394845749</wgs84Lon>
			</item>
			<item>
				<dutyName>연세정형외과의원</dutyName>
				<dutyTel1>02-765-1002</dutyTel1>
				<dutyTime1c>1900</dutyTime1c>
				<dutyTime1s>900</dutyTime1s>
				<wgs84Lat>37.5887326786621</wgs84Lat>
				<wgs84Lon>127.007332369251</wgs84Lon>
			</item>
			<item>
				<dutyName>연세프라임치과의원</dutyName>
				<dutyTel1>02-747-5156</dutyTel1>
				<dutyTime1c>1900</dutyTime1c>
				<dutyTime1s>1000</dutyTime1s>
				<wgs84Lat>37.5889305555556</wgs84Lat>
				<wgs84Lon>127.006216666667</wgs84Lon>
			</item>
			<item>
				<dutyName>연세한의원</dutyName>
				<dutyTel1>02--914-8275</dutyTel1>
				<dutyTime1c>1900</dutyTime1c>
				<dutyTime1s>930</dutyTime1s>
				<wgs84Lat>37.6165878447569</wgs84Lat>
				<wgs84Lon>127.004385658037</wgs84Lon>
			</item>
			<item>
				<dutyName>연세효상의원</dutyName>
				<dutyTel1>02-742-8288</dutyTel1>
				<dutyTime1c>1800</dutyTime1c>
				<dutyTime1s>900</dutyTime1s>
				<wgs84Lat>37.5899434086</wgs84Lat>
				<wgs84Lon>127.010095192</wgs84Lon>
			</item>
			<item>
				<dutyName>연세휴치과의원</dutyName>
				<dutyTel1>02-919-8275</dutyTel1>
				<dutyTime1c>2100</dutyTime1c>
				<dutyTime1s>900</dutyTime1s>
				<wgs84Lat>37.6041009918</wgs84Lat>
				<wgs84Lon>127.0258339114</wgs84Lon>
			</item>
			<item>
				<dutyName>연우한의원</dutyName>
				<dutyTel1>02-771-8297</dutyTel1>
				<dutyTime1c>1900</dutyTime1c>
				<dutyTime1s>930</dutyTime1s>
				<wgs84Lat>37.5899645092</wgs84Lat>
				<wgs84Lon>127.015013715</wgs84Lon>
			</item>
			<item>
				<dutyName>열린마취통증의학과의원</dutyName>
				<dutyTel1>02-909-0874</dutyTel1>
				<dutyTime1c>1830</dutyTime1c>
				<dutyTime1s>900</dutyTime1s>
				<wgs84Lat>37.6168225514906</wgs84Lat>
				<wgs84Lon>127.049642380935</wgs84Lon>
			</item>
			<item>
				<dutyName>열린산부인과의원</dutyName>
				<dutyTel1>02-919-1446</dutyTel1>
				<dutyTime1c>1900</dutyTime1c>
				<dutyTime1s>900</dutyTime1s>
				<wgs84Lat>37.6024844299</wgs84Lat>
				<wgs84Lon>127.0169051502</wgs84Lon>
			</item>
			<item>
				<dutyName>열린한의원</dutyName>
				<dutyTel1>02-909-1075</dutyTel1>
				<dutyTime1c>1900</dutyTime1c>
				<dutyTime1s>900</dutyTime1s>
				<wgs84Lat>37.6046870529349</wgs84Lat>
				<wgs84Lon>127.011954470633</wgs84Lon>
			</item>
			<item>
				<dutyName>영라인의원</dutyName>
				<dutyTel1>02-764-9544</dutyTel1>
				<dutyTime1c>1800</dutyTime1c>
				<dutyTime1s>900</dutyTime1s>
				<wgs84Lat>37.5896021266375</wgs84Lat>
				<wgs84Lon>127.005357643535</wgs84Lon>
			</item>
			<item>
				<dutyName>예가치과의원</dutyName>
				<dutyTel1>02-900-2884</dutyTel1>
				<dutyTime1c>1830</dutyTime1c>
				<dutyTime1s>930</dutyTime1s>
				<wgs84Lat>37.5864448376547</wgs84Lat>
				<wgs84Lon>127.009917957022</wgs84Lon>
			</item>
			<item>
				<dutyName>예담한의원</dutyName>
				<dutyTel1>02-929-3375</dutyTel1>
				<dutyTime1c>1900</dutyTime1c>
				<dutyTime1s>900</dutyTime1s>
				<wgs84Lat>37.5985740335</wgs84Lat>
				<wgs84Lon>127.0340485965</wgs84Lon>
			</item>
			<item>
				<dutyName>예지미의원</dutyName>
				<dutyTel1>02-915-6888</dutyTel1>
				<dutyTime1c>2000</dutyTime1c>
				<dutyTime1s>1000</dutyTime1s>
				<wgs84Lat>37.6026764656</wgs84Lat>
				<wgs84Lon>127.0417737656</wgs84Lon>
			</item>
			<item>
				<dutyName>예지인치과의원</dutyName>
				<dutyTel1>02-942-2875</dutyTel1>
				<dutyTime1c>1830</dutyTime1c>
				<dutyTime1s>930</dutyTime1s>
				<wgs84Lat>37.593096125</wgs84Lat>
				<wgs84Lon>127.0167445038</wgs84Lon>
			</item>
			<item>
				<dutyName>예한의원</dutyName>
				<dutyTel1>02-924-6333</dutyTel1>
				<dutyTime1c>2000</dutyTime1c>
				<dutyTime1s>930</dutyTime1s>
				<wgs84Lat>37.5930241252</wgs84Lat>
				<wgs84Lon>127.0161738073</wgs84Lon>
			</item>
			<item>
				<dutyName>오라쁘띠화이트닝의원</dutyName>
				<dutyTel1>02-1666-2207</dutyTel1>
				<dutyTime1c>2030</dutyTime1c>
				<dutyTime1s>1000</dutyTime1s>
				<wgs84Lat>37.5937305293203</wgs84Lat>
				<wgs84Lon>127.015979202328</wgs84Lon>
			</item>
			<item>
				<dutyName>오상빈정형외과의원</dutyName>
				<dutyTel1>02-925-5097</dutyTel1>
				<dutyTime1c>1800</dutyTime1c>
				<dutyTime1s>900</dutyTime1s>
				<wgs84Lat>37.591453294</wgs84Lat>
				<wgs84Lon>127.0119930948</wgs84Lon>
			</item>
			<item>
				<dutyName>오안과의원</dutyName>
				<dutyTel1>02-911-4516</dutyTel1>
				<dutyTime1c>1800</dutyTime1c>
				<dutyTime1s>1000</dutyTime1s>
				<wgs84Lat>37.6108369453225</wgs84Lat>
				<wgs84Lon>127.056411184278</wgs84Lon>
			</item>
			<item>
				<dutyName>오이비인후과의원</dutyName>
				<dutyTel1>02-911-8270</dutyTel1>
				<dutyTime1c>1900</dutyTime1c>
				<dutyTime1s>900</dutyTime1s>
				<wgs84Lat>37.6081080970618</wgs84Lat>
				<wgs84Lon>127.009888681295</wgs84Lon>
			</item>
			<item>
				<dutyName>오제홍재활의학과의원</dutyName>
				<dutyTel1>02-923-1696</dutyTel1>
				<dutyTime1c>1900</dutyTime1c>
				<dutyTime1s>900</dutyTime1s>
				<wgs84Lat>37.592166472</wgs84Lat>
				<wgs84Lon>127.0154942481</wgs84Lon>
			</item>
			<item>
				<dutyName>온누리산부인과의원</dutyName>
				<dutyTel1>02-919-2321</dutyTel1>
				<dutyTime1c>2000</dutyTime1c>
				<dutyTime1s>930</dutyTime1s>
				<wgs84Lat>37.6032916666667</wgs84Lat>
				<wgs84Lon>127.037747222222</wgs84Lon>
			</item>
			<item>
				<dutyName>온치과의원</dutyName>
				<dutyTel1>02-909-2808</dutyTel1>
				<dutyTime1c>1830</dutyTime1c>
				<dutyTime1s>930</dutyTime1s>
				<wgs84Lat>37.6108634768</wgs84Lat>
				<wgs84Lon>127.0179761954</wgs84Lon>
			</item>
			<item>
				<dutyName>요셉이비인후과의원</dutyName>
				<dutyTel1>02-926-0759</dutyTel1>
				<dutyTime1c>1830</dutyTime1c>
				<dutyTime1s>900</dutyTime1s>
				<wgs84Lat>37.5922636843385</wgs84Lat>
				<wgs84Lon>127.016178192619</wgs84Lon>
			</item>
			<item>
				<dutyName>용가정의학과의원</dutyName>
				<dutyTel1>02-919-7583</dutyTel1>
				<dutyTime1c>1900</dutyTime1c>
				<dutyTime1s>900</dutyTime1s>
				<wgs84Lat>37.6036313464366</wgs84Lat>
				<wgs84Lon>127.037586451083</wgs84Lon>
			</item>
			<item>
				<dutyName>우남치과의원</dutyName>
				<dutyTel1>02-918-2401</dutyTel1>
				<dutyTime1c>1800</dutyTime1c>
				<dutyTime1s>1000</dutyTime1s>
				<wgs84Lat>37.6139567003</wgs84Lat>
				<wgs84Lon>127.0422059398</wgs84Lon>
			</item>
			<item>
				<dutyName>우노비뇨기과의원</dutyName>
				<dutyTel1>02-925-1471</dutyTel1>
				<dutyTime1c>1900</dutyTime1c>
				<dutyTime1s>900</dutyTime1s>
				<wgs84Lat>37.593133142254</wgs84Lat>
				<wgs84Lon>127.016155388545</wgs84Lon>
			</item>
			<item>
				<dutyName>우리가정의학과의원</dutyName>
				<dutyTel1>02-743-4736</dutyTel1>
				<dutyTime1c>1830</dutyTime1c>
				<dutyTime1s>900</dutyTime1s>
				<wgs84Lat>37.5865701099279</wgs84Lat>
				<wgs84Lon>127.009845672086</wgs84Lon>
			</item>
			<item>
				<dutyName>우리기쁜산부인과의원</dutyName>
				<dutyTel1>02-2039-1000</dutyTel1>
				<dutyTime1c>2000</dutyTime1c>
				<dutyTime1s>900</dutyTime1s>
				<wgs84Lat>37.603039911965</wgs84Lat>
				<wgs84Lon>127.03201674413</wgs84Lon>
			</item>
			<item>
				<dutyName>우리들이비인후과의원</dutyName>
				<dutyTel1>02-941-5075</dutyTel1>
				<dutyTime1c>1830</dutyTime1c>
				<dutyTime1s>900</dutyTime1s>
				<wgs84Lat>37.6114577433344</wgs84Lat>
				<wgs84Lon>127.035558558673</wgs84Lon>
			</item>
			<item>
				<dutyName>우리봄소아청소년과의원</dutyName>
				<dutyTel1>02-943-1255</dutyTel1>
				<dutyTime1c>1800</dutyTime1c>
				<dutyTime1s>900</dutyTime1s>
				<wgs84Lat>37.6227489799164</wgs84Lat>
				<wgs84Lon>127.048539541673</wgs84Lon>
			</item>
			<item>
				<dutyName>우리연세재활의학과의원</dutyName>
				<dutyTel1>02-943-7515</dutyTel1>
				<dutyTime1c>1900</dutyTime1c>
				<dutyTime1s>900</dutyTime1s>
				<wgs84Lat>37.6137343306</wgs84Lat>
				<wgs84Lon>127.0487659274</wgs84Lon>
			</item>
			<item>
				<dutyName>우성연합의원</dutyName>
				<dutyTel1>02-963-8275</dutyTel1>
				<dutyTime1c>1830</dutyTime1c>
				<dutyTime1s>800</dutyTime1s>
				<wgs84Lat>37.6098557625</wgs84Lat>
				<wgs84Lon>127.0582814072</wgs84Lon>
			</item>
			<item>
				<dutyName>우솔한의원</dutyName>
				<dutyTel1>02-943-8275</dutyTel1>
				<dutyTime1c>1900</dutyTime1c>
				<dutyTime1s>930</dutyTime1s>
				<wgs84Lat>37.6009176048471</wgs84Lat>
				<wgs84Lon>127.034293636476</wgs84Lon>
			</item>
			<item>
				<dutyName>우창한의원</dutyName>
				<dutyTel1>02-928-7897</dutyTel1>
				<dutyTime1c>1900</dutyTime1c>
				<dutyTime1s>930</dutyTime1s>
				<wgs84Lat>37.5839920186</wgs84Lat>
				<wgs84Lon>127.0198264834</wgs84Lon>
			</item>
			<item>
				<dutyName>웃는이치과의원</dutyName>
				<dutyTel1>02-914-2882</dutyTel1>
				<dutyTime1c>1800</dutyTime1c>
				<dutyTime1s>1000</dutyTime1s>
				<wgs84Lat>37.6059088513</wgs84Lat>
				<wgs84Lon>127.0114155765</wgs84Lon>
			</item>
			<item>
				<dutyName>월곡나무치과의원</dutyName>
				<dutyTel1>02-919-3006</dutyTel1>
				<dutyTime1c>1900</dutyTime1c>
				<dutyTime1s>1000</dutyTime1s>
				<wgs84Lat>37.6067515954329</wgs84Lat>
				<wgs84Lon>127.036973428659</wgs84Lon>
			</item>
			<item>
				<dutyName>월곡순정형외과의원</dutyName>
				<dutyTel1>02-909-6002</dutyTel1>
				<dutyTime1c>1900</dutyTime1c>
				<dutyTime1s>900</dutyTime1s>
				<wgs84Lat>37.6029862748583</wgs84Lat>
				<wgs84Lon>127.042136344631</wgs84Lon>
			</item>
			<item>
				<dutyName>월곡연세가정의학과의원</dutyName>
				<dutyTel1>02-912-0759</dutyTel1>
				<dutyTime1c>1830</dutyTime1c>
				<dutyTime1s>900</dutyTime1s>
				<wgs84Lat>37.6073238187781</wgs84Lat>
				<wgs84Lon>127.036168150913</wgs84Lon>
			</item>
			<item>
				<dutyName>월곡한의원</dutyName>
				<dutyTel1>02-919-1600</dutyTel1>
				<dutyTime1c>1900</dutyTime1c>
				<dutyTime1s>930</dutyTime1s>
				<wgs84Lat>37.6026709140836</wgs84Lat>
				<wgs84Lon>127.040255566249</wgs84Lon>
			</item>
			<item>
				<dutyName>윈치과의원</dutyName>
				<dutyTel1>02-987-2857</dutyTel1>
				<dutyTime1c>1830</dutyTime1c>
				<dutyTime1s>1000</dutyTime1s>
				<wgs84Lat>37.6118341147</wgs84Lat>
				<wgs84Lon>127.0299456136</wgs84Lon>
			</item>
			<item>
				<dutyName>유디치과의원</dutyName>
				<dutyTel1>02-922-5432</dutyTel1>
				<dutyTime1c>1830</dutyTime1c>
				<dutyTime1s>930</dutyTime1s>
				<wgs84Lat>37.5937305293</wgs84Lat>
				<wgs84Lon>127.0159792023</wgs84Lon>
			</item>
			<item>
				<dutyName>유명한의원</dutyName>
				<dutyTel1>02-911-7660</dutyTel1>
				<dutyTime1c>1800</dutyTime1c>
				<dutyTime1s>1000</dutyTime1s>
				<wgs84Lat>37.6039031020186</wgs84Lat>
				<wgs84Lon>127.024289157701</wgs84Lon>
			</item>
			<item>
				<dutyName>유시원마취통증의학과의원</dutyName>
				<dutyTel1>02-911-6611</dutyTel1>
				<dutyTime1c>1830</dutyTime1c>
				<dutyTime1s>900</dutyTime1s>
				<wgs84Lat>37.6012013498</wgs84Lat>
				<wgs84Lon>127.03395467</wgs84Lon>
			</item>
			<item>
				<dutyName>유씨캘리포니아치과의원(UC캘리포니아치과의원)</dutyName>
				<dutyTel1>02-942-2804</dutyTel1>
				<dutyTime1c>1830</dutyTime1c>
				<dutyTime1s>930</dutyTime1s>
				<wgs84Lat>37.6043323503972</wgs84Lat>
				<wgs84Lon>127.022382211477</wgs84Lon>
			</item>
			<item>
				<dutyName>유태영치과의원</dutyName>
				<dutyTel1>02-963-0670</dutyTel1>
				<dutyTime1c>1800</dutyTime1c>
				<dutyTime1s>1000</dutyTime1s>
				<wgs84Lat>37.6075263852</wgs84Lat>
				<wgs84Lon>127.0607031868</wgs84Lon>
			</item>
			<item>
				<dutyName>유항맥서울외과의원</dutyName>
				<dutyTel1>02-929-2419</dutyTel1>
				<dutyTime1c>1800</dutyTime1c>
				<dutyTime1s>900</dutyTime1s>
				<wgs84Lat>37.5941554732914</wgs84Lat>
				<wgs84Lon>127.018216756562</wgs84Lon>
			</item>
			<item>
				<dutyName>윤영근내과의원</dutyName>
				<dutyTel1>02-941-0035</dutyTel1>
				<dutyTime1c>1900</dutyTime1c>
				<dutyTime1s>830</dutyTime1s>
				<wgs84Lat>37.6032744748115</wgs84Lat>
				<wgs84Lon>127.042462654989</wgs84Lon>
			</item>
			<item>
				<dutyName>윤홍선내과의원</dutyName>
				<dutyTel1>02-765-3430</dutyTel1>
				<dutyTime1c>1800</dutyTime1c>
				<dutyTime1s>800</dutyTime1s>
				<wgs84Lat>37.5887326787</wgs84Lat>
				<wgs84Lon>127.0073323693</wgs84Lon>
			</item>
			<item>
				<dutyName>율치과교정과치과의원</dutyName>
				<dutyTel1>02-927-7791</dutyTel1>
				<dutyTime1c>1900</dutyTime1c>
				<dutyTime1s>1030</dutyTime1s>
				<wgs84Lat>37.5935031271811</wgs84Lat>
				<wgs84Lon>127.018397767086</wgs84Lon>
			</item>
			<item>
				<dutyName>의료법인서광의료재단성북중앙병원</dutyName>
				<dutyTel1>02-919-3404</dutyTel1>
				<dutyTime1c>2400</dutyTime1c>
				<dutyTime1s>0</dutyTime1s>
				<wgs84Lat>37.5968844292633</wgs84Lat>
				<wgs84Lon>127.035609924889</wgs84Lon>
			</item>
			<item>
				<dutyName>의료법인열린의료재단혜화열린의원</dutyName>
				<dutyTel1>02-929-2375</dutyTel1>
				<dutyTime1c>1800</dutyTime1c>
				<dutyTime1s>900</dutyTime1s>
				<wgs84Lat>37.5941554732914</wgs84Lat>
				<wgs84Lon>127.018216756562</wgs84Lon>
			</item>
			<item>
				<dutyName>의료법인우신향병원</dutyName>
				<dutyTel1>02-926-7505</dutyTel1>
				<dutyTime1c>1700</dutyTime1c>
				<dutyTime1s>900</dutyTime1s>
				<wgs84Lat>37.584783604541</wgs84Lat>
				<wgs84Lon>127.031148191688</wgs84Lon>
			</item>
			<item>
				<dutyName>의료법인유라의료재단온누리요양병원</dutyName>
				<dutyTel1>02-919-2700</dutyTel1>
				<dutyTime1c>1745</dutyTime1c>
				<dutyTime1s>900</dutyTime1s>
				<wgs84Lat>37.61206243879</wgs84Lat>
				<wgs84Lon>127.058757760468</wgs84Lon>
			</item>
			<item>
				<dutyName>의료법인조광의료재단주사랑병원</dutyName>
				<dutyTel1>02-912-9004</dutyTel1>
				<dutyTime1c>1900</dutyTime1c>
				<dutyTime1s>900</dutyTime1s>
				<wgs84Lat>37.6154818192404</wgs84Lat>
				<wgs84Lon>127.057705884929</wgs84Lon>
			</item>
			<item>
				<dutyName>의료법인참예원의료재단성북참노인전문병원</dutyName>
				<dutyTel1>02-912-2114</dutyTel1>
				<dutyTime1c>1800</dutyTime1c>
				<dutyTime1s>900</dutyTime1s>
				<wgs84Lat>37.597656215535</wgs84Lat>
				<wgs84Lon>127.005195325398</wgs84Lon>
			</item>
			<item>
				<dutyName>이기창내과의원</dutyName>
				<dutyTel1>02-914-3777</dutyTel1>
				<dutyTime1c>1800</dutyTime1c>
				<dutyTime1s>900</dutyTime1s>
				<wgs84Lat>37.603640093532</wgs84Lat>
				<wgs84Lon>127.023881406174</wgs84Lon>
			</item>
			<item>
				<dutyName>이동희치과의원</dutyName>
				<dutyTel1>02-913-1093</dutyTel1>
				<dutyTime1c>1800</dutyTime1c>
				<dutyTime1s>930</dutyTime1s>
				<wgs84Lat>37.6129325059</wgs84Lat>
				<wgs84Lon>127.0603406171</wgs84Lon>
			</item>
			<item>
				<dutyName>이라소아청소년과의원</dutyName>
				<dutyTel1>02-928-8288</dutyTel1>
				<dutyTime1c>1800</dutyTime1c>
				<dutyTime1s>800</dutyTime1s>
				<wgs84Lat>37.5901771720109</wgs84Lat>
				<wgs84Lon>127.014787305884</wgs84Lon>
			</item>
			<item>
				<dutyName>이룸치과의원</dutyName>
				<dutyTel1>02-953-2080</dutyTel1>
				<dutyTime1c>1830</dutyTime1c>
				<dutyTime1s>930</dutyTime1s>
				<wgs84Lat>37.5858013809</wgs84Lat>
				<wgs84Lon>127.0187989321</wgs84Lon>
			</item>
			<item>
				<dutyName>이민녕성형외과의원</dutyName>
				<dutyTel1>02-980-6633</dutyTel1>
				<dutyTime1c>1800</dutyTime1c>
				<dutyTime1s>900</dutyTime1s>
				<wgs84Lat>37.6121728855184</wgs84Lat>
				<wgs84Lon>127.029941239844</wgs84Lon>
			</item>
			<item>
				<dutyName>이보영소아과의원</dutyName>
				<dutyTel1>02-766-9334</dutyTel1>
				<dutyTime1c>1800</dutyTime1c>
				<dutyTime1s>930</dutyTime1s>
				<wgs84Lat>37.5894822834107</wgs84Lat>
				<wgs84Lon>127.007663059417</wgs84Lon>
			</item>
			<item>
				<dutyName>이상구내과의원</dutyName>
				<dutyTel1>02-919-6688</dutyTel1>
				<dutyTime1c>1900</dutyTime1c>
				<dutyTime1s>830</dutyTime1s>
				<wgs84Lat>37.6028380219067</wgs84Lat>
				<wgs84Lon>127.019862639348</wgs84Lon>
			</item>
			<item>
				<dutyName>이상주치과의원</dutyName>
				<dutyTel1>02-942-2679</dutyTel1>
				<dutyTime1c>1830</dutyTime1c>
				<dutyTime1s>930</dutyTime1s>
				<wgs84Lat>37.6088642187</wgs84Lat>
				<wgs84Lon>127.0100841582</wgs84Lon>
			</item>
			<item>
				<dutyName>이소진의원</dutyName>
				<dutyTel1>02-909-8877</dutyTel1>
				<dutyTime1c>1900</dutyTime1c>
				<dutyTime1s>930</dutyTime1s>
				<wgs84Lat>37.6088642187</wgs84Lat>
				<wgs84Lon>127.0100841582</wgs84Lon>
			</item>
			<item>
				<dutyName>이스터치과의원</dutyName>
				<dutyTel1>02-942-7528</dutyTel1>
				<dutyTime1c>2100</dutyTime1c>
				<dutyTime1s>930</dutyTime1s>
				<wgs84Lat>37.6018079308269</wgs84Lat>
				<wgs84Lon>127.033732343581</wgs84Lon>
			</item>
			<item>
				<dutyName>이안치과의원</dutyName>
				<dutyTel1>02-927-7528</dutyTel1>
				<dutyTime1c>1800</dutyTime1c>
				<dutyTime1s>1000</dutyTime1s>
				<wgs84Lat>37.6027518933</wgs84Lat>
				<wgs84Lon>127.0308977603</wgs84Lon>
			</item>
			<item>
				<dutyName>이은영치과의원</dutyName>
				<dutyTel1>02-919-0326</dutyTel1>
				<dutyTime1c>1830</dutyTime1c>
				<dutyTime1s>1000</dutyTime1s>
				<wgs84Lat>37.6022254061</wgs84Lat>
				<wgs84Lon>127.0132993969</wgs84Lon>
			</item>
			<item>
				<dutyName>이인기한의원</dutyName>
				<dutyTel1>02-912-6699</dutyTel1>
				<dutyTime1c>1800</dutyTime1c>
				<dutyTime1s>830</dutyTime1s>
				<wgs84Lat>37.6088786291367</wgs84Lat>
				<wgs84Lon>127.010120422318</wgs84Lon>
			</item>
			<item>
				<dutyName>이인섭안과의원</dutyName>
				<dutyTel1>02-922-0017</dutyTel1>
				<dutyTime1c>1800</dutyTime1c>
				<dutyTime1s>900</dutyTime1s>
				<wgs84Lat>37.5941554733</wgs84Lat>
				<wgs84Lon>127.0182167566</wgs84Lon>
			</item>
			<item>
				<dutyName>이인숙산부인과제일검진의원</dutyName>
				<dutyTel1>02-389-2822</dutyTel1>
				<dutyTime1c>1800</dutyTime1c>
				<dutyTime1s>900</dutyTime1s>
				<wgs84Lat>37.6073728413182</wgs84Lat>
				<wgs84Lon>127.028217864736</wgs84Lon>
			</item>
			<item>
				<dutyName>이재석치과의원</dutyName>
				<dutyTel1>02-912-9134</dutyTel1>
				<dutyTime1c>1800</dutyTime1c>
				<dutyTime1s>1000</dutyTime1s>
				<wgs84Lat>37.6027911799259</wgs84Lat>
				<wgs84Lon>127.019803740905</wgs84Lon>
			</item>
			<item>
				<dutyName>이정균내과의원(구,장명의원)</dutyName>
				<dutyTel1>02-915-0443</dutyTel1>
				<dutyTime1c>1800</dutyTime1c>
				<dutyTime1s>900</dutyTime1s>
				<wgs84Lat>37.6096643585261</wgs84Lat>
				<wgs84Lon>127.051372675508</wgs84Lon>
			</item>
			<item>
				<dutyName>이제룡가정의학과의원</dutyName>
				<dutyTel1>02-916-8341</dutyTel1>
				<dutyTime1c>1800</dutyTime1c>
				<dutyTime1s>830</dutyTime1s>
				<wgs84Lat>37.609908870076</wgs84Lat>
				<wgs84Lon>127.03269471394</wgs84Lon>
			</item>
			<item>
				<dutyName>이주석치과의원</dutyName>
				<dutyTel1>02-744-6974</dutyTel1>
				<dutyTime1c>1830</dutyTime1c>
				<dutyTime1s>930</dutyTime1s>
				<wgs84Lat>37.5890209546</wgs84Lat>
				<wgs84Lon>127.0079755108</wgs84Lon>
			</item>
			<item>
				<dutyName>이지현내과의원</dutyName>
				<dutyTel1>02-922-9494</dutyTel1>
				<dutyTime1c>1830</dutyTime1c>
				<dutyTime1s>900</dutyTime1s>
				<wgs84Lat>37.5942386972</wgs84Lat>
				<wgs84Lon>127.015915901</wgs84Lon>
			</item>
			<item>
				<dutyName>이진형치과의원</dutyName>
				<dutyTel1>02-924-8100</dutyTel1>
				<dutyTime1c>1800</dutyTime1c>
				<dutyTime1s>1030</dutyTime1s>
				<wgs84Lat>37.5941554733</wgs84Lat>
				<wgs84Lon>127.0182167566</wgs84Lon>
			</item>
			<item>
				<dutyName>이천구치과의원</dutyName>
				<dutyTel1>02-980-1828</dutyTel1>
				<dutyTime1c>1830</dutyTime1c>
				<dutyTime1s>930</dutyTime1s>
				<wgs84Lat>37.6059334947141</wgs84Lat>
				<wgs84Lon>127.021725211003</wgs84Lon>
			</item>
			<item>
				<dutyName>이철환치과의원</dutyName>
				<dutyTel1>02-923-2389</dutyTel1>
				<dutyTime1c>1800</dutyTime1c>
				<dutyTime1s>1000</dutyTime1s>
				<wgs84Lat>37.5844460694</wgs84Lat>
				<wgs84Lon>127.0201209687</wgs84Lon>
			</item>
			<item>
				<dutyName>이태희가정의학과의원</dutyName>
				<dutyTel1>02-915-5882</dutyTel1>
				<dutyTime1c>1830</dutyTime1c>
				<dutyTime1s>900</dutyTime1s>
				<wgs84Lat>37.6140248359084</wgs84Lat>
				<wgs84Lon>127.043139278545</wgs84Lon>
			</item>
			<item>
				<dutyName>이해박는집치과의원</dutyName>
				<dutyTel1>02-763-0081</dutyTel1>
				<dutyTime1c>1830</dutyTime1c>
				<dutyTime1s>1000</dutyTime1s>
				<wgs84Lat>37.5915830456</wgs84Lat>
				<wgs84Lon>127.0119070623</wgs84Lon>
			</item>
			<item>
				<dutyName>이혁준정형외과의원</dutyName>
				<dutyTel1>02-922-3232</dutyTel1>
				<dutyTime1c>1900</dutyTime1c>
				<dutyTime1s>900</dutyTime1s>
				<wgs84Lat>37.5942386972143</wgs84Lat>
				<wgs84Lon>127.015915901023</wgs84Lon>
			</item>
			<item>
				<dutyName>이홍수안과의원</dutyName>
				<dutyTel1>02-912-8888</dutyTel1>
				<dutyTime1c>1800</dutyTime1c>
				<dutyTime1s>930</dutyTime1s>
				<wgs84Lat>37.6028475219466</wgs84Lat>
				<wgs84Lon>127.022350078736</wgs84Lon>
			</item>
			<item>
				<dutyName>인선소아과의원</dutyName>
				<dutyTel1>02-962-2955</dutyTel1>
				<dutyTime1c>1830</dutyTime1c>
				<dutyTime1s>900</dutyTime1s>
				<wgs84Lat>37.6082153636214</wgs84Lat>
				<wgs84Lon>127.059476102269</wgs84Lon>
			</item>
			<item>
				<dutyName>임인학치과의원</dutyName>
				<dutyTel1>02-923-5505</dutyTel1>
				<dutyTime1c>1830</dutyTime1c>
				<dutyTime1s>930</dutyTime1s>
				<wgs84Lat>37.5985309120729</wgs84Lat>
				<wgs84Lon>127.022330163081</wgs84Lon>
			</item>
			<item>
				<dutyName>임충남치과의원</dutyName>
				<dutyTel1>02-926-5261</dutyTel1>
				<dutyTime1c>1830</dutyTime1c>
				<dutyTime1s>930</dutyTime1s>
				<wgs84Lat>37.5831934719</wgs84Lat>
				<wgs84Lon>127.0296895926</wgs84Lon>
			</item>
			<item>
				<dutyName>임충모한의원</dutyName>
				<dutyTel1>02-915-0075</dutyTel1>
				<dutyTime1c>1900</dutyTime1c>
				<dutyTime1s>930</dutyTime1s>
				<wgs84Lat>37.6229209208713</wgs84Lat>
				<wgs84Lon>127.048477432167</wgs84Lon>
			</item>
			<item>
				<dutyName>임태균성형외과의원</dutyName>
				<dutyTel1>02-929-3331</dutyTel1>
				<dutyTime1c>1830</dutyTime1c>
				<dutyTime1s>1000</dutyTime1s>
				<wgs84Lat>37.5889660389381</wgs84Lat>
				<wgs84Lon>127.016277116023</wgs84Lon>
			</item>
			<item>
				<dutyName>자산의원</dutyName>
				<dutyTel1>02-918-9911</dutyTel1>
				<dutyTime1c>1800</dutyTime1c>
				<dutyTime1s>900</dutyTime1s>
				<wgs84Lat>37.6046865068428</wgs84Lat>
				<wgs84Lon>127.037094755374</wgs84Lon>
			</item>
			<item>
				<dutyName>자연한의원</dutyName>
				<dutyTel1>02-835-1075</dutyTel1>
				<dutyTime1c>1800</dutyTime1c>
				<dutyTime1s>830</dutyTime1s>
				<wgs84Lat>37.6034669674644</wgs84Lat>
				<wgs84Lon>127.024556276607</wgs84Lon>
			</item>
			<item>
				<dutyName>자하연치과의원</dutyName>
				<dutyTel1>02-914-2804</dutyTel1>
				<dutyTime1c>1800</dutyTime1c>
				<dutyTime1s>930</dutyTime1s>
				<wgs84Lat>37.6081729681042</wgs84Lat>
				<wgs84Lon>127.009884158471</wgs84Lon>
			</item>
			<item>
				<dutyName>장남진치과의원</dutyName>
				<dutyTel1>02-916-7315</dutyTel1>
				<dutyTime1c>1900</dutyTime1c>
				<dutyTime1s>930</dutyTime1s>
				<wgs84Lat>37.5986278416</wgs84Lat>
				<wgs84Lon>127.0349092353</wgs84Lon>
			</item>
			<item>
				<dutyName>장대환내과의원</dutyName>
				<dutyTel1>02-909-3980</dutyTel1>
				<dutyTime1c>1800</dutyTime1c>
				<dutyTime1s>900</dutyTime1s>
				<wgs84Lat>37.6138134746107</wgs84Lat>
				<wgs84Lon>127.049105785128</wgs84Lon>
			</item>
			<item>
				<dutyName>장수경희한의원</dutyName>
				<dutyTel1>02-744-7510</dutyTel1>
				<dutyTime1c>2100</dutyTime1c>
				<dutyTime1s>930</dutyTime1s>
				<wgs84Lat>37.5895833319706</wgs84Lat>
				<wgs84Lon>127.005126829191</wgs84Lon>
			</item>
			<item>
				<dutyName>장용완한의원</dutyName>
				<dutyTel1>02-913-7505</dutyTel1>
				<dutyTime1c>1900</dutyTime1c>
				<dutyTime1s>930</dutyTime1s>
				<wgs84Lat>37.605124688983</wgs84Lat>
				<wgs84Lon>127.038436566749</wgs84Lon>
			</item>
			<item>
				<dutyName>장위성모정형외과의원</dutyName>
				<dutyTel1>02-942-7582</dutyTel1>
				<dutyTime1c>1800</dutyTime1c>
				<dutyTime1s>900</dutyTime1s>
				<wgs84Lat>37.6137596589107</wgs84Lat>
				<wgs84Lon>127.048516789101</wgs84Lon>
			</item>
			<item>
				<dutyName>장위이사랑치과의원</dutyName>
				<dutyTel1>02-917-2875</dutyTel1>
				<dutyTime1c>1830</dutyTime1c>
				<dutyTime1s>1000</dutyTime1s>
				<wgs84Lat>37.6173891635857</wgs84Lat>
				<wgs84Lon>127.05047075408</wgs84Lon>
			</item>
			<item>
				<dutyName>재정한의원</dutyName>
				<dutyTel1>02-943-6183</dutyTel1>
				<dutyTime1c>1900</dutyTime1c>
				<dutyTime1s>830</dutyTime1s>
				<wgs84Lat>37.6031197253613</wgs84Lat>
				<wgs84Lon>127.015505055603</wgs84Lon>
			</item>
			<item>
				<dutyName>전은의산부인과의원</dutyName>
				<dutyTel1>02-941-7310</dutyTel1>
				<dutyTime1c>1800</dutyTime1c>
				<dutyTime1s>1000</dutyTime1s>
				<wgs84Lat>37.6133342467</wgs84Lat>
				<wgs84Lon>127.0488743968</wgs84Lon>
			</item>
			<item>
				<dutyName>정가정의학과의원</dutyName>
				<dutyTel1>02-929-9663</dutyTel1>
				<dutyTime1c>1900</dutyTime1c>
				<dutyTime1s>900</dutyTime1s>
				<wgs84Lat>37.5839235351279</wgs84Lat>
				<wgs84Lon>127.019853657939</wgs84Lon>
			</item>
			<item>
				<dutyName>정릉경희한의원</dutyName>
				<dutyTel1>02-913-0075</dutyTel1>
				<dutyTime1c>1900</dutyTime1c>
				<dutyTime1s>900</dutyTime1s>
				<wgs84Lat>37.6084246030783</wgs84Lat>
				<wgs84Lon>127.009264142957</wgs84Lon>
			</item>
			<item>
				<dutyName>정릉부부치과의원</dutyName>
				<dutyTel1>02-915-5797</dutyTel1>
				<dutyTime1c>1830</dutyTime1c>
				<dutyTime1s>930</dutyTime1s>
				<wgs84Lat>37.6114562106041</wgs84Lat>
				<wgs84Lon>127.008924104572</wgs84Lon>
			</item>
			<item>
				<dutyName>정릉성모내과의원</dutyName>
				<dutyTel1>02-910-8858</dutyTel1>
				<dutyTime1c>1800</dutyTime1c>
				<dutyTime1s>900</dutyTime1s>
				<wgs84Lat>37.6059088512652</wgs84Lat>
				<wgs84Lon>127.011415576513</wgs84Lon>
			</item>
			<item>
				<dutyName>정릉성모외과의원</dutyName>
				<dutyTel1>02-914-0743</dutyTel1>
				<dutyTime1c>1830</dutyTime1c>
				<dutyTime1s>900</dutyTime1s>
				<wgs84Lat>37.6089219239567</wgs84Lat>
				<wgs84Lon>127.00958131678</wgs84Lon>
			</item>
			<item>
				<dutyName>정릉이비인후과의원</dutyName>
				<dutyTel1>02-911-2133</dutyTel1>
				<dutyTime1c>1900</dutyTime1c>
				<dutyTime1s>900</dutyTime1s>
				<wgs84Lat>37.6091129336032</wgs84Lat>
				<wgs84Lon>127.009554180942</wgs84Lon>
			</item>
			<item>
				<dutyName>정릉제일정형외과의원</dutyName>
				<dutyTel1>02-942-0857</dutyTel1>
				<dutyTime1c>1800</dutyTime1c>
				<dutyTime1s>900</dutyTime1s>
				<wgs84Lat>37.6021777763</wgs84Lat>
				<wgs84Lon>127.0189887725</wgs84Lon>
			</item>
			<item>
				<dutyName>정릉치과의원</dutyName>
				<dutyTel1>02-917-1194</dutyTel1>
				<dutyTime1c>1800</dutyTime1c>
				<dutyTime1s>930</dutyTime1s>
				<wgs84Lat>37.6047230987</wgs84Lat>
				<wgs84Lon>127.0119182163</wgs84Lon>
			</item>
			<item>
				<dutyName>정성철정신건강의학과의원</dutyName>
				<dutyTel1>02-3675-7790</dutyTel1>
				<dutyTime1c>1800</dutyTime1c>
				<dutyTime1s>900</dutyTime1s>
				<wgs84Lat>37.5892731977</wgs84Lat>
				<wgs84Lon>127.0084737258</wgs84Lon>
			</item>
			<item>
				<dutyName>정시전내과의원</dutyName>
				<dutyTel1>02-3676-1770</dutyTel1>
				<dutyTime1c>1600</dutyTime1c>
				<dutyTime1s>830</dutyTime1s>
				<wgs84Lat>37.5889669711676</wgs84Lat>
				<wgs84Lon>127.00669835804</wgs84Lon>
			</item>
			<item>
				<dutyName>정안한의원</dutyName>
				<dutyTel1>02-928-1700</dutyTel1>
				<dutyTime1c>1830</dutyTime1c>
				<dutyTime1s>930</dutyTime1s>
				<wgs84Lat>37.589820892</wgs84Lat>
				<wgs84Lon>127.0098777827</wgs84Lon>
			</item>
			<item>
				<dutyName>정의원</dutyName>
				<dutyTel1>02-921-6280</dutyTel1>
				<dutyTime1c>1830</dutyTime1c>
				<dutyTime1s>900</dutyTime1s>
				<wgs84Lat>37.5907299011773</wgs84Lat>
				<wgs84Lon>127.010226412756</wgs84Lon>
			</item>
			<item>
				<dutyName>정치과의원</dutyName>
				<dutyTel1>02-917-2600</dutyTel1>
				<dutyTime1c>1800</dutyTime1c>
				<dutyTime1s>900</dutyTime1s>
				<wgs84Lat>37.6094433044</wgs84Lat>
				<wgs84Lon>127.0193258546</wgs84Lon>
			</item>
			<item>
				<dutyName>정형근내과의원</dutyName>
				<dutyTel1>02-924-8275</dutyTel1>
				<dutyTime1c>1900</dutyTime1c>
				<dutyTime1s>900</dutyTime1s>
				<wgs84Lat>37.5945355735403</wgs84Lat>
				<wgs84Lon>127.011331996606</wgs84Lon>
			</item>
			<item>
				<dutyName>제니산부인과의원</dutyName>
				<dutyTel1>02-941-3892</dutyTel1>
				<dutyTime1c>1900</dutyTime1c>
				<dutyTime1s>930</dutyTime1s>
				<wgs84Lat>37.6026764656</wgs84Lat>
				<wgs84Lon>127.0417737656</wgs84Lon>
			</item>
			<item>
				<dutyName>제이(J)스타일치과의원</dutyName>
				<dutyTel1>02-6221-2828</dutyTel1>
				<dutyTime1c>1800</dutyTime1c>
				<dutyTime1s>1000</dutyTime1s>
				<wgs84Lat>37.5925735004</wgs84Lat>
				<wgs84Lon>127.0170886046</wgs84Lon>
			</item>
			<item>
				<dutyName>제일한의원</dutyName>
