<?xml version="1.0" encoding="UTF-8" standalone="yes"?>
<response xmlns:xsi="http://www.w3.org/2001/XMLSchema-instance">
	<body>
		<items>
			<item>
				<dutyName>123치과교정과치과의원</dutyName>
				<dutyTel1>02-3213-4456</dutyTel1>
				<dutyTime1c>1930</dutyTime1c>
				<dutyTime1s>1030</dutyTime1s>
				<wgs84Lat>37.5135645156694</wgs84Lat>
				<wgs84Lon>127.104043750512</wgs84Lon>
			</item>
			<item>
				<dutyName>2080치과의원</dutyName>
				<dutyTel1>02-417-0275</dutyTel1>
				<dutyTime1c>1830</dutyTime1c>
				<dutyTime1s>930</dutyTime1s>
				<wgs84Lat>37.5053305555556</wgs84Lat>
				<wgs84Lon>127.10605</wgs84Lon>
			</item>
			<item>
				<dutyName>24시열린의원</dutyName>
				<dutyTel1>02-415-2475</dutyTel1>
				<dutyTime1c>2400</dutyTime1c>
				<dutyTime1s>900</dutyTime1s>
				<wgs84Lat>37.5047452066276</wgs84Lat>
				<wgs84Lon>127.087781186769</wgs84Lon>
			</item>
			<item>
				<dutyName>B&amp;B치과의원</dutyName>
				<dutyTel1>02-1800-5487</dutyTel1>
				<dutyTime1c>1800</dutyTime1c>
				<dutyTime1s>900</dutyTime1s>
				<wgs84Lat>37.4939057693284</wgs84Lat>
				<wgs84Lon>127.110932813983</wgs84Lon>
			</item>
			<item>
				<dutyName>Dr.서치과의원</dutyName>
				<dutyTel1>02-3402-2111</dutyTel1>
				<dutyTime1c>1800</dutyTime1c>
				<dutyTime1s>930</dutyTime1s>
				<wgs84Lat>37.5096899517691</wgs84Lat>
				<wgs84Lon>127.127328200424</wgs84Lon>
			</item>
			<item>
				<dutyName>Dr홍연합의원</dutyName>
				<dutyTel1>02-483-0075</dutyTel1>
				<dutyTime1c>1900</dutyTime1c>
				<dutyTime1s>900</dutyTime1s>
				<wgs84Lat>37.5290298511892</wgs84Lat>
				<wgs84Lon>127.116079408</wgs84Lon>
			</item>
			<item>
				<dutyName>E-행복한치과의원</dutyName>
				<dutyTel1>02-415-2801</dutyTel1>
				<dutyTime1c>1830</dutyTime1c>
				<dutyTime1s>1000</dutyTime1s>
				<wgs84Lat>37.5121013999149</wgs84Lat>
				<wgs84Lon>127.08476871127</wgs84Lon>
			</item>
			<item>
				<dutyName>JnS오치과의원</dutyName>
				<dutyTel1>02-6415-2875</dutyTel1>
				<dutyTime1c>1800</dutyTime1c>
				<dutyTime1s>930</dutyTime1s>
				<wgs84Lat>37.5090747063982</wgs84Lat>
				<wgs84Lon>127.125780404851</wgs84Lon>
			</item>
			<item>
				<dutyName>S앤비한의원</dutyName>
				<dutyTel1>02-3432-7585</dutyTel1>
				<dutyTime1c>1800</dutyTime1c>
				<dutyTime1s>1000</dutyTime1s>
				<wgs84Lat>37.5040597913</wgs84Lat>
				<wgs84Lon>127.1138783477</wgs84Lon>
			</item>
			<item>
				<dutyName>W치과의원</dutyName>
				<dutyTel1>02-400-2750</dutyTel1>
				<dutyTime1c>2030</dutyTime1c>
				<dutyTime1s>930</dutyTime1s>
				<wgs84Lat>37.4951476438853</wgs84Lat>
				<wgs84Lon>127.12401959936</wgs84Lon>
			</item>
			<item>
				<dutyName>e-하얀치과의원</dutyName>
				<dutyTel1>02-409-2275</dutyTel1>
				<dutyTime1c>1830</dutyTime1c>
				<dutyTime1s>1000</dutyTime1s>
				<wgs84Lat>37.4967860604</wgs84Lat>
				<wgs84Lon>127.1183725967</wgs84Lon>
			</item>
			<item>
				<dutyName>가든파이브서울치과의원</dutyName>
				<dutyTel1>02-2047-1144</dutyTel1>
				<dutyTime1c>1830</dutyTime1c>
				<dutyTime1s>930</dutyTime1s>
				<wgs84Lat>37.4776873162267</wgs84Lat>
				<wgs84Lon>127.122476955359</wgs84Lon>
			</item>
			<item>
				<dutyName>가락경희한의원</dutyName>
				<dutyTel1>02-6978-4567</dutyTel1>
				<dutyTime1c>1800</dutyTime1c>
				<dutyTime1s>900</dutyTime1s>
				<wgs84Lat>37.495101483442</wgs84Lat>
				<wgs84Lon>127.115602553251</wgs84Lon>
			</item>
			<item>
				<dutyName>가락마취통증의학과의원</dutyName>
				<dutyTel1>02-406-7582</dutyTel1>
				<dutyTime1c>1830</dutyTime1c>
				<dutyTime1s>930</dutyTime1s>
				<wgs84Lat>37.4915657496</wgs84Lat>
				<wgs84Lon>127.1164375286</wgs84Lon>
			</item>
			<item>
				<dutyName>가락삼성치과의원</dutyName>
				<dutyTel1>02-431-2804</dutyTel1>
				<dutyTime1c>1800</dutyTime1c>
				<dutyTime1s>900</dutyTime1s>
				<wgs84Lat>37.494993446654</wgs84Lat>
				<wgs84Lon>127.115516447279</wgs84Lon>
			</item>
			<item>
				<dutyName>가락성모의원</dutyName>
				<dutyTel1>02-403-5586</dutyTel1>
				<dutyTime1c>1900</dutyTime1c>
				<dutyTime1s>900</dutyTime1s>
				<wgs84Lat>37.4948013239327</wgs84Lat>
				<wgs84Lon>127.117288402923</wgs84Lon>
			</item>
			<item>
				<dutyName>가락실버사랑의원</dutyName>
				<dutyTel1>02-414-2211</dutyTel1>
				<dutyTime1c>1800</dutyTime1c>
				<dutyTime1s>900</dutyTime1s>
				<wgs84Lat>37.4995666435258</wgs84Lat>
				<wgs84Lon>127.115799333614</wgs84Lon>
			</item>
			<item>
				<dutyName>가락연세정형외과의원</dutyName>
				<dutyTel1>02-6978-3375</dutyTel1>
				<dutyTime1c>1820</dutyTime1c>
				<dutyTime1s>830</dutyTime1s>
				<wgs84Lat>37.4950798725959</wgs84Lat>
				<wgs84Lon>127.115588950631</wgs84Lon>
			</item>
			<item>
				<dutyName>가락연세치과의원</dutyName>
				<dutyTel1>02-408-9627</dutyTel1>
				<dutyTime1c>1830</dutyTime1c>
				<dutyTime1s>930</dutyTime1s>
				<wgs84Lat>37.494275</wgs84Lat>
				<wgs84Lon>127.117627777778</wgs84Lon>
			</item>
			<item>
				<dutyName>가락유디치과의원</dutyName>
				<dutyTel1>02-431-1860</dutyTel1>
				<dutyTime1c>1830</dutyTime1c>
				<dutyTime1s>930</dutyTime1s>
				<wgs84Lat>37.4944798092578</wgs84Lat>
				<wgs84Lon>127.118047806027</wgs84Lon>
			</item>
			<item>
				<dutyName>가락치과의원</dutyName>
				<dutyTel1>02-414-2875</dutyTel1>
				<dutyTime1c>1730</dutyTime1c>
				<dutyTime1s>1030</dutyTime1s>
				<wgs84Lat>37.5042386123184</wgs84Lat>
				<wgs84Lon>127.11455788481</wgs84Lon>
			</item>
			<item>
				<dutyName>가락한솔의원</dutyName>
				<dutyTel1>02-6978-3456</dutyTel1>
				<dutyTime1c>1800</dutyTime1c>
				<dutyTime1s>830</dutyTime1s>
				<wgs84Lat>37.495076264237</wgs84Lat>
				<wgs84Lon>127.115593468393</wgs84Lon>
			</item>
			<item>
				<dutyName>가락한의원</dutyName>
				<dutyTel1>02-409-2950</dutyTel1>
				<dutyTime1c>1830</dutyTime1c>
				<dutyTime1s>1000</dutyTime1s>
				<wgs84Lat>37.4949826971589</wgs84Lat>
				<wgs84Lon>127.117008263731</wgs84Lon>
			</item>
			<item>
				<dutyName>가브리엘치과의원</dutyName>
				<dutyTel1>02-400-2875</dutyTel1>
				<dutyTime1c>1830</dutyTime1c>
				<dutyTime1s>930</dutyTime1s>
				<wgs84Lat>37.5082115869546</wgs84Lat>
				<wgs84Lon>127.12744834542</wgs84Lon>
			</item>
			<item>
				<dutyName>가야치과의원</dutyName>
				<dutyTel1>02-402-9222</dutyTel1>
				<dutyTime1c>1800</dutyTime1c>
				<dutyTime1s>1000</dutyTime1s>
				<wgs84Lat>37.5052828780928</wgs84Lat>
				<wgs84Lon>127.126190315689</wgs84Lon>
			</item>
			<item>
				<dutyName>가인치과교정과치과의원</dutyName>
				<dutyTel1>02-2143-1385</dutyTel1>
				<dutyTime1c>1800</dutyTime1c>
				<dutyTime1s>1000</dutyTime1s>
				<wgs84Lat>37.5113107836</wgs84Lat>
				<wgs84Lon>127.0981403954</wgs84Lon>
			</item>
			<item>
				<dutyName>가인치과의원</dutyName>
				<dutyTel1>02-419-2811</dutyTel1>
				<dutyTime1c>1900</dutyTime1c>
				<dutyTime1s>1000</dutyTime1s>
				<wgs84Lat>37.5116176584716</wgs84Lat>
				<wgs84Lon>127.096254857016</wgs84Lon>
			</item>
			<item>
				<dutyName>가치과의원</dutyName>
				<dutyTel1>02-414-8370</dutyTel1>
				<dutyTime1c>1830</dutyTime1c>
				<dutyTime1s>930</dutyTime1s>
				<wgs84Lat>37.5109333147488</wgs84Lat>
				<wgs84Lon>127.116124306448</wgs84Lon>
			</item>
			<item>
				<dutyName>감초당한의원</dutyName>
				<dutyTel1>02-413-6207</dutyTel1>
				<dutyTime1c>1900</dutyTime1c>
				<dutyTime1s>930</dutyTime1s>
				<wgs84Lat>37.5200518984152</wgs84Lat>
				<wgs84Lon>127.103799239351</wgs84Lon>
			</item>
			<item>
				<dutyName>강.임.강.정서울치과의원</dutyName>
				<dutyTel1>02-413-7527</dutyTel1>
				<dutyTime1c>1900</dutyTime1c>
				<dutyTime1s>1000</dutyTime1s>
				<wgs84Lat>37.5120856031269</wgs84Lat>
				<wgs84Lon>127.084188429731</wgs84Lon>
			</item>
			<item>
				<dutyName>강남본정형외과의원</dutyName>
				<dutyTel1>18994320</dutyTel1>
				<dutyTime1c>1800</dutyTime1c>
				<dutyTime1s>900</dutyTime1s>
				<wgs84Lat>37.5027771313</wgs84Lat>
				<wgs84Lon>127.0973375681</wgs84Lon>
			</item>
			<item>
				<dutyName>강남삼성정형외과의원</dutyName>
				<dutyTel1>02-2202-0575</dutyTel1>
				<dutyTime1c>1900</dutyTime1c>
				<dutyTime1s>900</dutyTime1s>
				<wgs84Lat>37.5034206294</wgs84Lat>
				<wgs84Lon>127.0903039107</wgs84Lon>
			</item>
			<item>
				<dutyName>강남센트럴요양병원</dutyName>
				<dutyTel1>02-3411-2360</dutyTel1>
				<dutyTime1c>1800</dutyTime1c>
				<dutyTime1s>900</dutyTime1s>
				<wgs84Lat>37.4930278663805</wgs84Lat>
				<wgs84Lon>127.12459958209</wgs84Lon>
			</item>
			<item>
				<dutyName>강남수병원</dutyName>
				<dutyTel1>02-421-7100</dutyTel1>
				<dutyTime1c>1800</dutyTime1c>
				<dutyTime1s>900</dutyTime1s>
				<wgs84Lat>37.5034190725</wgs84Lat>
				<wgs84Lon>127.0875851112</wgs84Lon>
			</item>
			<item>
				<dutyName>강남의원</dutyName>
				<dutyTel1>02-408-7999</dutyTel1>
				<dutyTime1c>1800</dutyTime1c>
				<dutyTime1s>900</dutyTime1s>
				<wgs84Lat>37.4955204996</wgs84Lat>
				<wgs84Lon>127.1505222965</wgs84Lon>
			</item>
			<item>
				<dutyName>강남주니어소아청소년과의원</dutyName>
				<dutyTel1>02-540-8100</dutyTel1>
				<dutyTime1c>1800</dutyTime1c>
				<dutyTime1s>900</dutyTime1s>
				<wgs84Lat>37.5107001999</wgs84Lat>
				<wgs84Lon>127.0862137284</wgs84Lon>
			</item>
			<item>
				<dutyName>강남한의원</dutyName>
				<dutyTel1>02-414-9626</dutyTel1>
				<dutyTime1c>1800</dutyTime1c>
				<dutyTime1s>930</dutyTime1s>
				<wgs84Lat>37.5016788582</wgs84Lat>
				<wgs84Lon>127.108645353</wgs84Lon>
			</item>
			<item>
				<dutyName>강남힘찬병원</dutyName>
				<dutyTel1>18992225</dutyTel1>
				<dutyTime1c>1800</dutyTime1c>
				<dutyTime1s>900</dutyTime1s>
				<wgs84Lat>37.5075919087626</wgs84Lat>
				<wgs84Lon>127.109884461109</wgs84Lon>
			</item>
			<item>
				<dutyName>강덕수한의원</dutyName>
				<dutyTel1>02-416-1489</dutyTel1>
				<dutyTime1c>1830</dutyTime1c>
				<dutyTime1s>930</dutyTime1s>
				<wgs84Lat>37.5117027135691</wgs84Lat>
				<wgs84Lon>127.093517791333</wgs84Lon>
			</item>
			<item>
				<dutyName>강동성신의원</dutyName>
				<dutyTel1>02-415-0446</dutyTel1>
				<dutyTime1c>1830</dutyTime1c>
				<dutyTime1s>830</dutyTime1s>
				<wgs84Lat>37.5114880183417</wgs84Lat>
				<wgs84Lon>127.112677684014</wgs84Lon>
			</item>
			<item>
				<dutyName>강인정한의원</dutyName>
				<dutyTel1>02-404-4746</dutyTel1>
				<dutyTime1c>1830</dutyTime1c>
				<dutyTime1s>1000</dutyTime1s>
				<wgs84Lat>37.4960736047655</wgs84Lat>
				<wgs84Lon>127.13094639242</wgs84Lon>
			</item>
			<item>
				<dutyName>강정수치과의원</dutyName>
				<dutyTel1>02-486-6001</dutyTel1>
				<dutyTime1c>1800</dutyTime1c>
				<dutyTime1s>1000</dutyTime1s>
				<wgs84Lat>37.5367416666667</wgs84Lat>
				<wgs84Lon>127.122236111111</wgs84Lon>
			</item>
			<item>
				<dutyName>강주일치과의원</dutyName>
				<dutyTel1>02-422-1270</dutyTel1>
				<dutyTime1c>1700</dutyTime1c>
				<dutyTime1s>900</dutyTime1s>
				<wgs84Lat>37.506025</wgs84Lat>
				<wgs84Lon>127.081322222222</wgs84Lon>
			</item>
			<item>
				<dutyName>강지혜소아과의원</dutyName>
				<dutyTel1>02-430-3150</dutyTel1>
				<dutyTime1c>1830</dutyTime1c>
				<dutyTime1s>930</dutyTime1s>
				<wgs84Lat>37.4985023219061</wgs84Lat>
				<wgs84Lon>127.146412457175</wgs84Lon>
			</item>
			<item>
				<dutyName>강플러스내과의원</dutyName>
				<dutyTel1>02-400-8827</dutyTel1>
				<dutyTime1c>1830</dutyTime1c>
				<dutyTime1s>900</dutyTime1s>
				<wgs84Lat>37.4962790239</wgs84Lat>
				<wgs84Lon>127.1491984755</wgs84Lon>
			</item>
			<item>
				<dutyName>갤러리아치과의원</dutyName>
				<dutyTel1>02-2145-4501</dutyTel1>
				<dutyTime1c>1830</dutyTime1c>
				<dutyTime1s>930</dutyTime1s>
				<wgs84Lat>37.5115870718049</wgs84Lat>
				<wgs84Lon>127.093920307317</wgs84Lon>
			</item>
			<item>
				<dutyName>거여경희한의원</dutyName>
				<dutyTel1>02-406-3375</dutyTel1>
				<dutyTime1c>1900</dutyTime1c>
				<dutyTime1s>930</dutyTime1s>
				<wgs84Lat>37.4925673063729</wgs84Lat>
				<wgs84Lon>127.144499493191</wgs84Lon>
			</item>
			<item>
				<dutyName>거여서울치과의원</dutyName>
				<dutyTel1>02-431-0119</dutyTel1>
				<dutyTime1c>1800</dutyTime1c>
				<dutyTime1s>1000</dutyTime1s>
				<wgs84Lat>37.4980812437604</wgs84Lat>
				<wgs84Lon>127.146148722057</wgs84Lon>
			</item>
			<item>
				<dutyName>거여성심치과의원</dutyName>
				<dutyTel1>02-430-7937</dutyTel1>
				<dutyTime1c>1800</dutyTime1c>
				<dutyTime1s>1000</dutyTime1s>
				<wgs84Lat>37.4928865892731</wgs84Lat>
				<wgs84Lon>127.144031495918</wgs84Lon>
			</item>
			<item>
				<dutyName>거여연세치과의원</dutyName>
				<dutyTel1>02-409-2670</dutyTel1>
				<dutyTime1c>1800</dutyTime1c>
				<dutyTime1s>930</dutyTime1s>
				<wgs84Lat>37.4928344518323</wgs84Lat>
				<wgs84Lon>127.144869775273</wgs84Lon>
			</item>
			<item>
				<dutyName>건강한내과의원</dutyName>
				<dutyTel1>02-424-2842</dutyTel1>
				<dutyTime1c>1900</dutyTime1c>
				<dutyTime1s>900</dutyTime1s>
				<wgs84Lat>37.4776210344226</wgs84Lat>
				<wgs84Lon>127.127279421475</wgs84Lon>
			</item>
			<item>
				<dutyName>경덕한의원</dutyName>
				<dutyTel1>02-415-8781</dutyTel1>
				<dutyTime1c>1830</dutyTime1c>
				<dutyTime1s>930</dutyTime1s>
				<wgs84Lat>37.5109407388187</wgs84Lat>
				<wgs84Lon>127.082460034318</wgs84Lon>
			</item>
			<item>
				<dutyName>경이비인후과의원</dutyName>
				<dutyTel1>02-416-0111</dutyTel1>
				<dutyTime1c>1900</dutyTime1c>
				<dutyTime1s>900</dutyTime1s>
				<wgs84Lat>37.4776462576142</wgs84Lat>
				<wgs84Lon>127.12728398594</wgs84Lon>
			</item>
			<item>
				<dutyName>경찰병원</dutyName>
				<dutyTel1>02-3400-1114</dutyTel1>
				<dutyTime1c>1730</dutyTime1c>
				<dutyTime1s>900</dutyTime1s>
				<wgs84Lat>37.4964132135608</wgs84Lat>
				<wgs84Lon>127.123487935032</wgs84Lon>
			</item>
			<item>
				<dutyName>경희길한의원</dutyName>
				<dutyTel1>02-3431-1010</dutyTel1>
				<dutyTime1c>1900</dutyTime1c>
				<dutyTime1s>930</dutyTime1s>
				<wgs84Lat>37.5039373225325</wgs84Lat>
				<wgs84Lon>127.088562861922</wgs84Lon>
			</item>
			<item>
				<dutyName>경희김앤안한의원</dutyName>
				<dutyTel1>02-2203-7575</dutyTel1>
				<dutyTime1c>2100</dutyTime1c>
				<dutyTime1s>800</dutyTime1s>
				<wgs84Lat>37.5034695161514</wgs84Lat>
				<wgs84Lon>127.10923151685</wgs84Lon>
			</item>
			<item>
				<dutyName>경희다복한의원</dutyName>
				<dutyTel1>02-431-1600</dutyTel1>
				<dutyTime1c>1900</dutyTime1c>
				<dutyTime1s>930</dutyTime1s>
				<wgs84Lat>37.4975891951433</wgs84Lat>
				<wgs84Lon>127.13530574654</wgs84Lon>
			</item>
			<item>
				<dutyName>경희두드림한의원</dutyName>
				<dutyTel1>02-415-7571</dutyTel1>
				<dutyTime1c>2100</dutyTime1c>
				<dutyTime1s>930</dutyTime1s>
				<wgs84Lat>37.5090825318</wgs84Lat>
				<wgs84Lon>127.1257799162</wgs84Lon>
			</item>
			<item>
				<dutyName>경희미르한의원</dutyName>
				<dutyTel1>02-881-5098</dutyTel1>
				<dutyTime1c>2000</dutyTime1c>
				<dutyTime1s>900</dutyTime1s>
				<wgs84Lat>37.487827766</wgs84Lat>
				<wgs84Lon>127.1206334526</wgs84Lon>
			</item>
			<item>
				<dutyName>경희바른맥한의원</dutyName>
				<dutyTel1>02-3461-8825</dutyTel1>
				<dutyTime1c>1900</dutyTime1c>
				<dutyTime1s>930</dutyTime1s>
				<wgs84Lat>37.4953096679</wgs84Lat>
				<wgs84Lon>127.1241691362</wgs84Lon>
			</item>
			<item>
				<dutyName>경희백진한의원</dutyName>
				<dutyTel1>02-2203-8186</dutyTel1>
				<dutyTime1c>1900</dutyTime1c>
				<dutyTime1s>930</dutyTime1s>
				<wgs84Lat>37.5107179821086</wgs84Lat>
				<wgs84Lon>127.115969607856</wgs84Lon>
			</item>
			<item>
				<dutyName>경희삼대한의원</dutyName>
				<dutyTel1>02-404-8088</dutyTel1>
				<dutyTime1c>1830</dutyTime1c>
				<dutyTime1s>930</dutyTime1s>
				<wgs84Lat>37.5101209536942</wgs84Lat>
				<wgs84Lon>127.11834843029</wgs84Lon>
			</item>
			<item>
				<dutyName>경희소순필한의원</dutyName>
				<dutyTel1>02-3431-2010</dutyTel1>
				<dutyTime1c>1900</dutyTime1c>
				<dutyTime1s>1000</dutyTime1s>
				<wgs84Lat>37.5120856031</wgs84Lat>
				<wgs84Lon>127.0841884297</wgs84Lon>
			</item>
			<item>
				<dutyName>경희약손한의원</dutyName>
				<dutyTel1>02-403-7975</dutyTel1>
				<dutyTime1c>1900</dutyTime1c>
				<dutyTime1s>900</dutyTime1s>
				<wgs84Lat>37.4913647859</wgs84Lat>
				<wgs84Lon>127.1155597427</wgs84Lon>
			</item>
			<item>
				<dutyName>경희어울림한의원</dutyName>
				<dutyTel1>02-473-7400</dutyTel1>
				<dutyTime1c>1900</dutyTime1c>
				<dutyTime1s>900</dutyTime1s>
				<wgs84Lat>37.5369485993853</wgs84Lat>
				<wgs84Lon>127.122468552593</wgs84Lon>
			</item>
			<item>
				<dutyName>경희원한의원</dutyName>
				<dutyTel1>02-532-5670</dutyTel1>
				<dutyTime1c>1800</dutyTime1c>
				<dutyTime1s>1000</dutyTime1s>
				<wgs84Lat>37.4927682465751</wgs84Lat>
				<wgs84Lon>127.128091019361</wgs84Lon>
			</item>
			<item>
				<dutyName>경희으랏차한의원</dutyName>
				<dutyTel1>02-413-8875</dutyTel1>
				<dutyTime1c>2030</dutyTime1c>
				<dutyTime1s>930</dutyTime1s>
				<wgs84Lat>37.5042486465</wgs84Lat>
				<wgs84Lon>127.1085133616</wgs84Lon>
			</item>
			<item>
				<dutyName>경희정담한의원</dutyName>
				<dutyTel1>02-431-1075</dutyTel1>
				<dutyTime1c>1900</dutyTime1c>
				<dutyTime1s>930</dutyTime1s>
				<wgs84Lat>37.503281967785</wgs84Lat>
				<wgs84Lon>127.12567633674</wgs84Lon>
			</item>
			<item>
				<dutyName>경희정한의원</dutyName>
				<dutyTel1>02-448-7575</dutyTel1>
				<dutyTime1c>1830</dutyTime1c>
				<dutyTime1s>930</dutyTime1s>
				<wgs84Lat>37.4928126224132</wgs84Lat>
				<wgs84Lon>127.145587305748</wgs84Lon>
			</item>
			<item>
				<dutyName>경희제광한의원</dutyName>
				<dutyTel1>02-402-7790</dutyTel1>
				<dutyTime1c>2200</dutyTime1c>
				<dutyTime1s>1000</dutyTime1s>
				<wgs84Lat>37.489910216659</wgs84Lat>
				<wgs84Lon>127.143591639497</wgs84Lon>
			</item>
			<item>
				<dutyName>경희제일한의원</dutyName>
				<dutyTel1>02-422-4531</dutyTel1>
				<dutyTime1c>1900</dutyTime1c>
				<dutyTime1s>930</dutyTime1s>
				<wgs84Lat>37.5093528133</wgs84Lat>
				<wgs84Lon>127.1257984663</wgs84Lon>
			</item>
			<item>
				<dutyName>경희지음한의원</dutyName>
				<dutyTel1>02-3432-7575</dutyTel1>
				<dutyTime1c>1830</dutyTime1c>
				<dutyTime1s>930</dutyTime1s>
				<wgs84Lat>37.5203144895</wgs84Lat>
				<wgs84Lon>127.1132650487</wgs84Lon>
			</item>
			<item>
				<dutyName>경희참한의원</dutyName>
				<dutyTel1>02-409-7582</dutyTel1>
				<dutyTime1c>1900</dutyTime1c>
				<dutyTime1s>900</dutyTime1s>
				<wgs84Lat>37.497206871217</wgs84Lat>
				<wgs84Lon>127.135915058329</wgs84Lon>
			</item>
			<item>
				<dutyName>경희케이한의원</dutyName>
				<dutyTel1>02-431-8875</dutyTel1>
				<dutyTime1c>2000</dutyTime1c>
				<dutyTime1s>900</dutyTime1s>
				<wgs84Lat>37.4880501783866</wgs84Lat>
				<wgs84Lon>127.13172838909</wgs84Lon>
			</item>
			<item>
				<dutyName>경희튼튼한의원</dutyName>
				<dutyTel1>02-476-6510</dutyTel1>
				<dutyTime1c>1900</dutyTime1c>
				<dutyTime1s>930</dutyTime1s>
				<wgs84Lat>37.534164551625</wgs84Lat>
				<wgs84Lon>127.117096584848</wgs84Lon>
			</item>
			<item>
				<dutyName>경희한나무한의원</dutyName>
				<dutyTel1>02-422-8582</dutyTel1>
				<dutyTime1c>2000</dutyTime1c>
				<dutyTime1s>930</dutyTime1s>
				<wgs84Lat>37.505370544</wgs84Lat>
				<wgs84Lon>127.0852666264</wgs84Lon>
			</item>
			<item>
				<dutyName>경희한빛한의원</dutyName>
				<dutyTel1>02-420-2526</dutyTel1>
				<dutyTime1c>1900</dutyTime1c>
				<dutyTime1s>1000</dutyTime1s>
				<wgs84Lat>37.5088703352484</wgs84Lat>
				<wgs84Lon>127.110954026912</wgs84Lon>
			</item>
			<item>
				<dutyName>경희한의원</dutyName>
				<dutyTel1>02-415-1277</dutyTel1>
				<dutyTime1c>1830</dutyTime1c>
				<dutyTime1s>930</dutyTime1s>
				<wgs84Lat>37.5063224584331</wgs84Lat>
				<wgs84Lon>127.094160692966</wgs84Lon>
			</item>
			<item>
				<dutyName>경희홍한의원</dutyName>
				<dutyTel1>02-443-6576</dutyTel1>
				<dutyTime1c>1830</dutyTime1c>
				<dutyTime1s>930</dutyTime1s>
				<wgs84Lat>37.4928536541872</wgs84Lat>
				<wgs84Lon>127.144645895925</wgs84Lon>
			</item>
			<item>
				<dutyName>고강한의원</dutyName>
				<dutyTel1>02-3402-1075</dutyTel1>
				<dutyTime1c>1900</dutyTime1c>
				<dutyTime1s>1000</dutyTime1s>
				<wgs84Lat>37.5121876433</wgs84Lat>
				<wgs84Lon>127.1130536967</wgs84Lon>
			</item>
			<item>
				<dutyName>고경석정형외과의원</dutyName>
				<dutyTel1>02-408-0075</dutyTel1>
				<dutyTime1c>1900</dutyTime1c>
				<dutyTime1s>900</dutyTime1s>
				<wgs84Lat>37.49386432834</wgs84Lat>
				<wgs84Lon>127.143376822733</wgs84Lon>
			</item>
			<item>
				<dutyName>고경석한의원</dutyName>
				<dutyTel1>02-408-6969</dutyTel1>
				<dutyTime1c>1800</dutyTime1c>
				<dutyTime1s>1000</dutyTime1s>
				<wgs84Lat>37.5110476598257</wgs84Lat>
				<wgs84Lon>127.128257977692</wgs84Lon>
			</item>
			<item>
				<dutyName>고려치과의원</dutyName>
				<dutyTel1>02-422-3211</dutyTel1>
				<dutyTime1c>1800</dutyTime1c>
				<dutyTime1s>1000</dutyTime1s>
				<wgs84Lat>37.5114080016194</wgs84Lat>
				<wgs84Lon>127.082564255201</wgs84Lon>
			</item>
			<item>
				<dutyName>고려한의원</dutyName>
				<dutyTel1>02-401-1275</dutyTel1>
				<dutyTime1c>1900</dutyTime1c>
				<dutyTime1s>930</dutyTime1s>
				<wgs84Lat>37.4801085214</wgs84Lat>
				<wgs84Lon>127.1269478556</wgs84Lon>
			</item>
			<item>
				<dutyName>고마워치과의원</dutyName>
				<dutyTel1>02-403-2873</dutyTel1>
				<dutyTime1c>1830</dutyTime1c>
				<dutyTime1s>930</dutyTime1s>
				<wgs84Lat>37.4944063976</wgs84Lat>
				<wgs84Lon>127.1228875625</wgs84Lon>
			</item>
			<item>
				<dutyName>고영근비뇨기과의원</dutyName>
				<dutyTel1>02-408-2177</dutyTel1>
				<dutyTime1c>1830</dutyTime1c>
				<dutyTime1s>1000</dutyTime1s>
				<wgs84Lat>37.4968722222222</wgs84Lat>
				<wgs84Lon>127.147838888889</wgs84Lon>
			</item>
			<item>
				<dutyName>고운누리한의원</dutyName>
				<dutyTel1>02-598-7282</dutyTel1>
				<dutyTime1c>1800</dutyTime1c>
				<dutyTime1s>1030</dutyTime1s>
				<wgs84Lat>37.5091299463716</wgs84Lat>
				<wgs84Lon>127.125250672206</wgs84Lon>
			</item>
			<item>
				<dutyName>고운맘소아청소년과의원</dutyName>
				<dutyTel1>02-409-5275</dutyTel1>
				<dutyTime1c>1800</dutyTime1c>
				<dutyTime1s>930</dutyTime1s>
				<wgs84Lat>37.4917625760754</wgs84Lat>
				<wgs84Lon>127.117844513761</wgs84Lon>
			</item>
			<item>
				<dutyName>고운한의원</dutyName>
				<dutyTel1>02-408-7582</dutyTel1>
				<dutyTime1c>1900</dutyTime1c>
				<dutyTime1s>930</dutyTime1s>
				<wgs84Lat>37.5085476033836</wgs84Lat>
				<wgs84Lon>127.126652675028</wgs84Lon>
			</item>
			<item>
				<dutyName>고은내과의원</dutyName>
				<dutyTel1>02-3401-1601</dutyTel1>
				<dutyTime1c>1900</dutyTime1c>
				<dutyTime1s>900</dutyTime1s>
				<wgs84Lat>37.4870668187</wgs84Lat>
				<wgs84Lon>127.1245851581</wgs84Lon>
			</item>
			<item>
				<dutyName>고은빛산부인과의원</dutyName>
				<dutyTel1>02-421-3030</dutyTel1>
				<dutyTime1c>1800</dutyTime1c>
				<dutyTime1s>900</dutyTime1s>
				<wgs84Lat>37.5137856213819</wgs84Lat>
				<wgs84Lon>127.107699200171</wgs84Lon>
			</item>
			<item>
				<dutyName>고재원이비인후과의원</dutyName>
				<dutyTel1>02-413-6089</dutyTel1>
				<dutyTime1c>1800</dutyTime1c>
				<dutyTime1s>930</dutyTime1s>
				<wgs84Lat>37.5015529959</wgs84Lat>
				<wgs84Lon>127.1083420843</wgs84Lon>
			</item>
			<item>
				<dutyName>고치과의원</dutyName>
				<dutyTel1>02-430-0035</dutyTel1>
				<dutyTime1c>1800</dutyTime1c>
				<dutyTime1s>1000</dutyTime1s>
				<wgs84Lat>37.4983583333333</wgs84Lat>
				<wgs84Lon>127.120655555556</wgs84Lon>
			</item>
			<item>
				<dutyName>고피부과의원</dutyName>
				<dutyTel1>02-406-8521</dutyTel1>
				<dutyTime1c>1800</dutyTime1c>
				<dutyTime1s>930</dutyTime1s>
				<wgs84Lat>37.4963471906431</wgs84Lat>
				<wgs84Lon>127.131240868089</wgs84Lon>
			</item>
			<item>
				<dutyName>곧은치과의원</dutyName>
				<dutyTel1>02-408-2879</dutyTel1>
				<dutyTime1c>1830</dutyTime1c>
				<dutyTime1s>1000</dutyTime1s>
				<wgs84Lat>37.4796673949</wgs84Lat>
				<wgs84Lon>127.1249120491</wgs84Lon>
			</item>
			<item>
				<dutyName>공감정신건강의학과의원</dutyName>
				<dutyTel1>02-412-3370</dutyTel1>
				<dutyTime1c>1800</dutyTime1c>
				<dutyTime1s>1000</dutyTime1s>
				<wgs84Lat>37.5033685242</wgs84Lat>
				<wgs84Lon>127.1093173217</wgs84Lon>
			</item>
			<item>
				<dutyName>공기한의원</dutyName>
				<dutyTel1>02-6972-1772</dutyTel1>
				<dutyTime1c>1830</dutyTime1c>
				<dutyTime1s>930</dutyTime1s>
				<wgs84Lat>37.4976488240094</wgs84Lat>
				<wgs84Lon>127.133934592705</wgs84Lon>
			</item>
			<item>
				<dutyName>공내과의원</dutyName>
				<dutyTel1>02-402-1230</dutyTel1>
				<dutyTime1c>1900</dutyTime1c>
				<dutyTime1s>900</dutyTime1s>
				<wgs84Lat>37.508715676511</wgs84Lat>
				<wgs84Lon>127.126759901028</wgs84Lon>
			</item>
			<item>
				<dutyName>구현웅치과의원</dutyName>
				<dutyTel1>02-401-0047</dutyTel1>
				<dutyTime1c>1800</dutyTime1c>
				<dutyTime1s>1000</dutyTime1s>
				<wgs84Lat>37.498015440679</wgs84Lat>
				<wgs84Lon>127.120944629138</wgs84Lon>
			</item>
			<item>
				<dutyName>국민체력센터의원</dutyName>
				<dutyTel1>02-413-5336</dutyTel1>
				<dutyTime1c>1600</dutyTime1c>
				<dutyTime1s>800</dutyTime1s>
				<wgs84Lat>37.5171021774108</wgs84Lat>
				<wgs84Lon>127.128465159918</wgs84Lon>
			</item>
			<item>
				<dutyName>국중연한의원</dutyName>
				<dutyTel1>02-420-2062</dutyTel1>
				<dutyTime1c>1900</dutyTime1c>
				<dutyTime1s>900</dutyTime1s>
				<wgs84Lat>37.5087236976441</wgs84Lat>
				<wgs84Lon>127.086737073151</wgs84Lon>
			</item>
			<item>
				<dutyName>굿닥터비뇨기과의원</dutyName>
				<dutyTel1>02-402-6575</dutyTel1>
				<dutyTime1c>2000</dutyTime1c>
				<dutyTime1s>1000</dutyTime1s>
				<wgs84Lat>37.4858314105781</wgs84Lat>
				<wgs84Lon>127.119862399959</wgs84Lon>
			</item>
			<item>
				<dutyName>굿메디의원</dutyName>
				<dutyTel1>02-415-3077</dutyTel1>
				<dutyTime1c>2030</dutyTime1c>
				<dutyTime1s>900</dutyTime1s>
				<wgs84Lat>37.5176176688237</wgs84Lat>
				<wgs84Lon>127.101388824526</wgs84Lon>
			</item>
			<item>
				<dutyName>굿모닝의원</dutyName>
				<dutyTel1>02-409-7576</dutyTel1>
				<dutyTime1c>1900</dutyTime1c>
				<dutyTime1s>900</dutyTime1s>
				<wgs84Lat>37.497017332</wgs84Lat>
				<wgs84Lon>127.1496070504</wgs84Lon>
			</item>
			<item>
				<dutyName>굿모닝이비인후과의원</dutyName>
				<dutyTel1>02-430-1230</dutyTel1>
				<dutyTime1c>1900</dutyTime1c>
				<dutyTime1s>900</dutyTime1s>
				<wgs84Lat>37.4816010888843</wgs84Lat>
				<wgs84Lon>127.122650593959</wgs84Lon>
			</item>
			<item>
				<dutyName>굿모닝치과의원</dutyName>
				<dutyTel1>02-419-2875</dutyTel1>
				<dutyTime1c>1830</dutyTime1c>
				<dutyTime1s>1000</dutyTime1s>
				<wgs84Lat>37.518507854688</wgs84Lat>
				<wgs84Lon>127.105561750774</wgs84Lon>
			</item>
			<item>
				<dutyName>굿센한의원</dutyName>
				<dutyTel1>02-483-1282</dutyTel1>
				<dutyTime1c>2100</dutyTime1c>
				<dutyTime1s>930</dutyTime1s>
				<wgs84Lat>37.5115557275889</wgs84Lat>
				<wgs84Lon>127.093296342784</wgs84Lon>
			</item>
			<item>
				<dutyName>굿앤웰내과소아청소년과의원</dutyName>
				<dutyTel1>02-2145-4126</dutyTel1>
				<dutyTime1c>1900</dutyTime1c>
				<dutyTime1s>900</dutyTime1s>
				<wgs84Lat>37.5114936543148</wgs84Lat>
				<wgs84Lon>127.093553728672</wgs84Lon>
			</item>
			<item>
				<dutyName>굿플란트치과의원</dutyName>
				<dutyTel1>02-430-9998</dutyTel1>
				<dutyTime1c>1730</dutyTime1c>
				<dutyTime1s>1000</dutyTime1s>
				<wgs84Lat>37.4932233552191</wgs84Lat>
				<wgs84Lon>127.14587691176</wgs84Lon>
			</item>
			<item>
				<dutyName>권승로한의원</dutyName>
				<dutyTel1>02-421-8686</dutyTel1>
				<dutyTime1c>1900</dutyTime1c>
				<dutyTime1s>900</dutyTime1s>
				<wgs84Lat>37.5121200902163</wgs84Lat>
				<wgs84Lon>127.084723106078</wgs84Lon>
			</item>
			<item>
				<dutyName>권영윤내과의원</dutyName>
				<dutyTel1>02-424-2381</dutyTel1>
				<dutyTime1c>1800</dutyTime1c>
				<dutyTime1s>900</dutyTime1s>
				<wgs84Lat>37.5015521931782</wgs84Lat>
				<wgs84Lon>127.108365495295</wgs84Lon>
			</item>
			<item>
				<dutyName>권영훈한의원</dutyName>
				<dutyTel1>02-417-4001</dutyTel1>
				<dutyTime1c>1800</dutyTime1c>
				<dutyTime1s>1000</dutyTime1s>
				<wgs84Lat>37.5145857017266</wgs84Lat>
				<wgs84Lon>127.102583757486</wgs84Lon>
			</item>
			<item>
				<dutyName>규림한의원</dutyName>
				<dutyTel1>02-3432-6375</dutyTel1>
				<dutyTime1c>2100</dutyTime1c>
				<dutyTime1s>1100</dutyTime1s>
				<wgs84Lat>37.511068856421</wgs84Lat>
				<wgs84Lon>127.08310227014</wgs84Lon>
			</item>
			<item>
				<dutyName>그랜드피부과의원</dutyName>
				<dutyTel1>02-408-0345</dutyTel1>
				<dutyTime1c>1900</dutyTime1c>
				<dutyTime1s>1000</dutyTime1s>
				<wgs84Lat>37.4928074771576</wgs84Lat>
				<wgs84Lon>127.1448244917</wgs84Lon>
			</item>
			<item>
				<dutyName>그린소아청소년과의원</dutyName>
				<dutyTel1>02-420-6006</dutyTel1>
				<dutyTime1c>1830</dutyTime1c>
				<dutyTime1s>900</dutyTime1s>
				<wgs84Lat>37.5035720241621</wgs84Lat>
				<wgs84Lon>127.118781403807</wgs84Lon>
			</item>
			<item>
				<dutyName>금문재한의원</dutyName>
				<dutyTel1>02-417-1627</dutyTel1>
				<dutyTime1c>1900</dutyTime1c>
				<dutyTime1s>1000</dutyTime1s>
				<wgs84Lat>37.5159298951962</wgs84Lat>
				<wgs84Lon>127.106833003561</wgs84Lon>
			</item>
			<item>
				<dutyName>금성한의원</dutyName>
				<dutyTel1>02-403-6325</dutyTel1>
				<dutyTime1c>1830</dutyTime1c>
				<dutyTime1s>930</dutyTime1s>
				<wgs84Lat>37.4983405464949</wgs84Lat>
				<wgs84Lon>127.120795113421</wgs84Lon>
			</item>
			<item>
				<dutyName>기린소아청소년과의원</dutyName>
				<dutyTel1>02-2043-6800</dutyTel1>
				<dutyTime1c>1830</dutyTime1c>
				<dutyTime1s>900</dutyTime1s>
				<wgs84Lat>37.4775944610481</wgs84Lat>
				<wgs84Lon>127.127176497631</wgs84Lon>
			</item>
			<item>
				<dutyName>기운찬마취통증의학과의원</dutyName>
				<dutyTel1>02-3432-9212</dutyTel1>
				<dutyTime1c>1900</dutyTime1c>
				<dutyTime1s>900</dutyTime1s>
				<wgs84Lat>37.5095327793635</wgs84Lat>
				<wgs84Lon>127.085827832176</wgs84Lon>
			</item>
			<item>
				<dutyName>김공수한의원</dutyName>
				<dutyTel1>02-415-6706</dutyTel1>
				<dutyTime1c>1900</dutyTime1c>
				<dutyTime1s>900</dutyTime1s>
				<wgs84Lat>37.5101374334819</wgs84Lat>
				<wgs84Lon>127.085708653875</wgs84Lon>
			</item>
			<item>
				<dutyName>김기우내과의원</dutyName>
				<dutyTel1>02-408-7107</dutyTel1>
				<dutyTime1c>1800</dutyTime1c>
				<dutyTime1s>900</dutyTime1s>
				<wgs84Lat>37.4932097889047</wgs84Lat>
				<wgs84Lon>127.14518146827</wgs84Lon>
			</item>
			<item>
				<dutyName>김기철한의원</dutyName>
				<dutyTel1>02-403-1075</dutyTel1>
				<dutyTime1c>1900</dutyTime1c>
				<dutyTime1s>930</dutyTime1s>
				<wgs84Lat>37.4904111807473</wgs84Lat>
				<wgs84Lon>127.134288845133</wgs84Lon>
			</item>
			<item>
				<dutyName>김달래한의원</dutyName>
				<dutyTel1>02-412-4440</dutyTel1>
				<dutyTime1c>1800</dutyTime1c>
				<dutyTime1s>930</dutyTime1s>
				<wgs84Lat>37.5120753254831</wgs84Lat>
				<wgs84Lon>127.086849466089</wgs84Lon>
			</item>
			<item>
				<dutyName>김동건피부과의원</dutyName>
				<dutyTel1>02-414-7557</dutyTel1>
				<dutyTime1c>1800</dutyTime1c>
				<dutyTime1s>930</dutyTime1s>
				<wgs84Lat>37.5090719913173</wgs84Lat>
				<wgs84Lon>127.125518650584</wgs84Lon>
			</item>
			<item>
				<dutyName>김동열치과의원</dutyName>
				<dutyTel1>02-418-0909</dutyTel1>
				<dutyTime1c>1900</dutyTime1c>
				<dutyTime1s>1030</dutyTime1s>
				<wgs84Lat>37.5044412179744</wgs84Lat>
				<wgs84Lon>127.097367694759</wgs84Lon>
			</item>
			<item>
				<dutyName>김동철이비인후과의원</dutyName>
				<dutyTel1>02-422-0071</dutyTel1>
				<dutyTime1c>1900</dutyTime1c>
				<dutyTime1s>900</dutyTime1s>
				<wgs84Lat>37.5058077145</wgs84Lat>
				<wgs84Lon>127.1061676968</wgs84Lon>
			</item>
			<item>
				<dutyName>김동현치과의원</dutyName>
				<dutyTel1>02-417-2875</dutyTel1>
				<dutyTime1c>1800</dutyTime1c>
				<dutyTime1s>900</dutyTime1s>
				<wgs84Lat>37.512201209443</wgs84Lat>
				<wgs84Lon>127.112993790442</wgs84Lon>
			</item>
			<item>
				<dutyName>김명숙여성의원</dutyName>
				<dutyTel1>02-423-3312</dutyTel1>
				<dutyTime1c>1830</dutyTime1c>
				<dutyTime1s>930</dutyTime1s>
				<wgs84Lat>37.5023330138</wgs84Lat>
				<wgs84Lon>127.1105598358</wgs84Lon>
			</item>
			<item>
				<dutyName>김미경산부인과의원</dutyName>
				<dutyTel1>02-401-2256</dutyTel1>
				<dutyTime1c>1900</dutyTime1c>
				<dutyTime1s>1000</dutyTime1s>
				<wgs84Lat>37.4796673949</wgs84Lat>
				<wgs84Lon>127.1249120491</wgs84Lon>
			</item>
			<item>
				<dutyName>김미경소아과의원</dutyName>
				<dutyTel1>02-402-4341</dutyTel1>
				<dutyTime1c>1900</dutyTime1c>
				<dutyTime1s>900</dutyTime1s>
				<wgs84Lat>37.4944012131402</wgs84Lat>
				<wgs84Lon>127.1521088598</wgs84Lon>
			</item>
			<item>
				<dutyName>김민성치과의원</dutyName>
				<dutyTel1>02-431-2882</dutyTel1>
				<dutyTime1c>1830</dutyTime1c>
				<dutyTime1s>930</dutyTime1s>
				<wgs84Lat>37.4831237039177</wgs84Lat>
				<wgs84Lon>127.127885617203</wgs84Lon>
			</item>
			<item>
				<dutyName>김병현치과의원</dutyName>
				<dutyTel1>02-423-2833</dutyTel1>
				<dutyTime1c>1830</dutyTime1c>
				<dutyTime1s>1000</dutyTime1s>
				<wgs84Lat>37.508996176033</wgs84Lat>
				<wgs84Lon>127.125641806037</wgs84Lon>
			</item>
			<item>
				<dutyName>김상대내과의원</dutyName>
				<dutyTel1>02-431-0098</dutyTel1>
				<dutyTime1c>1800</dutyTime1c>
				<dutyTime1s>900</dutyTime1s>
				<wgs84Lat>37.4911231955957</wgs84Lat>
				<wgs84Lon>127.126242807139</wgs84Lon>
			</item>
			<item>
				<dutyName>김석훈치과의원</dutyName>
				<dutyTel1>02-449-5210</dutyTel1>
				<dutyTime1c>1800</dutyTime1c>
				<dutyTime1s>1000</dutyTime1s>
				<wgs84Lat>37.496748174495</wgs84Lat>
				<wgs84Lon>127.136769146847</wgs84Lon>
			</item>
			<item>
				<dutyName>김선미신경정신과의원</dutyName>
				<dutyTel1>02-408-0711</dutyTel1>
				<dutyTime1c>1900</dutyTime1c>
				<dutyTime1s>1000</dutyTime1s>
				<wgs84Lat>37.4916638888889</wgs84Lat>
				<wgs84Lon>127.117819444444</wgs84Lon>
			</item>
			<item>
				<dutyName>김선익의원</dutyName>
				<dutyTel1>02-443-9306</dutyTel1>
				<dutyTime1c>1830</dutyTime1c>
				<dutyTime1s>930</dutyTime1s>
				<wgs84Lat>37.4965950525223</wgs84Lat>
				<wgs84Lon>127.131576740819</wgs84Lon>
			</item>
			<item>
				<dutyName>김성직치과의원</dutyName>
				<dutyTel1>02-401-2884</dutyTel1>
				<dutyTime1c>1800</dutyTime1c>
				<dutyTime1s>1000</dutyTime1s>
				<wgs84Lat>37.5157255934359</wgs84Lat>
				<wgs84Lon>127.131062467461</wgs84Lon>
			</item>
			<item>
				<dutyName>김성태한의원</dutyName>
				<dutyTel1>02-419-9312</dutyTel1>
				<dutyTime1c>1800</dutyTime1c>
				<dutyTime1s>1000</dutyTime1s>
				<wgs84Lat>37.5063558065</wgs84Lat>
				<wgs84Lon>127.1208758865</wgs84Lon>
			</item>
			<item>
				<dutyName>김성희마리안산부인과의원</dutyName>
				<dutyTel1>02-419-2009</dutyTel1>
				<dutyTime1c>1900</dutyTime1c>
				<dutyTime1s>930</dutyTime1s>
				<wgs84Lat>37.5174401727838</wgs84Lat>
				<wgs84Lon>127.10357798467</wgs84Lon>
			</item>
			<item>
				<dutyName>김세훈이비인후과의원</dutyName>
				<dutyTel1>02-415-7656</dutyTel1>
				<dutyTime1c>1830</dutyTime1c>
				<dutyTime1s>930</dutyTime1s>
				<wgs84Lat>37.5065213251225</wgs84Lat>
				<wgs84Lon>127.121129516559</wgs84Lon>
			</item>
			<item>
				<dutyName>김수연이비인후과의원</dutyName>
				<dutyTel1>02-404-8837</dutyTel1>
				<dutyTime1c>1830</dutyTime1c>
				<dutyTime1s>930</dutyTime1s>
				<wgs84Lat>37.5154825955126</wgs84Lat>
				<wgs84Lon>127.132451062785</wgs84Lon>
			</item>
			<item>
				<dutyName>김순상치과의원</dutyName>
				<dutyTel1>02-423-7922</dutyTel1>
				<dutyTime1c>1800</dutyTime1c>
				<dutyTime1s>1000</dutyTime1s>
				<wgs84Lat>37.5065732315972</wgs84Lat>
				<wgs84Lon>127.074289258607</wgs84Lon>
			</item>
			<item>
				<dutyName>김승재치과의원</dutyName>
				<dutyTel1>02-401-2808</dutyTel1>
				<dutyTime1c>1800</dutyTime1c>
				<dutyTime1s>930</dutyTime1s>
				<wgs84Lat>37.4954304315071</wgs84Lat>
				<wgs84Lon>127.121535661399</wgs84Lon>
			</item>
			<item>
				<dutyName>김영득치과의원</dutyName>
				<dutyTel1>02-417-4594</dutyTel1>
				<dutyTime1c>1830</dutyTime1c>
				<dutyTime1s>1000</dutyTime1s>
				<wgs84Lat>37.5041951270695</wgs84Lat>
				<wgs84Lon>127.08941001563</wgs84Lon>
			</item>
			<item>
				<dutyName>김용상치과의원</dutyName>
				<dutyTel1>02-423-0123</dutyTel1>
				<dutyTime1c>1800</dutyTime1c>
				<dutyTime1s>1230</dutyTime1s>
				<wgs84Lat>37.5123912820165</wgs84Lat>
				<wgs84Lon>127.093251703063</wgs84Lon>
			</item>
			<item>
				<dutyName>김원겸치과의원</dutyName>
				<dutyTel1>02-431-0618</dutyTel1>
				<dutyTime1c>1830</dutyTime1c>
				<dutyTime1s>1000</dutyTime1s>
				<wgs84Lat>37.5025472071731</wgs84Lat>
				<wgs84Lon>127.139711104494</wgs84Lon>
			</item>
			<item>
				<dutyName>김윤숙산부인과의원</dutyName>
				<dutyTel1>02-422-7779</dutyTel1>
				<dutyTime1c>2100</dutyTime1c>
				<dutyTime1s>930</dutyTime1s>
				<wgs84Lat>37.5114198567225</wgs84Lat>
				<wgs84Lon>127.082769343021</wgs84Lon>
			</item>
			<item>
				<dutyName>김은수치과의원</dutyName>
				<dutyTel1>02-415-9004</dutyTel1>
				<dutyTime1c>1800</dutyTime1c>
				<dutyTime1s>1100</dutyTime1s>
				<wgs84Lat>37.5057536018199</wgs84Lat>
				<wgs84Lon>127.107216061493</wgs84Lon>
			</item>
			<item>
				<dutyName>김인중한의원</dutyName>
				<dutyTel1>02-443-7510</dutyTel1>
				<dutyTime1c>1800</dutyTime1c>
				<dutyTime1s>900</dutyTime1s>
				<wgs84Lat>37.491565749623</wgs84Lat>
				<wgs84Lon>127.116437528615</wgs84Lon>
			</item>
			<item>
				<dutyName>김인호소아과의원</dutyName>
				<dutyTel1>02-423-7359</dutyTel1>
				<dutyTime1c>1800</dutyTime1c>
				<dutyTime1s>800</dutyTime1s>
				<wgs84Lat>37.5016732075</wgs84Lat>
				<wgs84Lon>127.1108483787</wgs84Lon>
			</item>
			<item>
				<dutyName>김재완치과의원</dutyName>
				<dutyTel1>02-400-2804</dutyTel1>
				<dutyTime1c>1830</dutyTime1c>
				<dutyTime1s>930</dutyTime1s>
				<wgs84Lat>37.48992443127</wgs84Lat>
				<wgs84Lon>127.143759015102</wgs84Lon>
			</item>
			<item>
				<dutyName>김재형치과의원</dutyName>
				<dutyTel1>02-415-2875</dutyTel1>
				<dutyTime1c>1800</dutyTime1c>
				<dutyTime1s>1000</dutyTime1s>
				<wgs84Lat>37.5086813544</wgs84Lat>
				<wgs84Lon>127.0766202986</wgs84Lon>
			</item>
			<item>
				<dutyName>김정아소아과의원</dutyName>
				<dutyTel1>02-421-2266</dutyTel1>
				<dutyTime1c>1830</dutyTime1c>
				<dutyTime1s>900</dutyTime1s>
				<wgs84Lat>37.5047352822672</wgs84Lat>
				<wgs84Lon>127.085054197671</wgs84Lon>
			</item>
			<item>
				<dutyName>김정자산부인과의원</dutyName>
				<dutyTel1>02-415-7718</dutyTel1>
				<dutyTime1c>1800</dutyTime1c>
				<dutyTime1s>930</dutyTime1s>
				<wgs84Lat>37.5076910999182</wgs84Lat>
				<wgs84Lon>127.102787090704</wgs84Lon>
			</item>
			<item>
				<dutyName>김정훈내과의원</dutyName>
				<dutyTel1>02-421-8067</dutyTel1>
				<dutyTime1c>1830</dutyTime1c>
				<dutyTime1s>930</dutyTime1s>
				<wgs84Lat>37.5072923683609</wgs84Lat>
				<wgs84Lon>127.090137812992</wgs84Lon>
			</item>
			<item>
				<dutyName>김정희이비인후과의원</dutyName>
				<dutyTel1>02-448-4589</dutyTel1>
				<dutyTime1c>1800</dutyTime1c>
				<dutyTime1s>930</dutyTime1s>
				<wgs84Lat>37.4983405465</wgs84Lat>
				<wgs84Lon>127.1207951134</wgs84Lon>
			</item>
			<item>
				<dutyName>김종근외과의원</dutyName>
				<dutyTel1>02-422-9955</dutyTel1>
				<dutyTime1c>1700</dutyTime1c>
				<dutyTime1s>930</dutyTime1s>
				<wgs84Lat>37.5114722476671</wgs84Lat>
				<wgs84Lon>127.083858620291</wgs84Lon>
			</item>
			<item>
				<dutyName>김준호비뇨기과의원</dutyName>
				<dutyTel1>02-415-5203</dutyTel1>
				<dutyTime1c>1800</dutyTime1c>
				<dutyTime1s>1030</dutyTime1s>
				<wgs84Lat>37.501664208819</wgs84Lat>
				<wgs84Lon>127.110829160273</wgs84Lon>
			</item>
			<item>
				<dutyName>김지은피부과의원</dutyName>
				<dutyTel1>02-414-0975</dutyTel1>
				<dutyTime1c>1900</dutyTime1c>
				<dutyTime1s>1000</dutyTime1s>
				<wgs84Lat>37.501086112884</wgs84Lat>
				<wgs84Lon>127.110463000692</wgs84Lon>
			</item>
			<item>
				<dutyName>김지태치과의원</dutyName>
				<dutyTel1>02-414-1875</dutyTel1>
				<dutyTime1c>1830</dutyTime1c>
				<dutyTime1s>1000</dutyTime1s>
				<wgs84Lat>37.5186308030159</wgs84Lat>
				<wgs84Lon>127.113009529793</wgs84Lon>
			</item>
			<item>
				<dutyName>김진섭정형외과의원</dutyName>
				<dutyTel1>02-414-0070</dutyTel1>
				<dutyTime1c>1800</dutyTime1c>
				<dutyTime1s>900</dutyTime1s>
				<wgs84Lat>37.5119613718767</wgs84Lat>
				<wgs84Lon>127.126499587041</wgs84Lon>
			</item>
			<item>
				<dutyName>김진성한의원</dutyName>
				<dutyTel1>02-416-7630</dutyTel1>
				<dutyTime1c>1900</dutyTime1c>
				<dutyTime1s>1000</dutyTime1s>
				<wgs84Lat>37.5029158387</wgs84Lat>
				<wgs84Lon>127.0951844389</wgs84Lon>
			</item>
			<item>
				<dutyName>김진숙내과의원</dutyName>
				<dutyTel1>02-443-7019</dutyTel1>
				<dutyTime1c>1830</dutyTime1c>
				<dutyTime1s>830</dutyTime1s>
				<wgs84Lat>37.4983359815187</wgs84Lat>
				<wgs84Lon>127.120847146629</wgs84Lon>
			</item>
			<item>
				<dutyName>김찬웅한의원</dutyName>
				<dutyTel1>02-448-6457</dutyTel1>
				<dutyTime1c>1900</dutyTime1c>
				<dutyTime1s>1000</dutyTime1s>
				<wgs84Lat>37.4972987427465</wgs84Lat>
				<wgs84Lon>127.149372394103</wgs84Lon>
			</item>
			<item>
				<dutyName>김철우내과의원</dutyName>
				<dutyTel1>02-407-4202</dutyTel1>
				<dutyTime1c>1830</dutyTime1c>
				<dutyTime1s>900</dutyTime1s>
				<wgs84Lat>37.4925907241892</wgs84Lat>
				<wgs84Lon>127.144506323007</wgs84Lon>
			</item>
			<item>
				<dutyName>김치과의원</dutyName>
				<dutyTel1>02-406-9798</dutyTel1>
				<dutyTime1c>1800</dutyTime1c>
				<dutyTime1s>1000</dutyTime1s>
				<wgs84Lat>37.4894138888889</wgs84Lat>
				<wgs84Lon>127.122763888889</wgs84Lon>
			</item>
			<item>
				<dutyName>김태균의원</dutyName>
				<dutyTel1>02-406-7950</dutyTel1>
				<dutyTime1c>1830</dutyTime1c>
				<dutyTime1s>930</dutyTime1s>
				<wgs84Lat>37.4965832221</wgs84Lat>
				<wgs84Lon>127.1157577651</wgs84Lon>
			</item>
			<item>
				<dutyName>김학원소아과의원</dutyName>
				<dutyTel1>02-407-0775</dutyTel1>
				<dutyTime1c>1800</dutyTime1c>
				<dutyTime1s>900</dutyTime1s>
				<wgs84Lat>37.4928032228588</wgs84Lat>
				<wgs84Lon>127.144619811084</wgs84Lon>
			</item>
			<item>
				<dutyName>김한의원</dutyName>
				<dutyTel1>02-407-9573</dutyTel1>
				<dutyTime1c>1900</dutyTime1c>
				<dutyTime1s>1000</dutyTime1s>
				<wgs84Lat>37.4931382927</wgs84Lat>
				<wgs84Lon>127.1188643881</wgs84Lon>
			</item>
			<item>
				<dutyName>김혁동한의원</dutyName>
				<dutyTel1>02-422-1025</dutyTel1>
				<dutyTime1c>1800</dutyTime1c>
				<dutyTime1s>900</dutyTime1s>
				<wgs84Lat>37.4997748405725</wgs84Lat>
				<wgs84Lon>127.1038431078</wgs84Lon>
			</item>
			<item>
				<dutyName>김현영산부인과의원</dutyName>
				<dutyTel1>02-423-6614</dutyTel1>
				<dutyTime1c>1800</dutyTime1c>
				<dutyTime1s>1000</dutyTime1s>
				<wgs84Lat>37.5095438953605</wgs84Lat>
				<wgs84Lon>127.124243324931</wgs84Lon>
			</item>
			<item>
				<dutyName>김현영치과의원</dutyName>
				<dutyTel1>02-484-2298</dutyTel1>
				<dutyTime1c>1700</dutyTime1c>
				<dutyTime1s>900</dutyTime1s>
				<wgs84Lat>37.5262775364537</wgs84Lat>
				<wgs84Lon>127.11769537015</wgs84Lon>
			</item>
			<item>
				<dutyName>김형남치과의원</dutyName>
				<dutyTel1>02-404-4133</dutyTel1>
				<dutyTime1c>1830</dutyTime1c>
				<dutyTime1s>1000</dutyTime1s>
				<wgs84Lat>37.4913109793846</wgs84Lat>
				<wgs84Lon>127.135353347762</wgs84Lon>
			</item>
			<item>
				<dutyName>김혜숙산부인과의원</dutyName>
				<dutyTel1>02-403-7300</dutyTel1>
				<dutyTime1c>1800</dutyTime1c>
				<dutyTime1s>900</dutyTime1s>
				<wgs84Lat>37.4969444444444</wgs84Lat>
				<wgs84Lon>127.149905555556</wgs84Lon>
			</item>
			<item>
				<dutyName>김효철내과의원</dutyName>
				<dutyTel1>02-478-0300</dutyTel1>
				<dutyTime1c>1800</dutyTime1c>
				<dutyTime1s>900</dutyTime1s>
				<wgs84Lat>37.5278373461916</wgs84Lat>
				<wgs84Lon>127.118417300061</wgs84Lon>
			</item>
			<item>
				<dutyName>꿈꾸는치과의원</dutyName>
				<dutyTel1>02-414-2228</dutyTel1>
				<dutyTime1c>1830</dutyTime1c>
				<dutyTime1s>1000</dutyTime1s>
				<wgs84Lat>37.5070190421112</wgs84Lat>
				<wgs84Lon>127.116475716164</wgs84Lon>
			</item>
			<item>
				<dutyName>끌림365의원</dutyName>
				<dutyTel1>02-416-7585</dutyTel1>
				<dutyTime1c>2000</dutyTime1c>
				<dutyTime1s>1000</dutyTime1s>
				<wgs84Lat>37.5145255867855</wgs84Lat>
				<wgs84Lon>127.107928183143</wgs84Lon>
			</item>
			<item>
				<dutyName>나치과의원</dutyName>
				<dutyTel1>02-424-2875</dutyTel1>
				<dutyTime1c>1800</dutyTime1c>
				<dutyTime1s>930</dutyTime1s>
				<wgs84Lat>37.5000822758841</wgs84Lat>
				<wgs84Lon>127.103713189799</wgs84Lon>
			</item>
			<item>
				<dutyName>남앤유서울치과의원</dutyName>
				<dutyTel1>02-422-6644</dutyTel1>
				<dutyTime1c>1830</dutyTime1c>
				<dutyTime1s>930</dutyTime1s>
				<wgs84Lat>37.5177433131581</wgs84Lat>
				<wgs84Lon>127.101972667635</wgs84Lon>
			</item>
			<item>
				<dutyName>남천한의원</dutyName>
				<dutyTel1>02-407-7533</dutyTel1>
				<dutyTime1c>1900</dutyTime1c>
				<dutyTime1s>900</dutyTime1s>
				<wgs84Lat>37.5004929222</wgs84Lat>
				<wgs84Lon>127.1514053343</wgs84Lon>
			</item>
			<item>
				<dutyName>남치과의원</dutyName>
				<dutyTel1>02-412-9222</dutyTel1>
				<dutyTime1c>1830</dutyTime1c>
				<dutyTime1s>1000</dutyTime1s>
				<wgs84Lat>37.505009415288</wgs84Lat>
				<wgs84Lon>127.08472878593</wgs84Lon>
			</item>
			<item>
				<dutyName>남해한의원</dutyName>
				<dutyTel1>02-412-0832</dutyTel1>
				<dutyTime1c>1830</dutyTime1c>
				<dutyTime1s>1000</dutyTime1s>
				<wgs84Lat>37.5059794570414</wgs84Lat>
				<wgs84Lon>127.121739949798</wgs84Lon>
			</item>
			<item>
				<dutyName>내일의원</dutyName>
				<dutyTel1>02-3431-1500</dutyTel1>
				<dutyTime1c>1830</dutyTime1c>
				<dutyTime1s>900</dutyTime1s>
				<wgs84Lat>37.5113544829284</wgs84Lat>
				<wgs84Lon>127.083490871154</wgs84Lon>
			</item>
			<item>
				<dutyName>노문호치과의원</dutyName>
				<dutyTel1>02-423-7755</dutyTel1>
				<dutyTime1c>1800</dutyTime1c>
				<dutyTime1s>1000</dutyTime1s>
				<wgs84Lat>37.5172363707226</wgs84Lat>
				<wgs84Lon>127.100528644867</wgs84Lon>
			</item>
			<item>
				<dutyName>노바피부과의원</dutyName>
				<dutyTel1>02-449-2430</dutyTel1>
				<dutyTime1c>1830</dutyTime1c>
				<dutyTime1s>930</dutyTime1s>
				<wgs84Lat>37.4932600126873</wgs84Lat>
				<wgs84Lon>127.145181082587</wgs84Lon>
			</item>
			<item>
				<dutyName>누가정형외과의원</dutyName>
				<dutyTel1>02-431-3233</dutyTel1>
				<dutyTime1c>1900</dutyTime1c>
				<dutyTime1s>900</dutyTime1s>
				<wgs84Lat>37.4947112113657</wgs84Lat>
				<wgs84Lon>127.134227881908</wgs84Lon>
			</item>
			<item>
				<dutyName>누베베한의원</dutyName>
				<dutyTel1>02-3431-3700</dutyTel1>
				<dutyTime1c>2030</dutyTime1c>
				<dutyTime1s>1000</dutyTime1s>
				<wgs84Lat>37.5150936842</wgs84Lat>
				<wgs84Lon>127.0997108238</wgs84Lon>
			</item>
			<item>
				<dutyName>뉴서울의원</dutyName>
				<dutyTel1>02-2043-3241</dutyTel1>
				<dutyTime1c>1830</dutyTime1c>
				<dutyTime1s>900</dutyTime1s>
				<wgs84Lat>37.49693682512</wgs84Lat>
				<wgs84Lon>127.151968123056</wgs84Lon>
			</item>
			<item>
				<dutyName>뉴스타트병원</dutyName>
				<dutyTel1>02-407-7700</dutyTel1>
				<dutyTime1c>2400</dutyTime1c>
				<dutyTime1s>0</dutyTime1s>
				<wgs84Lat>37.4991131402931</wgs84Lat>
				<wgs84Lon>127.119484534605</wgs84Lon>
			</item>
			<item>
				<dutyName>뉴욕플러스치과의원</dutyName>
				<dutyTel1>02-412-4234</dutyTel1>
				<dutyTime1c>1800</dutyTime1c>
				<dutyTime1s>1000</dutyTime1s>
				<wgs84Lat>37.5207360210295</wgs84Lat>
				<wgs84Lon>127.104528665646</wgs84Lon>
			</item>
			<item>
				<dutyName>다나마취통증의학과의원</dutyName>
				<dutyTel1>02-418-7501</dutyTel1>
				<dutyTime1c>1900</dutyTime1c>
				<dutyTime1s>900</dutyTime1s>
				<wgs84Lat>37.5067778324928</wgs84Lat>
				<wgs84Lon>127.094820657321</wgs84Lon>
			</item>
			<item>
				<dutyName>다나에치과의원</dutyName>
				<dutyTel1>02-418-2875</dutyTel1>
				<dutyTime1c>1830</dutyTime1c>
				<dutyTime1s>1000</dutyTime1s>
				<wgs84Lat>37.5101038958211</wgs84Lat>
				<wgs84Lon>127.118287326766</wgs84Lon>
			</item>
			<item>
				<dutyName>다나음한의원</dutyName>
				<dutyTel1>02-404-8875</dutyTel1>
				<dutyTime1c>1900</dutyTime1c>
				<dutyTime1s>930</dutyTime1s>
				<wgs84Lat>37.4980812438</wgs84Lat>
				<wgs84Lon>127.1461487221</wgs84Lon>
			</item>
			<item>
				<dutyName>다미내과의원</dutyName>
				<dutyTel1>02-2152-7588</dutyTel1>
				<dutyTime1c>1830</dutyTime1c>
				<dutyTime1s>900</dutyTime1s>
				<wgs84Lat>37.5165772505788</wgs84Lat>
				<wgs84Lon>127.101224008613</wgs84Lon>
			</item>
			<item>
				<dutyName>다미신경정신과의원</dutyName>
				<dutyTel1>02-419-0152</dutyTel1>
				<dutyTime1c>1800</dutyTime1c>
				<dutyTime1s>1000</dutyTime1s>
				<wgs84Lat>37.5114042397392</wgs84Lat>
				<wgs84Lon>127.083513947318</wgs84Lon>
			</item>
			<item>
				<dutyName>다사랑내과의원</dutyName>
				<dutyTel1>02-483-8508</dutyTel1>
				<dutyTime1c>1800</dutyTime1c>
				<dutyTime1s>900</dutyTime1s>
				<wgs84Lat>37.5338239012203</wgs84Lat>
				<wgs84Lon>127.118060070348</wgs84Lon>
			</item>
			<item>
				<dutyName>다온의원</dutyName>
				<dutyTel1>02-424-2048</dutyTel1>
				<dutyTime1c>1900</dutyTime1c>
				<dutyTime1s>1000</dutyTime1s>
				<wgs84Lat>37.5018787848757</wgs84Lat>
				<wgs84Lon>127.110690353258</wgs84Lon>
			</item>
			<item>
				<dutyName>다온헬스케어의원</dutyName>
				<dutyTel1>02-6941-0101</dutyTel1>
				<dutyTime1c>1800</dutyTime1c>
				<dutyTime1s>900</dutyTime1s>
				<wgs84Lat>37.4816333578569</wgs84Lat>
				<wgs84Lon>127.122813453839</wgs84Lon>
			</item>
			<item>
				<dutyName>다올치과의원</dutyName>
				<dutyTel1>02-423-2275</dutyTel1>
				<dutyTime1c>1830</dutyTime1c>
				<dutyTime1s>930</dutyTime1s>
				<wgs84Lat>37.5145530316919</wgs84Lat>
				<wgs84Lon>127.107967246142</wgs84Lon>
			</item>
			<item>
				<dutyName>다옴한의원</dutyName>
				<dutyTel1>02-6953-1075</dutyTel1>
				<dutyTime1c>1900</dutyTime1c>
				<dutyTime1s>930</dutyTime1s>
				<wgs84Lat>37.4997093424</wgs84Lat>
				<wgs84Lon>127.1025040212</wgs84Lon>
			</item>
			<item>
				<dutyName>다원한의원</dutyName>
				<dutyTel1>02-881-5175</dutyTel1>
				<dutyTime1c>1830</dutyTime1c>
				<dutyTime1s>930</dutyTime1s>
				<wgs84Lat>37.487827766</wgs84Lat>
				<wgs84Lon>127.1206334526</wgs84Lon>
			</item>
			<item>
				<dutyName>다이아몬드치과의원</dutyName>
				<dutyTel1>02-575-2875</dutyTel1>
				<dutyTime1c>1830</dutyTime1c>
				<dutyTime1s>1000</dutyTime1s>
				<wgs84Lat>37.4847665594</wgs84Lat>
				<wgs84Lon>127.1184395613</wgs84Lon>
			</item>
			<item>
				<dutyName>다인치과의원</dutyName>
				<dutyTel1>02-430-0946</dutyTel1>
				<dutyTime1c>1830</dutyTime1c>
				<dutyTime1s>1000</dutyTime1s>
				<wgs84Lat>37.4942549825733</wgs84Lat>
				<wgs84Lon>127.119417992607</wgs84Lon>
			</item>
			<item>
				<dutyName>다함경희한의원</dutyName>
				<dutyTel1>02-421-7975</dutyTel1>
				<dutyTime1c>1800</dutyTime1c>
				<dutyTime1s>1000</dutyTime1s>
				<wgs84Lat>37.5034892922253</wgs84Lat>
				<wgs84Lon>127.090059708493</wgs84Lon>
			</item>
			<item>
				<dutyName>닥터스마일의원</dutyName>
				<dutyTel1>02-403-0651</dutyTel1>
				<dutyTime1c>1800</dutyTime1c>
				<dutyTime1s>900</dutyTime1s>
				<wgs84Lat>37.4967647028125</wgs84Lat>
				<wgs84Lon>127.131739171257</wgs84Lon>
			</item>
			<item>
				<dutyName>닥터스마일치과의원</dutyName>
				<dutyTel1>02-431-2875</dutyTel1>
				<dutyTime1c>1900</dutyTime1c>
				<dutyTime1s>1000</dutyTime1s>
				<wgs84Lat>37.4949910130327</wgs84Lat>
				<wgs84Lon>127.120389428642</wgs84Lon>
			</item>
			<item>
				<dutyName>닥터예가정의학과의원</dutyName>
				<dutyTel1>02-424-7423</dutyTel1>
				<dutyTime1c>2000</dutyTime1c>
				<dutyTime1s>900</dutyTime1s>
				<wgs84Lat>37.5069650748159</wgs84Lat>
				<wgs84Lon>127.092769238018</wgs84Lon>
			</item>
			<item>
				<dutyName>닥터진힐링정신건강의학과의원</dutyName>
				<dutyTel1>02-402-0667</dutyTel1>
				<dutyTime1c>1830</dutyTime1c>
				<dutyTime1s>930</dutyTime1s>
				<wgs84Lat>37.4900004713821</wgs84Lat>
				<wgs84Lon>127.127982264496</wgs84Lon>
			</item>
			<item>
				<dutyName>닥터포미의원</dutyName>
				<dutyTel1>02-417-7119</dutyTel1>
				<dutyTime1c>2100</dutyTime1c>
				<dutyTime1s>1000</dutyTime1s>
				<wgs84Lat>37.5089781262</wgs84Lat>
				<wgs84Lon>127.1256756862</wgs84Lon>
			</item>
			<item>
				<dutyName>닥터포유치과의원</dutyName>
				<dutyTel1>02-415-0275</dutyTel1>
				<dutyTime1c>1900</dutyTime1c>
				<dutyTime1s>930</dutyTime1s>
				<wgs84Lat>37.5054981617</wgs84Lat>
				<wgs84Lon>127.10968234</wgs84Lon>
			</item>
			<item>
				<dutyName>단아안본초경희한의원</dutyName>
				<dutyTel1>02-2202-8822</dutyTel1>
				<dutyTime1c>2000</dutyTime1c>
				<dutyTime1s>930</dutyTime1s>
				<wgs84Lat>37.5177313444</wgs84Lat>
				<wgs84Lon>127.1044335465</wgs84Lon>
			</item>
			<item>
				<dutyName>대가연마취통증의학과의원</dutyName>
				<dutyTel1>02-568-4955</dutyTel1>
				<dutyTime1c>1900</dutyTime1c>
				<dutyTime1s>900</dutyTime1s>
				<wgs84Lat>37.499348068</wgs84Lat>
				<wgs84Lon>127.1257862041</wgs84Lon>
			</item>
			<item>
				<dutyName>대장장이하마새치과의원</dutyName>
				<dutyTel1>02-402-1912</dutyTel1>
				<dutyTime1c>1830</dutyTime1c>
				<dutyTime1s>930</dutyTime1s>
				<wgs84Lat>37.4961996217801</wgs84Lat>
				<wgs84Lon>127.1310641991</wgs84Lon>
			</item>
			<item>
				<dutyName>더끌림피부과의원</dutyName>
				<dutyTel1>02-402-0220</dutyTel1>
				<dutyTime1c>1900</dutyTime1c>
				<dutyTime1s>930</dutyTime1s>
				<wgs84Lat>37.4868620536</wgs84Lat>
				<wgs84Lon>127.1204690793</wgs84Lon>
			</item>
			<item>
				<dutyName>더마인피부과의원</dutyName>
				<dutyTel1>02-443-2900</dutyTel1>
				<dutyTime1c>1900</dutyTime1c>
				<dutyTime1s>1000</dutyTime1s>
				<wgs84Lat>37.48159744779</wgs84Lat>
				<wgs84Lon>127.122686767573</wgs84Lon>
			</item>
			<item>
				<dutyName>더바름치과의원</dutyName>
				<dutyTel1>02-2202-2080</dutyTel1>
				<dutyTime1c>2030</dutyTime1c>
				<dutyTime1s>1000</dutyTime1s>
				<wgs84Lat>37.5107001999</wgs84Lat>
				<wgs84Lon>127.0862137284</wgs84Lon>
			</item>
			<item>
				<dutyName>더블유산부인과의원</dutyName>
				<dutyTel1>02-421-0430</dutyTel1>
				<dutyTime1c>2000</dutyTime1c>
				<dutyTime1s>930</dutyTime1s>
				<wgs84Lat>37.5120733657522</wgs84Lat>
				<wgs84Lon>127.084542083178</wgs84Lon>
			</item>
			<item>
				<dutyName>더사랑요양병원</dutyName>
				<dutyTel1>02-6959-5522</dutyTel1>
				<dutyTime1c>1730</dutyTime1c>
				<dutyTime1s>900</dutyTime1s>
				<wgs84Lat>37.5005391943943</wgs84Lat>
				<wgs84Lon>127.143199592913</wgs84Lon>
			</item>
			<item>
				<dutyName>더웰스의원</dutyName>
				<dutyTel1>02-422-7591</dutyTel1>
				<dutyTime1c>1900</dutyTime1c>
				<dutyTime1s>1000</dutyTime1s>
				<wgs84Lat>37.51146419</wgs84Lat>
				<wgs84Lon>127.0812152828</wgs84Lon>
			</item>
			<item>
				<dutyName>더한별이비인후과의원</dutyName>
				<dutyTel1>02-415-3650</dutyTel1>
				<dutyTime1c>2000</dutyTime1c>
				<dutyTime1s>900</dutyTime1s>
				<wgs84Lat>37.5004115678</wgs84Lat>
				<wgs84Lon>127.111095312</wgs84Lon>
			</item>
			<item>
				<dutyName>도림한의원</dutyName>
				<dutyTel1>02-422-6868</dutyTel1>
				<dutyTime1c>1700</dutyTime1c>
				<dutyTime1s>930</dutyTime1s>
				<wgs84Lat>37.5074483389204</wgs84Lat>
				<wgs84Lon>127.103229419808</wgs84Lon>
			</item>
			<item>
				<dutyName>동광한의원</dutyName>
				<dutyTel1>02-420-5577</dutyTel1>
				<dutyTime1c>1900</dutyTime1c>
				<dutyTime1s>930</dutyTime1s>
				<wgs84Lat>37.5119492752</wgs84Lat>
				<wgs84Lon>127.1135781563</wgs84Lon>
			</item>
			<item>
				<dutyName>동아당한의원</dutyName>
				<dutyTel1>02-3401-5777</dutyTel1>
				<dutyTime1c>1900</dutyTime1c>
				<dutyTime1s>1000</dutyTime1s>
				<wgs84Lat>37.4962829344861</wgs84Lat>
				<wgs84Lon>127.148782912738</wgs84Lon>
			</item>
			<item>
				<dutyName>동양한의원</dutyName>
				<dutyTel1>02-422-8763</dutyTel1>
				<dutyTime1c>1830</dutyTime1c>
				<dutyTime1s>930</dutyTime1s>
				<wgs84Lat>37.5075446608653</wgs84Lat>
				<wgs84Lon>127.089539226194</wgs84Lon>
			</item>
			<item>
				<dutyName>동인당한의원</dutyName>
				<dutyTel1>02-443-5512</dutyTel1>
				<dutyTime1c>1900</dutyTime1c>
				<dutyTime1s>1000</dutyTime1s>
				<wgs84Lat>37.4970125327</wgs84Lat>
				<wgs84Lon>127.1505479082</wgs84Lon>
			</item>
			<item>
				<dutyName>두꺼비한의원</dutyName>
				<dutyTel1>02-400-8807</dutyTel1>
				<dutyTime1c>1830</dutyTime1c>
				<dutyTime1s>900</dutyTime1s>
				<wgs84Lat>37.4907917607281</wgs84Lat>
				<wgs84Lon>127.129056418952</wgs84Lon>
			</item>
			<item>
				<dutyName>두루미한의원</dutyName>
				<dutyTel1>02-2202-2331</dutyTel1>
				<dutyTime1c>2100</dutyTime1c>
				<dutyTime1s>1000</dutyTime1s>
				<wgs84Lat>37.5120856031</wgs84Lat>
				<wgs84Lon>127.0841884297</wgs84Lon>
			</item>
			<item>
				<dutyName>두리이비인후과의원</dutyName>
				<dutyTel1>02-416-2231</dutyTel1>
				<dutyTime1c>1900</dutyTime1c>
				<dutyTime1s>900</dutyTime1s>
				<wgs84Lat>37.5208621404908</wgs84Lat>
				<wgs84Lon>127.10455146305</wgs84Lon>
			</item>
			<item>
				<dutyName>두얼의원</dutyName>
				<dutyTel1>02-421-2284</dutyTel1>
				<dutyTime1c>1900</dutyTime1c>
				<dutyTime1s>900</dutyTime1s>
				<wgs84Lat>37.5093099088009</wgs84Lat>
				<wgs84Lon>127.124880497305</wgs84Lon>
			</item>
			<item>
				<dutyName>드림안과의원</dutyName>
				<dutyTel1>02-402-7585</dutyTel1>
				<dutyTime1c>1830</dutyTime1c>
				<dutyTime1s>930</dutyTime1s>
				<wgs84Lat>37.4910289758615</wgs84Lat>
				<wgs84Lon>127.126288743335</wgs84Lon>
			</item>
			<item>
				<dutyName>드림요양병원</dutyName>
				<dutyTel1>02-430-1122</dutyTel1>
				<dutyTime1c>1730</dutyTime1c>
				<dutyTime1s>900</dutyTime1s>
				<wgs84Lat>37.4968249802909</wgs84Lat>
				<wgs84Lon>127.122069048733</wgs84Lon>
			</item>
			<item>
				<dutyName>디딤정신과의원</dutyName>
				<dutyTel1>02-6289-1133</dutyTel1>
				<dutyTime1c>1900</dutyTime1c>
				<dutyTime1s>1000</dutyTime1s>
				<wgs84Lat>37.5120856031269</wgs84Lat>
				<wgs84Lon>127.084188429731</wgs84Lon>
			</item>
			<item>
				<dutyName>디에스의원</dutyName>
				<dutyTel1>02-418-0330</dutyTel1>
				<dutyTime1c>2100</dutyTime1c>
				<dutyTime1s>1000</dutyTime1s>
				<wgs84Lat>37.5120856031269</wgs84Lat>
				<wgs84Lon>127.084188429731</wgs84Lon>
			</item>
			<item>
				<dutyName>라미체성형외과의원</dutyName>
				<dutyTel1>02-425-7070</dutyTel1>
				<dutyTime1c>1900</dutyTime1c>
				<dutyTime1s>1000</dutyTime1s>
				<wgs84Lat>37.51027537</wgs84Lat>
				<wgs84Lon>127.0804765495</wgs84Lon>
			</item>
			<item>
				<dutyName>라임치과교정과치과의원</dutyName>
				<dutyTel1>02-402-3428</dutyTel1>
				<dutyTime1c>1830</dutyTime1c>
				<dutyTime1s>1030</dutyTime1s>
				<wgs84Lat>37.4915657496</wgs84Lat>
				<wgs84Lon>127.1164375286</wgs84Lon>
			</item>
			<item>
				<dutyName>라파플러스의원</dutyName>
				<dutyTel1>02-2183-1960</dutyTel1>
				<dutyTime1c>1700</dutyTime1c>
				<dutyTime1s>930</dutyTime1s>
				<wgs84Lat>37.5156246026</wgs84Lat>
				<wgs84Lon>127.1105884902</wgs84Lon>
			</item>
			<item>
				<dutyName>란앤민소아청소년과의원</dutyName>
				<dutyTel1>02-421-2666</dutyTel1>
				<dutyTime1c>1800</dutyTime1c>
				<dutyTime1s>900</dutyTime1s>
				<wgs84Lat>37.5011425701897</wgs84Lat>
				<wgs84Lon>127.10699425612</wgs84Lon>
			</item>
			<item>
				<dutyName>럭쎌내과의원</dutyName>
				<dutyTel1>02-3445-3475</dutyTel1>
				<dutyTime1c>1800</dutyTime1c>
				<dutyTime1s>1000</dutyTime1s>
				<wgs84Lat>37.507761171</wgs84Lat>
				<wgs84Lon>127.1100204307</wgs84Lon>
			</item>
			<item>
				<dutyName>럭쎌한의원</dutyName>
				<dutyTel1>02-3445-3475</dutyTel1>
				<dutyTime1c>1800</dutyTime1c>
				<dutyTime1s>1000</dutyTime1s>
				<wgs84Lat>37.507761171</wgs84Lat>
				<wgs84Lon>127.1100204307</wgs84Lon>
			</item>
			<item>
				<dutyName>레이크가정의학과의원</dutyName>
				<dutyTel1>02-412-1618</dutyTel1>
				<dutyTime1c>1800</dutyTime1c>
				<dutyTime1s>900</dutyTime1s>
				<wgs84Lat>37.5075708508</wgs84Lat>
				<wgs84Lon>127.0923854442</wgs84Lon>
			</item>
			<item>
				<dutyName>로담한의원</dutyName>
				<dutyTel1>02-6929-3655</dutyTel1>
				<dutyTime1c>1900</dutyTime1c>
				<dutyTime1s>1000</dutyTime1s>
				<wgs84Lat>37.5150936842</wgs84Lat>
				<wgs84Lon>127.0997108238</wgs84Lon>
			</item>
			<item>
				<dutyName>로데오의원</dutyName>
				<dutyTel1>02-408-8738</dutyTel1>
				<dutyTime1c>1830</dutyTime1c>
				<dutyTime1s>1000</dutyTime1s>
				<wgs84Lat>37.4888931824</wgs84Lat>
				<wgs84Lon>127.121973948</wgs84Lon>
			</item>
			<item>
				<dutyName>로데오치과의원</dutyName>
				<dutyTel1>02-409-7528</dutyTel1>
				<dutyTime1c>1900</dutyTime1c>
				<dutyTime1s>1000</dutyTime1s>
				<wgs84Lat>37.4907108096</wgs84Lat>
				<wgs84Lon>127.1242836447</wgs84Lon>
			</item>
			<item>
				<dutyName>로스윌준치과의원</dutyName>
				<dutyTel1>02-422-7760</dutyTel1>
				<dutyTime1c>1900</dutyTime1c>
				<dutyTime1s>1000</dutyTime1s>
				<wgs84Lat>37.5113777840087</wgs84Lat>
				<wgs84Lon>127.08455940969</wgs84Lon>
			</item>
			<item>
				<dutyName>로앤산부인과의원</dutyName>
				<dutyTel1>02-414-9922</dutyTel1>
				<dutyTime1c>2100</dutyTime1c>
				<dutyTime1s>1000</dutyTime1s>
				<wgs84Lat>37.511394785329</wgs84Lat>
				<wgs84Lon>127.082554391906</wgs84Lon>
			</item>
			<item>
				<dutyName>롯데골드캐슬치과의원</dutyName>
				<dutyTel1>02-415-2872</dutyTel1>
				<dutyTime1c>1900</dutyTime1c>
				<dutyTime1s>930</dutyTime1s>
				<wgs84Lat>37.514407185355</wgs84Lat>
				<wgs84Lon>127.100597298055</wgs84Lon>
			</item>
			<item>
				<dutyName>리뉴미피부과의원</dutyName>
				<dutyTel1>02-413-2303</dutyTel1>
				<dutyTime1c>2000</dutyTime1c>
				<dutyTime1s>1000</dutyTime1s>
				<wgs84Lat>37.5113907369349</wgs84Lat>
				<wgs84Lon>127.083187785382</wgs84Lon>
			</item>
			<item>
				<dutyName>리드치과의원</dutyName>
				<dutyTel1>02-416-5047</dutyTel1>
				<dutyTime1c>1830</dutyTime1c>
				<dutyTime1s>930</dutyTime1s>
				<wgs84Lat>37.5022270949088</wgs84Lat>
				<wgs84Lon>127.095649507453</wgs84Lon>
			</item>
			<item>
				<dutyName>리센츠정형외과의원</dutyName>
				<dutyTel1>02-3216-7200</dutyTel1>
				<dutyTime1c>1930</dutyTime1c>
				<dutyTime1s>900</dutyTime1s>
				<wgs84Lat>37.5119778772174</wgs84Lat>
				<wgs84Lon>127.087043898767</wgs84Lon>
			</item>
			<item>
				<dutyName>리영의원</dutyName>
				<dutyTel1>02-421-5550</dutyTel1>
				<dutyTime1c>2000</dutyTime1c>
				<dutyTime1s>930</dutyTime1s>
				<wgs84Lat>37.5168403317327</wgs84Lat>
				<wgs84Lon>127.113151207235</wgs84Lon>
			</item>
			<item>
				<dutyName>마음담은한의원</dutyName>
				<dutyTel1>02-420-7512</dutyTel1>
				<dutyTime1c>1900</dutyTime1c>
				<dutyTime1s>930</dutyTime1s>
				<wgs84Lat>37.507262646</wgs84Lat>
				<wgs84Lon>127.0901321017</wgs84Lon>
			</item>
			<item>
				<dutyName>마음정신건강의학과의원</dutyName>
				<dutyTel1>02-425-6616</dutyTel1>
				<dutyTime1c>2100</dutyTime1c>
				<dutyTime1s>1000</dutyTime1s>
				<wgs84Lat>37.5034695162</wgs84Lat>
				<wgs84Lon>127.1092315168</wgs84Lon>
			</item>
			<item>
				<dutyName>마음편한행복치과의원</dutyName>
				<dutyTel1>02-400-2872</dutyTel1>
				<dutyTime1c>1830</dutyTime1c>
				<dutyTime1s>930</dutyTime1s>
				<wgs84Lat>37.4975893692057</wgs84Lat>
				<wgs84Lon>127.135151951249</wgs84Lon>
			</item>
			<item>
				<dutyName>마천세브란스치과의원</dutyName>
				<dutyTel1>02-403-3875</dutyTel1>
				<dutyTime1c>1900</dutyTime1c>
				<dutyTime1s>1000</dutyTime1s>
				<wgs84Lat>37.4943583333333</wgs84Lat>
				<wgs84Lon>127.152011111111</wgs84Lon>
			</item>
			<item>
				<dutyName>마천제일의원</dutyName>
				<dutyTel1>02-402-1333</dutyTel1>
				<dutyTime1c>1830</dutyTime1c>
				<dutyTime1s>900</dutyTime1s>
				<wgs84Lat>37.4974045305482</wgs84Lat>
				<wgs84Lon>127.153991041387</wgs84Lon>
			</item>
			<item>
				<dutyName>마천한의원</dutyName>
				<dutyTel1>02-406-7585</dutyTel1>
				<dutyTime1c>1830</dutyTime1c>
				<dutyTime1s>900</dutyTime1s>
				<wgs84Lat>37.4969963713</wgs84Lat>
				<wgs84Lon>127.1490822943</wgs84Lon>
			</item>
			<item>
				<dutyName>만당한의원</dutyName>
				<dutyTel1>02-499-9977</dutyTel1>
				<dutyTime1c>1800</dutyTime1c>
				<dutyTime1s>1000</dutyTime1s>
				<wgs84Lat>37.5148160999454</wgs84Lat>
				<wgs84Lon>127.11560946631</wgs84Lon>
			</item>
			<item>
				<dutyName>맑은내과의원</dutyName>
				<dutyTel1>02-417-4017</dutyTel1>
				<dutyTime1c>1830</dutyTime1c>
				<dutyTime1s>900</dutyTime1s>
				<wgs84Lat>37.5120336519258</wgs84Lat>
				<wgs84Lon>127.084641573207</wgs84Lon>
			</item>
			<item>
				<dutyName>맑은숲한의원</dutyName>
				<dutyTel1>02-415-4321</dutyTel1>
				<dutyTime1c>2100</dutyTime1c>
				<dutyTime1s>900</dutyTime1s>
				<wgs84Lat>37.5120856031269</wgs84Lat>
				<wgs84Lon>127.084188429731</wgs84Lon>
			</item>
			<item>
				<dutyName>맑은연세의원</dutyName>
				<dutyTel1>02-413-8251</dutyTel1>
				<dutyTime1c>1900</dutyTime1c>
				<dutyTime1s>930</dutyTime1s>
				<wgs84Lat>37.5050665135401</wgs84Lat>
				<wgs84Lon>127.107890974943</wgs84Lon>
			</item>
			<item>
				<dutyName>맑은인한의원</dutyName>
				<dutyTel1>02-407-7510</dutyTel1>
				<dutyTime1c>1900</dutyTime1c>
				<dutyTime1s>930</dutyTime1s>
				<wgs84Lat>37.4772424795108</wgs84Lat>
				<wgs84Lon>127.127405408009</wgs84Lon>
			</item>
			<item>
				<dutyName>맑음치과의원</dutyName>
				<dutyTel1>02-483-2080</dutyTel1>
				<dutyTime1c>1830</dutyTime1c>
				<dutyTime1s>1000</dutyTime1s>
				<wgs84Lat>37.5280328337277</wgs84Lat>
				<wgs84Lon>127.118408379466</wgs84Lon>
			</item>
			<item>
				<dutyName>맘앤맘소아청소년과의원</dutyName>
				<dutyTel1>02-418-8285</dutyTel1>
				<dutyTime1c>1900</dutyTime1c>
				<dutyTime1s>830</dutyTime1s>
				<wgs84Lat>37.5121312484986</wgs84Lat>
				<wgs84Lon>127.084229972013</wgs84Lon>
			</item>
			<item>
				<dutyName>맘편한한의원</dutyName>
				<dutyTel1>02-425-3124</dutyTel1>
				<dutyTime1c>2000</dutyTime1c>
				<dutyTime1s>930</dutyTime1s>
				<wgs84Lat>37.5058389354</wgs84Lat>
				<wgs84Lon>127.1075113498</wgs84Lon>
			</item>
			<item>
				<dutyName>맞춤한의원</dutyName>
				<dutyTel1>02-425-6789</dutyTel1>
				<dutyTime1c>1900</dutyTime1c>
				<dutyTime1s>930</dutyTime1s>
				<wgs84Lat>37.5093271892</wgs84Lat>
				<wgs84Lon>127.08604928</wgs84Lon>
			</item>
			<item>
				<dutyName>메디스콥영상의학과의원</dutyName>
				<dutyTel1>02-406-5588</dutyTel1>
				<dutyTime1c>1800</dutyTime1c>
				<dutyTime1s>900</dutyTime1s>
				<wgs84Lat>37.4948850028731</wgs84Lat>
				<wgs84Lon>127.120092963533</wgs84Lon>
			</item>
			<item>
				<dutyName>메디큐내과의원</dutyName>
				<dutyTel1>02-6032-7001</dutyTel1>
				<dutyTime1c>1830</dutyTime1c>
				<dutyTime1s>900</dutyTime1s>
				<wgs84Lat>37.5056202763779</wgs84Lat>
				<wgs84Lon>127.088727711167</wgs84Lon>
			</item>
			<item>
				<dutyName>메이연세치과의원</dutyName>
				<dutyTel1>02-401-0275</dutyTel1>
				<dutyTime1c>1830</dutyTime1c>
				<dutyTime1s>1000</dutyTime1s>
				<wgs84Lat>37.4908277127397</wgs84Lat>
				<wgs84Lon>127.129137893943</wgs84Lon>
			</item>
			<item>
				<dutyName>명성의원</dutyName>
				<dutyTel1>02-412-3567</dutyTel1>
				<dutyTime1c>1800</dutyTime1c>
				<dutyTime1s>900</dutyTime1s>
				<wgs84Lat>37.5092177172791</wgs84Lat>
				<wgs84Lon>127.124042873947</wgs84Lon>
			</item>
			<item>
				<dutyName>명인한의원</dutyName>
				<dutyTel1>02-474-1089</dutyTel1>
				<dutyTime1c>1900</dutyTime1c>
				<dutyTime1s>900</dutyTime1s>
				<wgs84Lat>37.5371037955941</wgs84Lat>
				<wgs84Lon>127.122247061708</wgs84Lon>
			</item>
			<item>
				<dutyName>명쾌한한의원</dutyName>
				<dutyTel1>02-402-4523</dutyTel1>
				<dutyTime1c>1830</dutyTime1c>
				<dutyTime1s>1000</dutyTime1s>
				<wgs84Lat>37.5027771313</wgs84Lat>
				<wgs84Lon>127.0973375681</wgs84Lon>
			</item>
			<item>
				<dutyName>모나리자치과의원</dutyName>
				<dutyTel1>02-419-0275</dutyTel1>
				<dutyTime1c>1800</dutyTime1c>
				<dutyTime1s>900</dutyTime1s>
				<wgs84Lat>37.5159200491</wgs84Lat>
				<wgs84Lon>127.1067611624</wgs84Lon>
			</item>
			<item>
				<dutyName>모아치과의원</dutyName>
				<dutyTel1>02-406-0075</dutyTel1>
				<dutyTime1c>1900</dutyTime1c>
				<dutyTime1s>1000</dutyTime1s>
				<wgs84Lat>37.4880501784</wgs84Lat>
				<wgs84Lon>127.1317283891</wgs84Lon>
			</item>
			<item>
				<dutyName>몸사랑치과의원</dutyName>
				<dutyTel1>02-542-2875</dutyTel1>
				<dutyTime1c>1830</dutyTime1c>
				<dutyTime1s>930</dutyTime1s>
				<wgs84Lat>37.4859537333617</wgs84Lat>
				<wgs84Lon>127.120075159762</wgs84Lon>
			</item>
			<item>
				<dutyName>무지개한의원</dutyName>
				<dutyTel1>02-544-8455</dutyTel1>
				<dutyTime1c>1800</dutyTime1c>
				<dutyTime1s>930</dutyTime1s>
				<wgs84Lat>37.5105836837</wgs84Lat>
				<wgs84Lon>127.1169330592</wgs84Lon>
			</item>
			<item>
				<dutyName>문소아과의원</dutyName>
				<dutyTel1>02-431-1396</dutyTel1>
				<dutyTime1c>1830</dutyTime1c>
				<dutyTime1s>900</dutyTime1s>
				<wgs84Lat>37.4946975217815</wgs84Lat>
				<wgs84Lon>127.129954135553</wgs84Lon>
			</item>
			<item>
				<dutyName>문앤박산부인과의원</dutyName>
				<dutyTel1>02-415-0633</dutyTel1>
				<dutyTime1c>1830</dutyTime1c>
				<dutyTime1s>900</dutyTime1s>
				<wgs84Lat>37.5110852120379</wgs84Lat>
				<wgs84Lon>127.085477501468</wgs84Lon>
			</item>
			<item>
				<dutyName>문정경희한의원</dutyName>
				<dutyTel1>02-403-7575</dutyTel1>
				<dutyTime1c>1900</dutyTime1c>
				<dutyTime1s>930</dutyTime1s>
				<wgs84Lat>37.4834318441166</wgs84Lat>
				<wgs84Lon>127.126564556595</wgs84Lon>
			</item>
			<item>
				<dutyName>문정모세안과의원</dutyName>
				<dutyTel1>02-6958-8338</dutyTel1>
				<dutyTime1c>1830</dutyTime1c>
				<dutyTime1s>930</dutyTime1s>
				<wgs84Lat>37.4860541974</wgs84Lat>
				<wgs84Lon>127.1210105111</wgs84Lon>
			</item>
			<item>
				<dutyName>문정이누리정형외과의원</dutyName>
				<dutyTel1>02-2054-8788</dutyTel1>
				<dutyTime1c>2000</dutyTime1c>
				<dutyTime1s>900</dutyTime1s>
				<wgs84Lat>37.4846738279145</wgs84Lat>
				<wgs84Lon>127.120557057909</wgs84Lon>
			</item>
			<item>
				<dutyName>문정정형외과의원</dutyName>
				<dutyTel1>02-407-7677</dutyTel1>
				<dutyTime1c>1900</dutyTime1c>
				<dutyTime1s>900</dutyTime1s>
				<wgs84Lat>37.4911231955957</wgs84Lat>
				<wgs84Lon>127.126242807139</wgs84Lon>
			</item>
			<item>
				<dutyName>문정치과의원</dutyName>
				<dutyTel1>02-400-4701</dutyTel1>
				<dutyTime1c>1830</dutyTime1c>
				<dutyTime1s>1000</dutyTime1s>
				<wgs84Lat>37.4908348962944</wgs84Lat>
				<wgs84Lon>127.12916052113</wgs84Lon>
			</item>
			<item>
				<dutyName>문희권치과의원</dutyName>
				<dutyTel1>02-448-1623</dutyTel1>
				<dutyTime1c>1730</dutyTime1c>
				<dutyTime1s>1000</dutyTime1s>
				<wgs84Lat>37.4898211575</wgs84Lat>
				<wgs84Lon>127.1237665523</wgs84Lon>
			</item>
			<item>
				<dutyName>미다모의원</dutyName>
				<dutyTel1>02-424-5219</dutyTel1>
				<dutyTime1c>1900</dutyTime1c>
				<dutyTime1s>930</dutyTime1s>
				<wgs84Lat>37.5015214177</wgs84Lat>
				<wgs84Lon>127.1112959981</wgs84Lon>
			</item>
			<item>
				<dutyName>미라클의원</dutyName>
				<dutyTel1>02-416-7582</dutyTel1>
				<dutyTime1c>1900</dutyTime1c>
				<dutyTime1s>930</dutyTime1s>
				<wgs84Lat>37.5014225186695</wgs84Lat>
				<wgs84Lon>127.110101623328</wgs84Lon>
			</item>
			<item>
				<dutyName>미래신경과의원</dutyName>
				<dutyTel1>02-2043-8275</dutyTel1>
				<dutyTime1c>1900</dutyTime1c>
				<dutyTime1s>900</dutyTime1s>
				<wgs84Lat>37.4917625760754</wgs84Lat>
				<wgs84Lon>127.117844513761</wgs84Lon>
			</item>
			<item>
				<dutyName>미래안과의원</dutyName>
				<dutyTel1>02-430-7555</dutyTel1>
				<dutyTime1c>1830</dutyTime1c>
				<dutyTime1s>930</dutyTime1s>
				<wgs84Lat>37.4972202192922</wgs84Lat>
				<wgs84Lon>127.148766100335</wgs84Lon>
			</item>
			<item>
				<dutyName>미래연여성의원</dutyName>
				<dutyTel1>02-6012-2220</dutyTel1>
				<dutyTime1c>1930</dutyTime1c>
				<dutyTime1s>800</dutyTime1s>
				<wgs84Lat>37.5153242347307</wgs84Lat>
				<wgs84Lon>127.102915039784</wgs84Lon>
			</item>
			<item>
				<dutyName>미러의원</dutyName>
				<dutyTel1>02-400-8077</dutyTel1>
				<dutyTime1c>2100</dutyTime1c>
				<dutyTime1s>1100</dutyTime1s>
				<wgs84Lat>37.4817665199729</wgs84Lat>
				<wgs84Lon>127.122994566951</wgs84Lon>
			</item>
			<item>
				<dutyName>미병한의원</dutyName>
				<dutyTel1>02-6291-7899</dutyTel1>
				<dutyTime1c>2200</dutyTime1c>
				<dutyTime1s>1000</dutyTime1s>
				<wgs84Lat>37.4815794509817</wgs84Lat>
				<wgs84Lon>127.122664126336</wgs84Lon>
			</item>
			<item>
				<dutyName>미서울치과의원</dutyName>
				<dutyTel1>02-408-7522</dutyTel1>
				<dutyTime1c>1830</dutyTime1c>
				<dutyTime1s>1000</dutyTime1s>
				<wgs84Lat>37.5085518044</wgs84Lat>
				<wgs84Lon>127.1266567007</wgs84Lon>
			</item>
			<item>
				<dutyName>미소담은안과의원</dutyName>
				<dutyTel1>02-415-7773</dutyTel1>
				<dutyTime1c>1830</dutyTime1c>
				<dutyTime1s>900</dutyTime1s>
				<wgs84Lat>37.5035651247425</wgs84Lat>
				<wgs84Lon>127.089865276246</wgs84Lon>
			</item>
			<item>
				<dutyName>미소와산부인과의원</dutyName>
				<dutyTel1>02-2135-7585</dutyTel1>
				<dutyTime1c>1900</dutyTime1c>
				<dutyTime1s>1000</dutyTime1s>
				<wgs84Lat>37.4860541974</wgs84Lat>
				<wgs84Lon>127.1210105111</wgs84Lon>
			</item>
			<item>
				<dutyName>미소지앤의원</dutyName>
				<dutyTel1>02-401-6112</dutyTel1>
				<dutyTime1c>1900</dutyTime1c>
				<dutyTime1s>1000</dutyTime1s>
				<wgs84Lat>37.4931944444444</wgs84Lat>
				<wgs84Lon>127.14485</wgs84Lon>
			</item>
			<item>
				<dutyName>미소진한의원</dutyName>
				<dutyTel1>02-425-1090</dutyTel1>
				<dutyTime1c>2100</dutyTime1c>
				<dutyTime1s>1000</dutyTime1s>
				<wgs84Lat>37.5113544829284</wgs84Lat>
				<wgs84Lon>127.083490871154</wgs84Lon>
			</item>
			<item>
				<dutyName>미쉘여성의원</dutyName>
				<dutyTel1>02-412-2277</dutyTel1>
				<dutyTime1c>1900</dutyTime1c>
				<dutyTime1s>930</dutyTime1s>
				<wgs84Lat>37.5109333323047</wgs84Lat>
				<wgs84Lon>127.116106209651</wgs84Lon>
			</item>
			<item>
				<dutyName>미앤미치과의원</dutyName>
				<dutyTel1>02-422-2212</dutyTel1>
				<dutyTime1c>1800</dutyTime1c>
				<dutyTime1s>1000</dutyTime1s>
				<wgs84Lat>37.5075734395028</wgs84Lat>
				<wgs84Lon>127.092359102783</wgs84Lon>
			</item>
			<item>
				<dutyName>미의원</dutyName>
				<dutyTel1>1661-5541</dutyTel1>
				<dutyTime1c>2000</dutyTime1c>
				<dutyTime1s>1100</dutyTime1s>
				<wgs84Lat>37.5108845274847</wgs84Lat>
				<wgs84Lon>127.085494586169</wgs84Lon>
			</item>
			<item>
				<dutyName>민마취통증의학과의원</dutyName>
				<dutyTel1>02-404-8282</dutyTel1>
				<dutyTime1c>1900</dutyTime1c>
				<dutyTime1s>900</dutyTime1s>
				<wgs84Lat>37.4868620536</wgs84Lat>
				<wgs84Lon>127.1204690793</wgs84Lon>
			</item>
			<item>
				<dutyName>민지영산부인과의원</dutyName>
				<dutyTel1>02-423-6544</dutyTel1>
				<dutyTime1c>1800</dutyTime1c>
				<dutyTime1s>900</dutyTime1s>
				<wgs84Lat>37.5030330698437</wgs84Lat>
				<wgs84Lon>127.109619924857</wgs84Lon>
			</item>
			<item>
				<dutyName>민트병원</dutyName>
				<dutyTel1>02-2088-3000</dutyTel1>
				<dutyTime1c>1800</dutyTime1c>
				<dutyTime1s>900</dutyTime1s>
				<wgs84Lat>37.4862142723</wgs84Lat>
				<wgs84Lon>127.1159226744</wgs84Lon>
			</item>
			<item>
				<dutyName>바로바디의원</dutyName>
				<dutyTel1>02-431-5714</dutyTel1>
				<dutyTime1c>1830</dutyTime1c>
				<dutyTime1s>900</dutyTime1s>
				<wgs84Lat>37.4796984809112</wgs84Lat>
				<wgs84Lon>127.126182883437</wgs84Lon>
			</item>
			<item>
				<dutyName>바른구강내과치과의원</dutyName>
				<dutyTel1>02-417-2878</dutyTel1>
				<dutyTime1c>1830</dutyTime1c>
				<dutyTime1s>1000</dutyTime1s>
				<wgs84Lat>37.5006949603092</wgs84Lat>
				<wgs84Lon>127.111725300069</wgs84Lon>
			</item>
			<item>
				<dutyName>바른사람치과의원</dutyName>
				<dutyTel1>02-6929-2879</dutyTel1>
				<dutyTime1c>2100</dutyTime1c>
				<dutyTime1s>1030</dutyTime1s>
				<wgs84Lat>37.5162513486</wgs84Lat>
				<wgs84Lon>127.1030062465</wgs84Lon>
			</item>
			<item>
				<dutyName>바른선한의원</dutyName>
				<dutyTel1>02-420-0066</dutyTel1>
				<dutyTime1c>2000</dutyTime1c>
				<dutyTime1s>930</dutyTime1s>
				<wgs84Lat>37.5032278550332</wgs84Lat>
				<wgs84Lon>127.108580498885</wgs84Lon>
			</item>
			<item>
				<dutyName>바른의원</dutyName>
				<dutyTel1>02-415-1102</dutyTel1>
				<dutyTime1c>1900</dutyTime1c>
				<dutyTime1s>930</dutyTime1s>
				<wgs84Lat>37.5015431731929</wgs84Lat>
				<wgs84Lon>127.109217421878</wgs84Lon>
			</item>
			<item>
				<dutyName>바른한의원</dutyName>
				<dutyTel1>02-6235-8275</dutyTel1>
				<dutyTime1c>1900</dutyTime1c>
				<dutyTime1s>1000</dutyTime1s>
				<wgs84Lat>37.5058077144667</wgs84Lat>
				<wgs84Lon>127.106167696822</wgs84Lon>
			</item>
			<item>
				<dutyName>바인치과의원</dutyName>
				<dutyTel1>02-401-7590</dutyTel1>
				<dutyTime1c>1830</dutyTime1c>
				<dutyTime1s>930</dutyTime1s>
				<wgs84Lat>37.5153444444444</wgs84Lat>
				<wgs84Lon>127.133116666667</wgs84Lon>
			</item>
			<item>
				<dutyName>박경식남성비뇨기과의원</dutyName>
				<dutyTel1>02-412-5996</dutyTel1>
				<dutyTime1c>1700</dutyTime1c>
				<dutyTime1s>900</dutyTime1s>
				<wgs84Lat>37.5015712992289</wgs84Lat>
				<wgs84Lon>127.11094211488</wgs84Lon>
			</item>
			<item>
				<dutyName>박경호한의원</dutyName>
				<dutyTel1>02-557-9110</dutyTel1>
				<dutyTime1c>1900</dutyTime1c>
				<dutyTime1s>1000</dutyTime1s>
				<wgs84Lat>37.5113907369349</wgs84Lat>
				<wgs84Lon>127.083187785382</wgs84Lon>
			</item>
			<item>
				<dutyName>박산부인과의원</dutyName>
				<dutyTel1>02-408-0022</dutyTel1>
				<dutyTime1c>1800</dutyTime1c>
				<dutyTime1s>1000</dutyTime1s>
				<wgs84Lat>37.4981267399194</wgs84Lat>
				<wgs84Lon>127.145782430336</wgs84Lon>
			</item>
			<item>
				<dutyName>박신성내과의원</dutyName>
				<dutyTel1>02-412-7582</dutyTel1>
				<dutyTime1c>1900</dutyTime1c>
				<dutyTime1s>900</dutyTime1s>
				<wgs84Lat>37.5050527777778</wgs84Lat>
				<wgs84Lon>127.084602777778</wgs84Lon>
			</item>
			<item>
				<dutyName>박재민한의원</dutyName>
				<dutyTel1>02-404-0058</dutyTel1>
				<dutyTime1c>1830</dutyTime1c>
				<dutyTime1s>930</dutyTime1s>
				<wgs84Lat>37.4943071478796</wgs84Lat>
				<wgs84Lon>127.117708311855</wgs84Lon>
			</item>
			<item>
				<dutyName>박정한한의원</dutyName>
				<dutyTel1>02-430-1077</dutyTel1>
				<dutyTime1c>1830</dutyTime1c>
				<dutyTime1s>930</dutyTime1s>
				<wgs84Lat>37.4776137975404</wgs84Lat>
				<wgs84Lon>127.127306542526</wgs84Lon>
			</item>
			<item>
				<dutyName>박치과의원</dutyName>
				<dutyTel1>02-408-4753</dutyTel1>
				<dutyTime1c>1800</dutyTime1c>
				<dutyTime1s>930</dutyTime1s>
				<wgs84Lat>37.4950016406626</wgs84Lat>
				<wgs84Lon>127.116985676881</wgs84Lon>
			</item>
			<item>
				<dutyName>박태홍의원</dutyName>
				<dutyTel1>02-423-0119</dutyTel1>
				<dutyTime1c>1730</dutyTime1c>
				<dutyTime1s>900</dutyTime1s>
				<wgs84Lat>37.5133345683698</wgs84Lat>
				<wgs84Lon>127.123018147442</wgs84Lon>
			</item>
			<item>
				<dutyName>박호영치과의원</dutyName>
				<dutyTel1>02-420-9707</dutyTel1>
				<dutyTime1c>1830</dutyTime1c>
				<dutyTime1s>930</dutyTime1s>
				<wgs84Lat>37.5114466369278</wgs84Lat>
				<wgs84Lon>127.084395849212</wgs84Lon>
			</item>
			<item>
				<dutyName>반상훈한의원</dutyName>
				<dutyTel1>02-449-2800</dutyTel1>
				<dutyTime1c>1900</dutyTime1c>
				<dutyTime1s>900</dutyTime1s>
				<wgs84Lat>37.5076747040216</wgs84Lat>
				<wgs84Lon>127.127885759025</wgs84Lon>
			</item>
			<item>
				<dutyName>발머스한의원</dutyName>
				<dutyTel1>02-2202-7010</dutyTel1>
				<dutyTime1c>2100</dutyTime1c>
				<dutyTime1s>1000</dutyTime1s>
				<wgs84Lat>37.5069868514292</wgs84Lat>
				<wgs84Lon>127.101355825921</wgs84Lon>
			</item>
			<item>
				<dutyName>밝은내일한의원</dutyName>
				<dutyTel1>02-406-8019</dutyTel1>
				<dutyTime1c>1900</dutyTime1c>
				<dutyTime1s>900</dutyTime1s>
				<wgs84Lat>37.4978434692652</wgs84Lat>
				<wgs84Lon>127.120522905607</wgs84Lon>
			</item>
			<item>
				<dutyName>밝은빛한의원</dutyName>
				<dutyTel1>02-418-6888</dutyTel1>
				<dutyTime1c>1900</dutyTime1c>
				<dutyTime1s>920</dutyTime1s>
				<wgs84Lat>37.5033623384393</wgs84Lat>
				<wgs84Lon>127.115808944717</wgs84Lon>
			</item>
			<item>
				<dutyName>밝은서울치과의원</dutyName>
				<dutyTel1>02-414-7522</dutyTel1>
				<dutyTime1c>1900</dutyTime1c>
				<dutyTime1s>1000</dutyTime1s>
				<wgs84Lat>37.5048540152296</wgs84Lat>
				<wgs84Lon>127.08533480805</wgs84Lon>
			</item>
			<item>
				<dutyName>방문길소아과의원</dutyName>
				<dutyTel1>02-3401-7532</dutyTel1>
				<dutyTime1c>1830</dutyTime1c>
				<dutyTime1s>900</dutyTime1s>
				<wgs84Lat>37.4951438120149</wgs84Lat>
				<wgs84Lon>127.130905190231</wgs84Lon>
			</item>
			<item>
				<dutyName>방실방실소아과의원</dutyName>
				<dutyTel1>02-417-4900</dutyTel1>
				<dutyTime1c>1830</dutyTime1c>
				<dutyTime1s>900</dutyTime1s>
				<wgs84Lat>37.5134269648562</wgs84Lat>
				<wgs84Lon>127.118120644214</wgs84Lon>
			</item>
			<item>
				<dutyName>방이경희한의원</dutyName>
				<dutyTel1>02-413-1119</dutyTel1>
				<dutyTime1c>1900</dutyTime1c>
				<dutyTime1s>900</dutyTime1s>
				<wgs84Lat>37.5109528718</wgs84Lat>
				<wgs84Lon>127.1153275287</wgs84Lon>
			</item>
			<item>
				<dutyName>방이내과의원</dutyName>
				<dutyTel1>02-423-3541</dutyTel1>
				<dutyTime1c>1800</dutyTime1c>
				<dutyTime1s>900</dutyTime1s>
				<wgs84Lat>37.5126281709324</wgs84Lat>
				<wgs84Lon>127.119524173705</wgs84Lon>
			</item>
			<item>
				<dutyName>방이덴토피아치과의원</dutyName>
				<dutyTel1>02-409-2979</dutyTel1>
				<dutyTime1c>1800</dutyTime1c>
				<dutyTime1s>1000</dutyTime1s>
				<wgs84Lat>37.5087240978095</wgs84Lat>
				<wgs84Lon>127.126747975149</wgs84Lon>
			</item>
			<item>
				<dutyName>방이서울치과의원</dutyName>
				<dutyTel1>02-412-2288</dutyTel1>
				<dutyTime1c>1900</dutyTime1c>
				<dutyTime1s>1000</dutyTime1s>
				<wgs84Lat>37.5119492752</wgs84Lat>
				<wgs84Lon>127.1135781563</wgs84Lon>
			</item>
			<item>
				<dutyName>방이아산가정의학과의원</dutyName>
				<dutyTel1>02-424-1005</dutyTel1>
				<dutyTime1c>1830</dutyTime1c>
				<dutyTime1s>900</dutyTime1s>
				<wgs84Lat>37.5109341116</wgs84Lat>
				<wgs84Lon>127.1160830483</wgs84Lon>
			</item>
			<item>
				<dutyName>방이연세그린치과의원</dutyName>
				<dutyTel1>02-414-2870</dutyTel1>
				<dutyTime1c>1800</dutyTime1c>
				<dutyTime1s>1000</dutyTime1s>
				<wgs84Lat>37.5091401147214</wgs84Lat>
				<wgs84Lon>127.125269290269</wgs84Lon>
			</item>
			<item>
				<dutyName>방이정형외과의원</dutyName>
				<dutyTel1>02-425-0005</dutyTel1>
				<dutyTime1c>1800</dutyTime1c>
				<dutyTime1s>900</dutyTime1s>
				<wgs84Lat>37.5119691442306</wgs84Lat>
				<wgs84Lon>127.11352278426</wgs84Lon>
			</item>
			<item>
				<dutyName>방이치과의원</dutyName>
				<dutyTel1>02-414-2811</dutyTel1>
				<dutyTime1c>1830</dutyTime1c>
				<dutyTime1s>940</dutyTime1s>
				<wgs84Lat>37.5101818589964</wgs84Lat>
				<wgs84Lon>127.117991635905</wgs84Lon>
			</item>
			<item>
				<dutyName>배근욱치과의원</dutyName>
				<dutyTel1>02-400-2878</dutyTel1>
				<dutyTime1c>1830</dutyTime1c>
				<dutyTime1s>1000</dutyTime1s>
				<wgs84Lat>37.5092127611448</wgs84Lat>
				<wgs84Lon>127.12700506559</wgs84Lon>
			</item>
			<item>
				<dutyName>배호진치과의원</dutyName>
				<dutyTel1>02-415-1818</dutyTel1>
				<dutyTime1c>1830</dutyTime1c>
				<dutyTime1s>930</dutyTime1s>
				<wgs84Lat>37.5056087428822</wgs84Lat>
				<wgs84Lon>127.121250775838</wgs84Lon>
			</item>
			<item>
				<dutyName>백삼한의원</dutyName>
				<dutyTel1>02-419-9533</dutyTel1>
				<dutyTime1c>1900</dutyTime1c>
				<dutyTime1s>930</dutyTime1s>
				<wgs84Lat>37.5026268788</wgs84Lat>
				<wgs84Lon>127.1123245282</wgs84Lon>
			</item>
			<item>
				<dutyName>백상기의원</dutyName>
				<dutyTel1>02-484-4377</dutyTel1>
				<dutyTime1c>1800</dutyTime1c>
				<dutyTime1s>900</dutyTime1s>
				<wgs84Lat>37.5289096670161</wgs84Lat>
				<wgs84Lon>127.117346313501</wgs84Lon>
			</item>
			<item>
				<dutyName>백성현치과의원</dutyName>
				<dutyTel1>02-403-1046</dutyTel1>
				<dutyTime1c>1830</dutyTime1c>
				<dutyTime1s>1000</dutyTime1s>
				<wgs84Lat>37.4962784638174</wgs84Lat>
				<wgs84Lon>127.137479125757</wgs84Lon>
			</item>
			<item>
				<dutyName>백운규안과의원</dutyName>
				<dutyTel1>02-415-5100</dutyTel1>
				<dutyTime1c>1730</dutyTime1c>
				<dutyTime1s>930</dutyTime1s>
				<wgs84Lat>37.5177112651007</wgs84Lat>
				<wgs84Lon>127.101515638495</wgs84Lon>
			</item>
			<item>
				<dutyName>백제한의원</dutyName>
				<dutyTel1>02-425-5880</dutyTel1>
				<dutyTime1c>1830</dutyTime1c>
				<dutyTime1s>930</dutyTime1s>
				<wgs84Lat>37.5190597964826</wgs84Lat>
				<wgs84Lon>127.108992237318</wgs84Lon>
			</item>
			<item>
				<dutyName>백치과의원</dutyName>
				<dutyTel1>02-448-3315</dutyTel1>
				<dutyTime1c>1830</dutyTime1c>
				<dutyTime1s>1000</dutyTime1s>
				<wgs84Lat>37.4951051942748</wgs84Lat>
				<wgs84Lon>127.151042225038</wgs84Lon>
			</item>
			<item>
				<dutyName>백태우소아과의원</dutyName>
				<dutyTel1>02-422-0909</dutyTel1>
				<dutyTime1c>1830</dutyTime1c>
				<dutyTime1s>900</dutyTime1s>
				<wgs84Lat>37.5110935930202</wgs84Lat>
				<wgs84Lon>127.085449582098</wgs84Lon>
			</item>
			<item>
				<dutyName>베리굿의원</dutyName>
				<dutyTel1>02-418-1579</dutyTel1>
				<dutyTime1c>1900</dutyTime1c>
				<dutyTime1s>900</dutyTime1s>
				<wgs84Lat>37.5150936842</wgs84Lat>
				<wgs84Lon>127.0997108238</wgs84Lon>
			</item>
			<item>
				<dutyName>베베온소아청소년과의원</dutyName>
				<dutyTel1>02-6925-0790</dutyTel1>
				<dutyTime1c>2000</dutyTime1c>
				<dutyTime1s>900</dutyTime1s>
				<wgs84Lat>37.4817014431</wgs84Lat>
				<wgs84Lon>127.1427882691</wgs84Lon>
			</item>
			<item>
				<dutyName>베스탑비뇨기과의원</dutyName>
				<dutyTel1>02-416-4747</dutyTel1>
				<dutyTime1c>1900</dutyTime1c>
				<dutyTime1s>1000</dutyTime1s>
				<wgs84Lat>37.5143927504528</wgs84Lat>
				<wgs84Lon>127.10061990105</wgs84Lon>
			</item>
			<item>
				<dutyName>베스트경희한의원</dutyName>
				<dutyTel1>02-3012-7582</dutyTel1>
				<dutyTime1c>1830</dutyTime1c>
				<dutyTime1s>900</dutyTime1s>
				<wgs84Lat>37.4943236509213</wgs84Lat>
				<wgs84Lon>127.122747206457</wgs84Lon>
			</item>
			<item>
				<dutyName>베스트의원</dutyName>
				<dutyTel1>02-449-3599</dutyTel1>
				<dutyTime1c>1900</dutyTime1c>
				<dutyTime1s>900</dutyTime1s>
				<wgs84Lat>37.497145483852</wgs84Lat>
				<wgs84Lon>127.148010542828</wgs84Lon>
			</item>
			<item>
				<dutyName>베스필치과의원</dutyName>
				<dutyTel1>02-416-6222</dutyTel1>
				<dutyTime1c>1830</dutyTime1c>
				<dutyTime1s>930</dutyTime1s>
				<wgs84Lat>37.5061888888889</wgs84Lat>
				<wgs84Lon>127.107880555556</wgs84Lon>
			</item>
			<item>
				<dutyName>변혁한의원</dutyName>
				<dutyTel1>02-417-1284</dutyTel1>
				<dutyTime1c>1930</dutyTime1c>
				<dutyTime1s>930</dutyTime1s>
				<wgs84Lat>37.5171546984808</wgs84Lat>
				<wgs84Lon>127.103333777845</wgs84Lon>
			</item>
			<item>
				<dutyName>보명한의원</dutyName>
				<dutyTel1>02-424-0015</dutyTel1>
				<dutyTime1c>1900</dutyTime1c>
				<dutyTime1s>1000</dutyTime1s>
				<wgs84Lat>37.5039463676</wgs84Lat>
				<wgs84Lon>127.1192524742</wgs84Lon>
			</item>
			<item>
				<dutyName>보성치과의원</dutyName>
				<dutyTel1>02-400-9420</dutyTel1>
				<dutyTime1c>1800</dutyTime1c>
				<dutyTime1s>1000</dutyTime1s>
				<wgs84Lat>37.4929559081684</wgs84Lat>
				<wgs84Lon>127.134017438959</wgs84Lon>
			</item>
			<item>
				<dutyName>보성한의원</dutyName>
				<dutyTel1>02-415-7578</dutyTel1>
				<dutyTime1c>1900</dutyTime1c>
				<dutyTime1s>930</dutyTime1s>
				<wgs84Lat>37.5178814038</wgs84Lat>
				<wgs84Lon>127.101804927</wgs84Lon>
			</item>
			<item>
				<dutyName>본가정의학과의원</dutyName>
				<dutyTel1>02-3431-7937</dutyTel1>
				<dutyTime1c>1900</dutyTime1c>
				<dutyTime1s>900</dutyTime1s>
				<wgs84Lat>37.5202633361522</wgs84Lat>
				<wgs84Lon>127.113084354993</wgs84Lon>
			</item>
			<item>
				<dutyName>본디올동의한의원</dutyName>
				<dutyTel1>02-404-5503</dutyTel1>
				<dutyTime1c>1900</dutyTime1c>
				<dutyTime1s>1000</dutyTime1s>
				<wgs84Lat>37.494859326995</wgs84Lat>
				<wgs84Lon>127.151801055173</wgs84Lon>
			</item>
			<item>
				<dutyName>봄정신건강의학과의원</dutyName>
				<dutyTel1>02-419-1800</dutyTel1>
				<dutyTime1c>1900</dutyTime1c>
				<dutyTime1s>1000</dutyTime1s>
				<wgs84Lat>37.5114170101962</wgs84Lat>
				<wgs84Lon>127.081690280322</wgs84Lon>
			</item>
			<item>
				<dutyName>봄치과의원</dutyName>
				<dutyTel1>02-487-9875</dutyTel1>
				<dutyTime1c>1830</dutyTime1c>
				<dutyTime1s>930</dutyTime1s>
				<wgs84Lat>37.5289630146312</wgs84Lat>
				<wgs84Lon>127.117170075326</wgs84Lon>
			</item>
			<item>
				<dutyName>부부치과의원</dutyName>
				<dutyTel1>02-400-3782</dutyTel1>
				<dutyTime1c>1800</dutyTime1c>
				<dutyTime1s>1000</dutyTime1s>
				<wgs84Lat>37.4969457732526</wgs84Lat>
				<wgs84Lon>127.14990094898</wgs84Lon>
			</item>
			<item>
				<dutyName>북경백침당한의원</dutyName>
				<dutyTel1>02-2147-1075</dutyTel1>
				<dutyTime1c>1900</dutyTime1c>
				<dutyTime1s>900</dutyTime1s>
				<wgs84Lat>37.5075708508</wgs84Lat>
				<wgs84Lon>127.0923854442</wgs84Lon>
			</item>
			<item>
				<dutyName>분도치과의원</dutyName>
				<dutyTel1>02-418-0502</dutyTel1>
				<dutyTime1c>1800</dutyTime1c>
				<dutyTime1s>1000</dutyTime1s>
				<wgs84Lat>37.5076059657796</wgs84Lat>
				<wgs84Lon>127.092408128272</wgs84Lon>
			</item>
			<item>
				<dutyName>브라이트치과의원</dutyName>
				<dutyTel1>02-414-2804</dutyTel1>
				<dutyTime1c>1830</dutyTime1c>
				<dutyTime1s>930</dutyTime1s>
				<wgs84Lat>37.5096827770527</wgs84Lat>
				<wgs84Lon>127.123907918532</wgs84Lon>
			</item>
			<item>
				<dutyName>브이의원</dutyName>
				<dutyTel1>02-422-8277</dutyTel1>
				<dutyTime1c>1830</dutyTime1c>
				<dutyTime1s>1000</dutyTime1s>
				<wgs84Lat>37.5107001999</wgs84Lat>
				<wgs84Lon>127.0862137284</wgs84Lon>
			</item>
			<item>
				<dutyName>블루비뇨기과의원</dutyName>
				<dutyTel1>02-424-7731</dutyTel1>
				<dutyTime1c>2100</dutyTime1c>
				<dutyTime1s>900</dutyTime1s>
				<wgs84Lat>37.5110664425633</wgs84Lat>
				<wgs84Lon>127.083092416193</wgs84Lon>
			</item>
			<item>
				<dutyName>비로한의원</dutyName>
				<dutyTel1>02-416-4367</dutyTel1>
				<dutyTime1c>1800</dutyTime1c>
				<dutyTime1s>1000</dutyTime1s>
				<wgs84Lat>37.5065588379318</wgs84Lat>
				<wgs84Lon>127.074253053089</wgs84Lon>
			</item>
			<item>
				<dutyName>비욘드문의원</dutyName>
				<dutyTel1>02-425-0028</dutyTel1>
				<dutyTime1c>1930</dutyTime1c>
				<dutyTime1s>1030</dutyTime1s>
				<wgs84Lat>37.515651052353</wgs84Lat>
				<wgs84Lon>127.108304150897</wgs84Lon>
			</item>
			<item>
				<dutyName>비전치과의원</dutyName>
				<dutyTel1>02-417-0028</dutyTel1>
				<dutyTime1c>1830</dutyTime1c>
				<dutyTime1s>930</dutyTime1s>
				<wgs84Lat>37.5107001999295</wgs84Lat>
				<wgs84Lon>127.08621372837</wgs84Lon>
			</item>
			<item>
				<dutyName>비타미아의원</dutyName>
				<dutyTel1>02-443-1123</dutyTel1>
				<dutyTime1c>1900</dutyTime1c>
				<dutyTime1s>1000</dutyTime1s>
				<wgs84Lat>37.495179201208</wgs84Lat>
				<wgs84Lon>127.12084060127</wgs84Lon>
			</item>
			<item>
				<dutyName>빛샘가정의학과의원</dutyName>
				<dutyTel1>02-430-7530</dutyTel1>
				<dutyTime1c>1830</dutyTime1c>
				<dutyTime1s>900</dutyTime1s>
				<wgs84Lat>37.4918517866165</wgs84Lat>
				<wgs84Lon>127.118157659714</wgs84Lon>
			</item>
			<item>
				<dutyName>빛치과의원</dutyName>
				<dutyTel1>02-419-0419</dutyTel1>
				<dutyTime1c>2030</dutyTime1c>
				<dutyTime1s>930</dutyTime1s>
				<wgs84Lat>37.5119790175</wgs84Lat>
				<wgs84Lon>127.0870431473</wgs84Lon>
			</item>
			<item>
				<dutyName>빠른병원</dutyName>
				<dutyTel1>02-423-8288</dutyTel1>
				<dutyTime1c>2400</dutyTime1c>
				<dutyTime1s>0</dutyTime1s>
				<wgs84Lat>37.5074659533022</wgs84Lat>
				<wgs84Lon>127.109685219024</wgs84Lon>
			</item>
			<item>
				<dutyName>뽀빠이정형외과의원</dutyName>
				<dutyTel1>02-415-0003</dutyTel1>
				<dutyTime1c>1900</dutyTime1c>
				<dutyTime1s>930</dutyTime1s>
				<wgs84Lat>37.502501207</wgs84Lat>
				<wgs84Lon>127.0997574076</wgs84Lon>
			</item>
			<item>
				<dutyName>사계경희한의원</dutyName>
				<dutyTel1>02-430-6124</dutyTel1>
				<dutyTime1c>2100</dutyTime1c>
				<dutyTime1s>900</dutyTime1s>
				<wgs84Lat>37.5117115669849</wgs84Lat>
				<wgs84Lon>127.113414921722</wgs84Lon>
			</item>
			<item>
				<dutyName>사과꽃치과의원</dutyName>
				<dutyTel1>02-420-2852</dutyTel1>
				<dutyTime1c>1830</dutyTime1c>
				<dutyTime1s>1000</dutyTime1s>
				<wgs84Lat>37.5050521179602</wgs84Lat>
				<wgs84Lon>127.107868335262</wgs84Lon>
			</item>
			<item>
				<dutyName>사과나무한의원</dutyName>
				<dutyTel1>02-406-8010</dutyTel1>
				<dutyTime1c>1900</dutyTime1c>
				<dutyTime1s>930</dutyTime1s>
				<wgs84Lat>37.491901654448</wgs84Lat>
				<wgs84Lon>127.126253163507</wgs84Lon>
			</item>
			<item>
				<dutyName>사람과치과의원</dutyName>
				<dutyTel1>02-449-2828</dutyTel1>
				<dutyTime1c>1900</dutyTime1c>
				<dutyTime1s>1000</dutyTime1s>
				<wgs84Lat>37.4774515838058</wgs84Lat>
				<wgs84Lon>127.127337925954</wgs84Lon>
			</item>
			<item>
				<dutyName>사람사랑치과의원</dutyName>
				<dutyTel1>02-420-7528</dutyTel1>
				<dutyTime1c>1900</dutyTime1c>
				<dutyTime1s>1000</dutyTime1s>
				<wgs84Lat>37.5114808121117</wgs84Lat>
				<wgs84Lon>127.081492089001</wgs84Lon>
			</item>
			<item>
				<dutyName>사랑나눔한의원</dutyName>
				<dutyTel1>02-456-9990</dutyTel1>
				<dutyTime1c>1800</dutyTime1c>
				<dutyTime1s>1000</dutyTime1s>
				<wgs84Lat>37.5213601057</wgs84Lat>
				<wgs84Lon>127.104972539</wgs84Lon>
			</item>
			<item>
				<dutyName>사랑아이여성의원</dutyName>
				<dutyTel1>02-419-7501</dutyTel1>
				<dutyTime1c>1730</dutyTime1c>
				<dutyTime1s>830</dutyTime1s>
				<wgs84Lat>37.5105322234317</wgs84Lat>
				<wgs84Lon>127.079042647805</wgs84Lon>
			</item>
			<item>
				<dutyName>사랑안과의원</dutyName>
				<dutyTel1>02-6959-2060</dutyTel1>
				<dutyTime1c>1830</dutyTime1c>
				<dutyTime1s>900</dutyTime1s>
				<wgs84Lat>37.4984189433962</wgs84Lat>
				<wgs84Lon>127.147017889436</wgs84Lon>
			</item>
			<item>
				<dutyName>사랑의치과의원</dutyName>
				<dutyTel1>02-404-6477</dutyTel1>
				<dutyTime1c>1830</dutyTime1c>
				<dutyTime1s>930</dutyTime1s>
				<wgs84Lat>37.4957334647</wgs84Lat>
				<wgs84Lon>127.1221298183</wgs84Lon>
			</item>
			<item>
				<dutyName>사랑플러스치과의원</dutyName>
				<dutyTel1>02-401-5425</dutyTel1>
				<dutyTime1c>1800</dutyTime1c>
				<dutyTime1s>900</dutyTime1s>
				<wgs84Lat>37.4995290478068</wgs84Lat>
				<wgs84Lon>127.144039044667</wgs84Lon>
			</item>
			<item>
				<dutyName>사랑한의원</dutyName>
				<dutyTel1>02-421-8877</dutyTel1>
				<dutyTime1c>1900</dutyTime1c>
				<dutyTime1s>930</dutyTime1s>
				<wgs84Lat>37.5086155308739</wgs84Lat>
				<wgs84Lon>127.08333854563</wgs84Lon>
			</item>
			<item>
				<dutyName>산타클로스의원</dutyName>
				<dutyTel1>02-422-1225</dutyTel1>
				<dutyTime1c>1830</dutyTime1c>
				<dutyTime1s>1000</dutyTime1s>
				<wgs84Lat>37.505190472205</wgs84Lat>
				<wgs84Lon>127.106298752169</wgs84Lon>
			</item>
			<item>
				<dutyName>삼대한의원</dutyName>
				<dutyTel1>02-407-8585</dutyTel1>
				<dutyTime1c>1900</dutyTime1c>
				<dutyTime1s>930</dutyTime1s>
				<wgs84Lat>37.4898211575029</wgs84Lat>
				<wgs84Lon>127.123766552289</wgs84Lon>
			</item>
			<item>
				<dutyName>삼성드림소아청소년과의원</dutyName>
				<dutyTel1>02-417-7722</dutyTel1>
				<dutyTime1c>1830</dutyTime1c>
				<dutyTime1s>900</dutyTime1s>
				<wgs84Lat>37.5074562799825</wgs84Lat>
				<wgs84Lon>127.090024578351</wgs84Lon>
			</item>
			<item>
				<dutyName>삼성미치과의원</dutyName>
				<dutyTel1>02-424-7528</dutyTel1>
				<dutyTime1c>1900</dutyTime1c>
				<dutyTime1s>1000</dutyTime1s>
				<wgs84Lat>37.5103205058</wgs84Lat>
				<wgs84Lon>127.1170186085</wgs84Lon>
			</item>
			<item>
				<dutyName>삼성산부인과의원</dutyName>
				<dutyTel1>02-449-7582</dutyTel1>
				<dutyTime1c>1900</dutyTime1c>
				<dutyTime1s>1000</dutyTime1s>
				<wgs84Lat>37.4846686662179</wgs84Lat>
				<wgs84Lon>127.118508302091</wgs84Lon>
			</item>
			<item>
				<dutyName>삼성아이정신과의원</dutyName>
				<dutyTel1>02-425-4600</dutyTel1>
				<dutyTime1c>1900</dutyTime1c>
				<dutyTime1s>1000</dutyTime1s>
				<wgs84Lat>37.5016760605239</wgs84Lat>
				<wgs84Lon>127.110849154355</wgs84Lon>
			</item>
			<item>
				<dutyName>삼성안과의원</dutyName>
				<dutyTel1>02-424-7523</dutyTel1>
				<dutyTime1c>1900</dutyTime1c>
				<dutyTime1s>930</dutyTime1s>
				<wgs84Lat>37.5113907369</wgs84Lat>
				<wgs84Lon>127.0831877854</wgs84Lon>
			</item>
			<item>
				<dutyName>삼성어울림의원</dutyName>
				<dutyTel1>02-2038-0179</dutyTel1>
				<dutyTime1c>1800</dutyTime1c>
				<dutyTime1s>930</dutyTime1s>
				<wgs84Lat>37.5153245163</wgs84Lat>
				<wgs84Lon>127.0995030036</wgs84Lon>
			</item>
			<item>
				<dutyName>삼성에스디에스(주)부속의원</dutyName>
				<dutyTel1>02-6155-0151</dutyTel1>
				<dutyTime1c>1700</dutyTime1c>
				<dutyTime1s>800</dutyTime1s>
				<wgs84Lat>37.51629678302</wgs84Lat>
				<wgs84Lon>127.100468027171</wgs84Lon>
			</item>
			<item>
				<dutyName>삼성정내과의원</dutyName>
				<dutyTel1>02-418-1717</dutyTel1>
				<dutyTime1c>1800</dutyTime1c>
				<dutyTime1s>900</dutyTime1s>
				<wgs84Lat>37.5066895714</wgs84Lat>
				<wgs84Lon>127.0947820713</wgs84Lon>
			</item>
			<item>
				<dutyName>삼성키즈소아청소년과의원</dutyName>
				<dutyTel1>02-2202-5275</dutyTel1>
				<dutyTime1c>1900</dutyTime1c>
				<dutyTime1s>830</dutyTime1s>
				<wgs84Lat>37.5119790175</wgs84Lat>
				<wgs84Lon>127.0870431473</wgs84Lon>
			</item>
			<item>
				<dutyName>삼성항외과의원</dutyName>
				<dutyTel1>02-2043-7175</dutyTel1>
				<dutyTime1c>1830</dutyTime1c>
				<dutyTime1s>930</dutyTime1s>
				<wgs84Lat>37.4928997512779</wgs84Lat>
				<wgs84Lon>127.145067314669</wgs84Lon>
			</item>
			<item>
				<dutyName>삼족오한의원</dutyName>
				<dutyTel1>02-421-7682</dutyTel1>
				<dutyTime1c>1830</dutyTime1c>
				<dutyTime1s>1000</dutyTime1s>
				<wgs84Lat>37.5035263849</wgs84Lat>
				<wgs84Lon>127.106150895</wgs84Lon>
			</item>
			<item>
				<dutyName>상덕의원</dutyName>
				<dutyTel1>02-486-9284</dutyTel1>
				<dutyTime1c>1800</dutyTime1c>
				<dutyTime1s>900</dutyTime1s>
				<wgs84Lat>37.5366351838297</wgs84Lat>
				<wgs84Lon>127.122335681161</wgs84Lon>
			</item>
			<item>
				<dutyName>상생의터한의원</dutyName>
				<dutyTel1>02-430-7575</dutyTel1>
				<dutyTime1c>1900</dutyTime1c>
				<dutyTime1s>900</dutyTime1s>
				<wgs84Lat>37.4995290478068</wgs84Lat>
				<wgs84Lon>127.144039044667</wgs84Lon>
			</item>
			<item>
				<dutyName>상쾌한이비인후과의원</dutyName>
				<dutyTel1>02-413-5075</dutyTel1>
				<dutyTime1c>1830</dutyTime1c>
				<dutyTime1s>830</dutyTime1s>
				<wgs84Lat>37.5178190313436</wgs84Lat>
				<wgs84Lon>127.101932047531</wgs84Lon>
			</item>
			<item>
				<dutyName>새로운정형외과의원</dutyName>
				<dutyTel1>02-417-0091</dutyTel1>
				<dutyTime1c>1900</dutyTime1c>
				<dutyTime1s>900</dutyTime1s>
				<wgs84Lat>37.5063558065</wgs84Lat>
				<wgs84Lon>127.1208758865</wgs84Lon>
			</item>
			<item>
				<dutyName>새로운치과의원</dutyName>
				<dutyTel1>02-421-2875</dutyTel1>
				<dutyTime1c>1900</dutyTime1c>
				<dutyTime1s>1000</dutyTime1s>
				<wgs84Lat>37.5021068473713</wgs84Lat>
				<wgs84Lon>127.097259794918</wgs84Lon>
			</item>
			<item>
				<dutyName>새롬이비인후과의원</dutyName>
				<dutyTel1>02-2043-5075</dutyTel1>
				<dutyTime1c>1800</dutyTime1c>
				<dutyTime1s>930</dutyTime1s>
				<wgs84Lat>37.4917725117248</wgs84Lat>
				<wgs84Lon>127.117812888273</wgs84Lon>
			</item>
			<item>
				<dutyName>새생명이현수내과의원</dutyName>
				<dutyTel1>02-430-2139</dutyTel1>
				<dutyTime1c>1900</dutyTime1c>
				<dutyTime1s>930</dutyTime1s>
				<wgs84Lat>37.4999992109203</wgs84Lat>
				<wgs84Lon>127.151205783261</wgs84Lon>
			</item>
			<item>
				<dutyName>새이드림치과의원</dutyName>
				<dutyTel1>02-475-9584</dutyTel1>
				<dutyTime1c>1800</dutyTime1c>
				<dutyTime1s>940</dutyTime1s>
				<wgs84Lat>37.5345072717832</wgs84Lat>
				<wgs84Lon>127.116753170095</wgs84Lon>
			</item>
			<item>
				<dutyName>새이치과의원</dutyName>
				<dutyTel1>02-413-1003</dutyTel1>
				<dutyTime1c>1830</dutyTime1c>
				<dutyTime1s>930</dutyTime1s>
				<wgs84Lat>37.502360372675</wgs84Lat>
				<wgs84Lon>127.094537728923</wgs84Lon>
			</item>
			<item>
				<dutyName>새한치과의원</dutyName>
				<dutyTel1>02-416-4025</dutyTel1>
				<dutyTime1c>1830</dutyTime1c>
				<dutyTime1s>1000</dutyTime1s>
				<wgs84Lat>37.5046851364665</wgs84Lat>
				<wgs84Lon>127.107171145015</wgs84Lon>
			</item>
			<item>
				<dutyName>새힘재활의학과의원</dutyName>
				<dutyTel1>02-2054-8655</dutyTel1>
				<dutyTime1c>1900</dutyTime1c>
				<dutyTime1s>900</dutyTime1s>
				<wgs84Lat>37.4846631223</wgs84Lat>
				<wgs84Lon>127.1209313822</wgs84Lon>
			</item>
			<item>
				<dutyName>샘이비인후과의원</dutyName>
				<dutyTel1>02-2283-1335</dutyTel1>
				<dutyTime1c>1900</dutyTime1c>
				<dutyTime1s>900</dutyTime1s>
				<wgs84Lat>37.4857808458567</wgs84Lat>
				<wgs84Lon>127.119970864731</wgs84Lon>
			</item>
			<item>
				<dutyName>샘치과의원</dutyName>
				<dutyTel1>02-421-2804</dutyTel1>
				<dutyTime1c>1800</dutyTime1c>
				<dutyTime1s>900</dutyTime1s>
				<wgs84Lat>37.5035425195402</wgs84Lat>
				<wgs84Lon>127.118791074721</wgs84Lon>
			</item>
			<item>
				<dutyName>생기한의원</dutyName>
				<dutyTel1>02-424-2378</dutyTel1>
				<dutyTime1c>1900</dutyTime1c>
				<dutyTime1s>1000</dutyTime1s>
				<wgs84Lat>37.5114170101962</wgs84Lat>
				<wgs84Lon>127.081690280322</wgs84Lon>
			</item>
			<item>
				<dutyName>생명마루한의원</dutyName>
				<dutyTel1>02-6929-1075</dutyTel1>
				<dutyTime1c>2030</dutyTime1c>
				<dutyTime1s>1000</dutyTime1s>
				<wgs84Lat>37.4858924790343</wgs84Lat>
				<wgs84Lon>127.120061494883</wgs84Lon>
			</item>
			<item>
				<dutyName>샤인의원</dutyName>
				<dutyTel1>02-419-1900</dutyTel1>
				<dutyTime1c>2000</dutyTime1c>
				<dutyTime1s>900</dutyTime1s>
				<wgs84Lat>37.5037494063397</wgs84Lat>
				<wgs84Lon>127.089236687587</wgs84Lon>
			</item>
			<item>
				<dutyName>서아송피부과의원</dutyName>
				<dutyTel1>02-425-3133</dutyTel1>
				<dutyTime1c>2000</dutyTime1c>
				<dutyTime1s>1000</dutyTime1s>
				<wgs84Lat>37.511394785329</wgs84Lat>
				<wgs84Lon>127.082554391906</wgs84Lon>
			</item>
			<item>
				<dutyName>서울-M치과의원</dutyName>
				<dutyTel1>02-430-8020</dutyTel1>
				<dutyTime1c>1830</dutyTime1c>
				<dutyTime1s>930</dutyTime1s>
				<wgs84Lat>37.4979940356255</wgs84Lat>
				<wgs84Lon>127.134247987418</wgs84Lon>
			</item>
			<item>
				<dutyName>서울S치과의원</dutyName>
				<dutyTel1>02-2202-7529</dutyTel1>
				<dutyTime1c>1900</dutyTime1c>
				<dutyTime1s>1000</dutyTime1s>
				<wgs84Lat>37.5126630994076</wgs84Lat>
				<wgs84Lon>127.081680348105</wgs84Lon>
			</item>
			<item>
				<dutyName>서울S플러스치과의원</dutyName>
				<dutyTel1>02-423-6528</dutyTel1>
				<dutyTime1c>1830</dutyTime1c>
				<dutyTime1s>1000</dutyTime1s>
				<wgs84Lat>37.5202848188805</wgs84Lat>
				<wgs84Lon>127.113233704408</wgs84Lon>
			</item>
			<item>
				<dutyName>서울W(더블유)치과의원</dutyName>
				<dutyTel1>02-422-2879</dutyTel1>
				<dutyTime1c>1830</dutyTime1c>
				<dutyTime1s>930</dutyTime1s>
				<wgs84Lat>37.5074393256</wgs84Lat>
				<wgs84Lon>127.0900237373</wgs84Lon>
			</item>
			<item>
