<?xml version="1.0" encoding="UTF-8" standalone="yes"?>
<response xmlns:xsi="http://www.w3.org/2001/XMLSchema-instance">
	<body>
		<items>
			<item>
				<dutyName>24시열린의원</dutyName>
				<dutyTel1>02-2644-2475</dutyTel1>
				<dutyTime1c>2400</dutyTime1c>
				<dutyTime1s>900</dutyTime1s>
				<wgs84Lat>37.5274853631473</wgs84Lat>
				<wgs84Lon>126.871569076368</wgs84Lon>
			</item>
			<item>
				<dutyName>365아이디의원</dutyName>
				<dutyTel1>02-2644-5572</dutyTel1>
				<dutyTime1c>2100</dutyTime1c>
				<dutyTime1s>900</dutyTime1s>
				<wgs84Lat>37.530324503</wgs84Lat>
				<wgs84Lon>126.8643914298</wgs84Lon>
			</item>
			<item>
				<dutyName>41타워안과의원</dutyName>
				<dutyTel1>02-6959-4107</dutyTel1>
				<dutyTime1c>1830</dutyTime1c>
				<dutyTime1s>930</dutyTime1s>
				<wgs84Lat>37.5281782237147</wgs84Lat>
				<wgs84Lon>126.875771876431</wgs84Lon>
			</item>
			<item>
				<dutyName>가람한의원</dutyName>
				<dutyTel1>02-2062-1175</dutyTel1>
				<dutyTime1c>2100</dutyTime1c>
				<dutyTime1s>930</dutyTime1s>
				<wgs84Lat>37.5082861466</wgs84Lat>
				<wgs84Lon>126.864535361</wgs84Lon>
			</item>
			<item>
				<dutyName>가족사랑의원</dutyName>
				<dutyTel1>02-2649-2119</dutyTel1>
				<dutyTime1c>1900</dutyTime1c>
				<dutyTime1s>900</dutyTime1s>
				<wgs84Lat>37.5396893443612</wgs84Lat>
				<wgs84Lon>126.869049827504</wgs84Lon>
			</item>
			<item>
				<dutyName>강봉수가정의학과의원</dutyName>
				<dutyTel1>02-2698-6745</dutyTel1>
				<dutyTime1c>1830</dutyTime1c>
				<dutyTime1s>900</dutyTime1s>
				<wgs84Lat>37.5244214674551</wgs84Lat>
				<wgs84Lon>126.841500832009</wgs84Lon>
			</item>
			<item>
				<dutyName>강서동남의원</dutyName>
				<dutyTel1>02-2694-1890</dutyTel1>
				<dutyTime1c>1800</dutyTime1c>
				<dutyTime1s>930</dutyTime1s>
				<wgs84Lat>37.5349163092317</wgs84Lat>
				<wgs84Lon>126.828589463604</wgs84Lon>
			</item>
			<item>
				<dutyName>강서영치과의원</dutyName>
				<dutyTel1>02-2653-2897</dutyTel1>
				<dutyTime1c>1830</dutyTime1c>
				<dutyTime1s>930</dutyTime1s>
				<wgs84Lat>37.5359150591023</wgs84Lat>
				<wgs84Lon>126.868237246125</wgs84Lon>
			</item>
			<item>
				<dutyName>강성호치과의원</dutyName>
				<dutyTel1>02-2645-1413</dutyTel1>
				<dutyTime1c>1800</dutyTime1c>
				<dutyTime1s>1000</dutyTime1s>
				<wgs84Lat>37.5208027870006</wgs84Lat>
				<wgs84Lon>126.85291351552</wgs84Lon>
			</item>
			<item>
				<dutyName>강승훈치과</dutyName>
				<dutyTel1>02-2608-9396</dutyTel1>
				<dutyTime1c>1830</dutyTime1c>
				<dutyTime1s>1000</dutyTime1s>
				<wgs84Lat>37.5187134578127</wgs84Lat>
				<wgs84Lon>126.853222835286</wgs84Lon>
			</item>
			<item>
				<dutyName>강영환한의원</dutyName>
				<dutyTel1>02-2642-6060</dutyTel1>
				<dutyTime1c>1900</dutyTime1c>
				<dutyTime1s>930</dutyTime1s>
				<wgs84Lat>37.5481408726725</wgs84Lat>
				<wgs84Lon>126.865975116629</wgs84Lon>
			</item>
			<item>
				<dutyName>강정수이비인후과의원</dutyName>
				<dutyTel1>02-2654-9090</dutyTel1>
				<dutyTime1c>1830</dutyTime1c>
				<dutyTime1s>900</dutyTime1s>
				<wgs84Lat>37.5200659704024</wgs84Lat>
				<wgs84Lon>126.86042154617</wgs84Lon>
			</item>
			<item>
				<dutyName>개구장이치과의원</dutyName>
				<dutyTel1>02-2603-1279</dutyTel1>
				<dutyTime1c>1800</dutyTime1c>
				<dutyTime1s>1000</dutyTime1s>
				<wgs84Lat>37.5218573852313</wgs84Lat>
				<wgs84Lon>126.857166914734</wgs84Lon>
			</item>
			<item>
				<dutyName>거북이한의원</dutyName>
				<dutyTel1>02-2607-1017</dutyTel1>
				<dutyTime1c>1900</dutyTime1c>
				<dutyTime1s>900</dutyTime1s>
				<wgs84Lat>37.5343336194889</wgs84Lat>
				<wgs84Lon>126.827528400316</wgs84Lon>
			</item>
			<item>
				<dutyName>건치과의원</dutyName>
				<dutyTel1>02-2648-0078</dutyTel1>
				<dutyTime1c>1830</dutyTime1c>
				<dutyTime1s>1000</dutyTime1s>
				<wgs84Lat>37.5273836988181</wgs84Lat>
				<wgs84Lon>126.864446531108</wgs84Lon>
			</item>
			<item>
				<dutyName>경기한의원</dutyName>
				<dutyTel1>02-2642-4198</dutyTel1>
				<dutyTime1c>1830</dutyTime1c>
				<dutyTime1s>930</dutyTime1s>
				<wgs84Lat>37.5322305891328</wgs84Lat>
				<wgs84Lon>126.864016319794</wgs84Lon>
			</item>
			<item>
				<dutyName>경창서울이비인후과의원</dutyName>
				<dutyTel1>02-2691-0633</dutyTel1>
				<dutyTime1c>1900</dutyTime1c>
				<dutyTime1s>900</dutyTime1s>
				<wgs84Lat>37.5242234601138</wgs84Lat>
				<wgs84Lon>126.8416550818</wgs84Lon>
			</item>
			<item>
				<dutyName>경창한의원</dutyName>
				<dutyTel1>02-2697-7575</dutyTel1>
				<dutyTime1c>1900</dutyTime1c>
				<dutyTime1s>900</dutyTime1s>
				<wgs84Lat>37.5242234601</wgs84Lat>
				<wgs84Lon>126.8416550818</wgs84Lon>
			</item>
			<item>
				<dutyName>경희가정의원</dutyName>
				<dutyTel1>02-2062-1191</dutyTel1>
				<dutyTime1c>1900</dutyTime1c>
				<dutyTime1s>1000</dutyTime1s>
				<wgs84Lat>37.5483145253</wgs84Lat>
				<wgs84Lon>126.8665587242</wgs84Lon>
			</item>
			<item>
				<dutyName>경희넓은들한의원</dutyName>
				<dutyTel1>02-2611-0585</dutyTel1>
				<dutyTime1c>1900</dutyTime1c>
				<dutyTime1s>930</dutyTime1s>
				<wgs84Lat>37.5118455379181</wgs84Lat>
				<wgs84Lon>126.837713448523</wgs84Lon>
			</item>
			<item>
				<dutyName>경희별한의원</dutyName>
				<dutyTel1>02-2062-8582</dutyTel1>
				<dutyTime1c>1900</dutyTime1c>
				<dutyTime1s>1000</dutyTime1s>
				<wgs84Lat>37.515773294</wgs84Lat>
				<wgs84Lon>126.8628070305</wgs84Lon>
			</item>
			<item>
				<dutyName>경희부부한의원</dutyName>
				<dutyTel1>02-2691-6500</dutyTel1>
				<dutyTime1c>1900</dutyTime1c>
				<dutyTime1s>930</dutyTime1s>
				<wgs84Lat>37.5249903415772</wgs84Lat>
				<wgs84Lon>126.864192952092</wgs84Lon>
			</item>
			<item>
				<dutyName>경희아이큐한의원</dutyName>
				<dutyTel1>02-2644-1929</dutyTel1>
				<dutyTime1c>1900</dutyTime1c>
				<dutyTime1s>1000</dutyTime1s>
				<wgs84Lat>37.5273836988</wgs84Lat>
				<wgs84Lon>126.8644465311</wgs84Lon>
			</item>
			<item>
				<dutyName>경희양정한의원</dutyName>
				<dutyTel1>02-2612-7780</dutyTel1>
				<dutyTime1c>1900</dutyTime1c>
				<dutyTime1s>930</dutyTime1s>
				<wgs84Lat>37.5379778873423</wgs84Lat>
				<wgs84Lon>126.872745913908</wgs84Lon>
			</item>
			<item>
				<dutyName>경희예원한의원</dutyName>
				<dutyTel1>02-2648-9971</dutyTel1>
				<dutyTime1c>1900</dutyTime1c>
				<dutyTime1s>930</dutyTime1s>
				<wgs84Lat>37.5212361003347</wgs84Lat>
				<wgs84Lon>126.875014180821</wgs84Lon>
			</item>
			<item>
				<dutyName>경희용한의원</dutyName>
				<dutyTel1>02-2062-7975</dutyTel1>
				<dutyTime1c>1900</dutyTime1c>
				<dutyTime1s>930</dutyTime1s>
				<wgs84Lat>37.5468165372183</wgs84Lat>
				<wgs84Lon>126.871483388692</wgs84Lon>
			</item>
			<item>
				<dutyName>경희우리한의원</dutyName>
				<dutyTel1>02-2602-1195</dutyTel1>
				<dutyTime1c>1830</dutyTime1c>
				<dutyTime1s>900</dutyTime1s>
				<wgs84Lat>37.5327885249803</wgs84Lat>
				<wgs84Lon>126.832617535063</wgs84Lon>
			</item>
			<item>
				<dutyName>경희정원한의원</dutyName>
				<dutyTel1>02-732-1117</dutyTel1>
				<dutyTime1c>1900</dutyTime1c>
				<dutyTime1s>930</dutyTime1s>
				<wgs84Lat>37.5279165133921</wgs84Lat>
				<wgs84Lon>126.864398014519</wgs84Lon>
			</item>
			<item>
				<dutyName>경희천한의원</dutyName>
				<dutyTel1>02-2062-9975</dutyTel1>
				<dutyTime1c>1900</dutyTime1c>
				<dutyTime1s>900</dutyTime1s>
				<wgs84Lat>37.5463472124</wgs84Lat>
				<wgs84Lon>126.8735328578</wgs84Lon>
			</item>
			<item>
				<dutyName>경희토지한의원</dutyName>
				<dutyTel1>02-2651-8131</dutyTel1>
				<dutyTime1c>1900</dutyTime1c>
				<dutyTime1s>930</dutyTime1s>
				<wgs84Lat>37.5127093237767</wgs84Lat>
				<wgs84Lon>126.83228513314</wgs84Lon>
			</item>
			<item>
				<dutyName>경희한의원</dutyName>
				<dutyTel1>02-2692-2188</dutyTel1>
				<dutyTime1c>1900</dutyTime1c>
				<dutyTime1s>930</dutyTime1s>
				<wgs84Lat>37.5187134578</wgs84Lat>
				<wgs84Lon>126.8532228353</wgs84Lon>
			</item>
			<item>
				<dutyName>경희행복나무한의원</dutyName>
				<dutyTel1>02-2662-1075</dutyTel1>
				<dutyTime1c>1830</dutyTime1c>
				<dutyTime1s>930</dutyTime1s>
				<wgs84Lat>37.5280177177</wgs84Lat>
				<wgs84Lon>126.8706178563</wgs84Lon>
			</item>
			<item>
				<dutyName>경희혜윰한의원</dutyName>
				<dutyTel1>02-2646-3131</dutyTel1>
				<dutyTime1c>1900</dutyTime1c>
				<dutyTime1s>930</dutyTime1s>
				<wgs84Lat>37.5245963751944</wgs84Lat>
				<wgs84Lon>126.872886298333</wgs84Lon>
			</item>
			<item>
				<dutyName>고광희치과의원</dutyName>
				<dutyTel1>02-2653-6090</dutyTel1>
				<dutyTime1c>1900</dutyTime1c>
				<dutyTime1s>1000</dutyTime1s>
				<wgs84Lat>37.5083069551069</wgs84Lat>
				<wgs84Lon>126.864615646408</wgs84Lon>
			</item>
			<item>
				<dutyName>고려정형외과의원</dutyName>
				<dutyTel1>02-2654-9972</dutyTel1>
				<dutyTime1c>1900</dutyTime1c>
				<dutyTime1s>900</dutyTime1s>
				<wgs84Lat>37.5198453388635</wgs84Lat>
				<wgs84Lon>126.853401609331</wgs84Lon>
			</item>
			<item>
				<dutyName>고영석정형외과의원</dutyName>
				<dutyTel1>02-2603-0030</dutyTel1>
				<dutyTime1c>2030</dutyTime1c>
				<dutyTime1s>845</dutyTime1s>
				<wgs84Lat>37.5212461629326</wgs84Lat>
				<wgs84Lon>126.855876397734</wgs84Lon>
			</item>
			<item>
				<dutyName>고운결한의원</dutyName>
				<dutyTel1>02-2646-7522</dutyTel1>
				<dutyTime1c>2100</dutyTime1c>
				<dutyTime1s>1000</dutyTime1s>
				<wgs84Lat>37.523423707111</wgs84Lat>
				<wgs84Lon>126.874983361005</wgs84Lon>
			</item>
			<item>
				<dutyName>고운이치과의원</dutyName>
				<dutyTel1>02-2649-2879</dutyTel1>
				<dutyTime1c>1800</dutyTime1c>
				<dutyTime1s>900</dutyTime1s>
				<wgs84Lat>37.5343943287522</wgs84Lat>
				<wgs84Lon>126.875424147384</wgs84Lon>
			</item>
			<item>
				<dutyName>골드치과의원</dutyName>
				<dutyTel1>02-2651-2827</dutyTel1>
				<dutyTime1c>1800</dutyTime1c>
				<dutyTime1s>930</dutyTime1s>
				<wgs84Lat>37.522475081257</wgs84Lat>
				<wgs84Lon>126.874256428745</wgs84Lon>
			</item>
			<item>
				<dutyName>곰달래경희한의원</dutyName>
				<dutyTel1>02-2698-1075</dutyTel1>
				<dutyTime1c>1900</dutyTime1c>
				<dutyTime1s>930</dutyTime1s>
				<wgs84Lat>37.5304666246</wgs84Lat>
				<wgs84Lon>126.8371119398</wgs84Lon>
			</item>
			<item>
				<dutyName>광장한의원</dutyName>
				<dutyTel1>02-2698-7862</dutyTel1>
				<dutyTime1c>1900</dutyTime1c>
				<dutyTime1s>900</dutyTime1s>
				<wgs84Lat>37.5223021287307</wgs84Lat>
				<wgs84Lon>126.844066403302</wgs84Lon>
			</item>
			<item>
				<dutyName>굿모닝의원</dutyName>
				<dutyTel1>02-6080-1316</dutyTel1>
				<dutyTime1c>1930</dutyTime1c>
				<dutyTime1s>900</dutyTime1s>
				<wgs84Lat>37.5456847775</wgs84Lat>
				<wgs84Lon>126.8708498566</wgs84Lon>
			</item>
			<item>
				<dutyName>권내과의원</dutyName>
				<dutyTel1>02-2652-4217</dutyTel1>
				<dutyTime1c>1730</dutyTime1c>
				<dutyTime1s>930</dutyTime1s>
				<wgs84Lat>37.5184666116936</wgs84Lat>
				<wgs84Lon>126.87350302687</wgs84Lon>
			</item>
			<item>
				<dutyName>권이준한의원</dutyName>
				<dutyTel1>02-2652-1075</dutyTel1>
				<dutyTime1c>1900</dutyTime1c>
				<dutyTime1s>930</dutyTime1s>
				<wgs84Lat>37.5497281764576</wgs84Lat>
				<wgs84Lon>126.864175220203</wgs84Lon>
			</item>
			<item>
				<dutyName>권현민내과의원</dutyName>
				<dutyTel1>02-2646-5171</dutyTel1>
				<dutyTime1c>1830</dutyTime1c>
				<dutyTime1s>830</dutyTime1s>
				<wgs84Lat>37.5083298300026</wgs84Lat>
				<wgs84Lon>126.864521992585</wgs84Lon>
			</item>
			<item>
				<dutyName>규림한의원</dutyName>
				<dutyTel1>02-2607-1075</dutyTel1>
				<dutyTime1c>2100</dutyTime1c>
				<dutyTime1s>1100</dutyTime1s>
				<wgs84Lat>37.5264055224739</wgs84Lat>
				<wgs84Lon>126.863933562374</wgs84Lon>
			</item>
			<item>
				<dutyName>금산부인과의원</dutyName>
				<dutyTel1>02-2649-6412</dutyTel1>
				<dutyTime1c>1830</dutyTime1c>
				<dutyTime1s>900</dutyTime1s>
				<wgs84Lat>37.5223062207172</wgs84Lat>
				<wgs84Lon>126.874758999744</wgs84Lon>
			</item>
			<item>
				<dutyName>금송아지한의원</dutyName>
				<dutyTel1>02-2602-3133</dutyTel1>
				<dutyTime1c>1900</dutyTime1c>
				<dutyTime1s>930</dutyTime1s>
				<wgs84Lat>37.5098560411005</wgs84Lat>
				<wgs84Lon>126.843466195916</wgs84Lon>
			</item>
			<item>
				<dutyName>기쁜소식산부인과의원</dutyName>
				<dutyTel1>02-2643-3388</dutyTel1>
				<dutyTime1c>1800</dutyTime1c>
				<dutyTime1s>900</dutyTime1s>
				<wgs84Lat>37.5210499964385</wgs84Lat>
				<wgs84Lon>126.854623405275</wgs84Lon>
			</item>
			<item>
				<dutyName>김&amp;안소아과의원</dutyName>
				<dutyTel1>02-2649-0478</dutyTel1>
				<dutyTime1c>1830</dutyTime1c>
				<dutyTime1s>900</dutyTime1s>
				<wgs84Lat>37.5223170484274</wgs84Lat>
				<wgs84Lon>126.874768010949</wgs84Lon>
			</item>
			<item>
				<dutyName>김갑석안과의원</dutyName>
				<dutyTel1>02-2642-3550</dutyTel1>
				<dutyTime1c>1830</dutyTime1c>
				<dutyTime1s>930</dutyTime1s>
				<wgs84Lat>37.5323063153522</wgs84Lat>
				<wgs84Lon>126.864052952254</wgs84Lon>
			</item>
			<item>
				<dutyName>김기정한의원</dutyName>
				<dutyTel1>02-2649-2340</dutyTel1>
				<dutyTime1c>1900</dutyTime1c>
				<dutyTime1s>930</dutyTime1s>
				<wgs84Lat>37.5186930164</wgs84Lat>
				<wgs84Lon>126.854177589</wgs84Lon>
			</item>
			<item>
				<dutyName>김동주성형외과의원</dutyName>
				<dutyTel1>02-2608-1484</dutyTel1>
				<dutyTime1c>1830</dutyTime1c>
				<dutyTime1s>1000</dutyTime1s>
				<wgs84Lat>37.5209286536539</wgs84Lat>
				<wgs84Lon>126.852209476392</wgs84Lon>
			</item>
			<item>
				<dutyName>김방지소아과의원</dutyName>
				<dutyTel1>02-2603-9017</dutyTel1>
				<dutyTime1c>1800</dutyTime1c>
				<dutyTime1s>900</dutyTime1s>
				<wgs84Lat>37.5202178958651</wgs84Lat>
				<wgs84Lon>126.835279053379</wgs84Lon>
			</item>
			<item>
				<dutyName>김범석한의원</dutyName>
				<dutyTel1>02-2652-7918</dutyTel1>
				<dutyTime1c>1900</dutyTime1c>
				<dutyTime1s>930</dutyTime1s>
				<wgs84Lat>37.5210570725182</wgs84Lat>
				<wgs84Lon>126.854041788127</wgs84Lon>
			</item>
			<item>
				<dutyName>김비뇨기과의원</dutyName>
				<dutyTel1>02-2605-9903</dutyTel1>
				<dutyTime1c>1800</dutyTime1c>
				<dutyTime1s>900</dutyTime1s>
				<wgs84Lat>37.5187836679219</wgs84Lat>
				<wgs84Lon>126.843354316239</wgs84Lon>
			</item>
			<item>
				<dutyName>김성남내과의원</dutyName>
				<dutyTel1>02-2655-2500</dutyTel1>
				<dutyTime1c>1830</dutyTime1c>
				<dutyTime1s>900</dutyTime1s>
				<wgs84Lat>37.5373848550413</wgs84Lat>
				<wgs84Lon>126.884867120068</wgs84Lon>
			</item>
			<item>
				<dutyName>김성옥치과의원</dutyName>
				<dutyTel1>02-2642-3120</dutyTel1>
				<dutyTime1c>1830</dutyTime1c>
				<dutyTime1s>1000</dutyTime1s>
				<wgs84Lat>37.547904115333</wgs84Lat>
				<wgs84Lon>126.866953259118</wgs84Lon>
			</item>
			<item>
				<dutyName>김승진의원</dutyName>
				<dutyTel1>02-2692-1187</dutyTel1>
				<dutyTime1c>1900</dutyTime1c>
				<dutyTime1s>1000</dutyTime1s>
				<wgs84Lat>37.5257786775</wgs84Lat>
				<wgs84Lon>126.8602908339</wgs84Lon>
			</item>
			<item>
				<dutyName>김신경정신과의원</dutyName>
				<dutyTel1>02-2608-1070</dutyTel1>
				<dutyTime1c>1830</dutyTime1c>
				<dutyTime1s>930</dutyTime1s>
				<wgs84Lat>37.5272785211566</wgs84Lat>
				<wgs84Lon>126.863876563233</wgs84Lon>
			</item>
			<item>
				<dutyName>김유찬피부과의원</dutyName>
				<dutyTel1>02-2654-0031</dutyTel1>
				<dutyTime1c>1830</dutyTime1c>
				<dutyTime1s>1010</dutyTime1s>
				<wgs84Lat>37.53639824</wgs84Lat>
				<wgs84Lon>126.8785506479</wgs84Lon>
			</item>
			<item>
				<dutyName>김유철한의원</dutyName>
				<dutyTel1>02-2699-9633</dutyTel1>
				<dutyTime1c>1900</dutyTime1c>
				<dutyTime1s>900</dutyTime1s>
				<wgs84Lat>37.5227294633316</wgs84Lat>
				<wgs84Lon>126.842902601163</wgs84Lon>
			</item>
			<item>
				<dutyName>김윤희소아청소년과의원</dutyName>
				<dutyTel1>02-2697-1117</dutyTel1>
				<dutyTime1c>1800</dutyTime1c>
				<dutyTime1s>900</dutyTime1s>
				<wgs84Lat>37.5400663879998</wgs84Lat>
				<wgs84Lon>126.833601513098</wgs84Lon>
			</item>
			<item>
				<dutyName>김인섭치과의원</dutyName>
				<dutyTel1>02-2642-1002</dutyTel1>
				<dutyTime1c>1830</dutyTime1c>
				<dutyTime1s>930</dutyTime1s>
				<wgs84Lat>37.5210208360927</wgs84Lat>
				<wgs84Lon>126.854613121001</wgs84Lon>
			</item>
			<item>
				<dutyName>김전치과의원</dutyName>
				<dutyTel1>02-2647-2882</dutyTel1>
				<dutyTime1c>1830</dutyTime1c>
				<dutyTime1s>930</dutyTime1s>
				<wgs84Lat>37.5353389770395</wgs84Lat>
				<wgs84Lon>126.878855588739</wgs84Lon>
			</item>
			<item>
				<dutyName>김정기한의원</dutyName>
				<dutyTel1>02-2642-1075</dutyTel1>
				<dutyTime1c>2030</dutyTime1c>
				<dutyTime1s>930</dutyTime1s>
				<wgs84Lat>37.5492049976013</wgs84Lat>
				<wgs84Lon>126.867396321509</wgs84Lon>
			</item>
			<item>
				<dutyName>김주성한의원</dutyName>
				<dutyTel1>02-2691-8328</dutyTel1>
				<dutyTime1c>2000</dutyTime1c>
				<dutyTime1s>930</dutyTime1s>
				<wgs84Lat>37.5226698898844</wgs84Lat>
				<wgs84Lon>126.833617552304</wgs84Lon>
			</item>
			<item>
				<dutyName>김현수한의원</dutyName>
				<dutyTel1>02-2652-0037</dutyTel1>
				<dutyTime1c>1900</dutyTime1c>
				<dutyTime1s>900</dutyTime1s>
				<wgs84Lat>37.5467217213404</wgs84Lat>
				<wgs84Lon>126.873247061642</wgs84Lon>
			</item>
			<item>
				<dutyName>김효종치과</dutyName>
				<dutyTel1>02-2648-2804</dutyTel1>
				<dutyTime1c>1830</dutyTime1c>
				<dutyTime1s>1000</dutyTime1s>
				<wgs84Lat>37.5157822294097</wgs84Lat>
				<wgs84Lon>126.861200804605</wgs84Lon>
			</item>
			<item>
				<dutyName>김희정치과의원</dutyName>
				<dutyTel1>02-2653-2875</dutyTel1>
				<dutyTime1c>1800</dutyTime1c>
				<dutyTime1s>1000</dutyTime1s>
				<wgs84Lat>37.5173909533916</wgs84Lat>
				<wgs84Lon>126.857037447493</wgs84Lon>
			</item>
			<item>
				<dutyName>꿈나무소아과의원</dutyName>
				<dutyTel1>02-2643-8155</dutyTel1>
				<dutyTime1c>1830</dutyTime1c>
				<dutyTime1s>900</dutyTime1s>
				<wgs84Lat>37.5356091326384</wgs84Lat>
				<wgs84Lon>126.878714854023</wgs84Lon>
			</item>
			<item>
				<dutyName>나비한의원</dutyName>
				<dutyTel1>02-2649-2114</dutyTel1>
				<dutyTime1c>1900</dutyTime1c>
				<dutyTime1s>930</dutyTime1s>
				<wgs84Lat>37.5366338421</wgs84Lat>
				<wgs84Lon>126.8798627462</wgs84Lon>
			</item>
			<item>
				<dutyName>나한주마취통증의학과의원</dutyName>
				<dutyTel1>02-2699-9938</dutyTel1>
				<dutyTime1c>1830</dutyTime1c>
				<dutyTime1s>900</dutyTime1s>
				<wgs84Lat>37.5212603052259</wgs84Lat>
				<wgs84Lon>126.855654653692</wgs84Lon>
			</item>
			<item>
				<dutyName>남신경정신과의원</dutyName>
				<dutyTel1>02-2648-3548</dutyTel1>
				<dutyTime1c>1700</dutyTime1c>
				<dutyTime1s>930</dutyTime1s>
				<wgs84Lat>37.5208502242646</wgs84Lat>
				<wgs84Lon>126.852897406675</wgs84Lon>
			</item>
			<item>
				<dutyName>남태선한의원</dutyName>
				<dutyTel1>02-2650-8877</dutyTel1>
				<dutyTime1c>1730</dutyTime1c>
				<dutyTime1s>1000</dutyTime1s>
				<wgs84Lat>37.5174444203258</wgs84Lat>
				<wgs84Lon>126.865322096513</wgs84Lon>
			</item>
			<item>
				<dutyName>내추럴미내외한의원</dutyName>
				<dutyTel1>02-2649-1240</dutyTel1>
				<dutyTime1c>1800</dutyTime1c>
				<dutyTime1s>1000</dutyTime1s>
				<wgs84Lat>37.5372957778318</wgs84Lat>
				<wgs84Lon>126.871869081862</wgs84Lon>
			</item>
			<item>
				<dutyName>누리담한의원</dutyName>
				<dutyTel1>02-2647-7007</dutyTel1>
				<dutyTime1c>1900</dutyTime1c>
				<dutyTime1s>1000</dutyTime1s>
				<wgs84Lat>37.547904115333</wgs84Lat>
				<wgs84Lon>126.866953259118</wgs84Lon>
			</item>
			<item>
				<dutyName>누리한의원</dutyName>
				<dutyTel1>02-2661-6897</dutyTel1>
				<dutyTime1c>1900</dutyTime1c>
				<dutyTime1s>930</dutyTime1s>
				<wgs84Lat>37.5465227859369</wgs84Lat>
				<wgs84Lon>126.872582018899</wgs84Lon>
			</item>
			<item>
				<dutyName>뉴본정형외과의원</dutyName>
				<dutyTel1>02-2692-9055</dutyTel1>
				<dutyTime1c>1700</dutyTime1c>
				<dutyTime1s>900</dutyTime1s>
				<wgs84Lat>37.5231472793862</wgs84Lat>
				<wgs84Lon>126.851055735137</wgs84Lon>
			</item>
			<item>
				<dutyName>늘봄의원</dutyName>
				<dutyTel1>02-2603-0221</dutyTel1>
				<dutyTime1c>1800</dutyTime1c>
				<dutyTime1s>900</dutyTime1s>
				<wgs84Lat>37.5305360969284</wgs84Lat>
				<wgs84Lon>126.837835856461</wgs84Lon>
			</item>
			<item>
				<dutyName>다니엘치과의원</dutyName>
				<dutyTel1>02-2645-9817</dutyTel1>
				<dutyTime1c>1830</dutyTime1c>
				<dutyTime1s>930</dutyTime1s>
				<wgs84Lat>37.5220889628069</wgs84Lat>
				<wgs84Lon>126.877512727326</wgs84Lon>
			</item>
			<item>
				<dutyName>다래한의원</dutyName>
				<dutyTel1>02-2604-8936</dutyTel1>
				<dutyTime1c>1600</dutyTime1c>
				<dutyTime1s>900</dutyTime1s>
				<wgs84Lat>37.5223197212803</wgs84Lat>
				<wgs84Lon>126.833202016067</wgs84Lon>
			</item>
			<item>
				<dutyName>다산한의원</dutyName>
				<dutyTel1>02-2643-0017</dutyTel1>
				<dutyTime1c>1900</dutyTime1c>
				<dutyTime1s>930</dutyTime1s>
				<wgs84Lat>37.545440185767</wgs84Lat>
				<wgs84Lon>126.871289332238</wgs84Lon>
			</item>
			<item>
				<dutyName>다솔한의원</dutyName>
				<dutyTel1>02-2698-0090</dutyTel1>
				<dutyTime1c>1900</dutyTime1c>
				<dutyTime1s>900</dutyTime1s>
				<wgs84Lat>37.5215723356429</wgs84Lat>
				<wgs84Lon>126.854432337759</wgs84Lon>
			</item>
			<item>
				<dutyName>다온미소치과의원</dutyName>
				<dutyTel1>02-6738-2828</dutyTel1>
				<dutyTime1c>1830</dutyTime1c>
				<dutyTime1s>930</dutyTime1s>
				<wgs84Lat>37.5356736377</wgs84Lat>
				<wgs84Lon>126.8289226139</wgs84Lon>
			</item>
			<item>
				<dutyName>다정한의원</dutyName>
				<dutyTel1>02-2606-7500</dutyTel1>
				<dutyTime1c>1900</dutyTime1c>
				<dutyTime1s>900</dutyTime1s>
				<wgs84Lat>37.5411758980285</wgs84Lat>
				<wgs84Lon>126.833232435999</wgs84Lon>
			</item>
			<item>
				<dutyName>닥터플란트치과의원</dutyName>
				<dutyTel1>02-2651-2080</dutyTel1>
				<dutyTime1c>1900</dutyTime1c>
				<dutyTime1s>1000</dutyTime1s>
				<wgs84Lat>37.5325657769054</wgs84Lat>
				<wgs84Lon>126.864029853566</wgs84Lon>
			</item>
			<item>
				<dutyName>달팽이이비인후과의원</dutyName>
				<dutyTel1>02-2062-4298</dutyTel1>
				<dutyTime1c>1900</dutyTime1c>
				<dutyTime1s>900</dutyTime1s>
				<wgs84Lat>37.5198453389</wgs84Lat>
				<wgs84Lon>126.8534016093</wgs84Lon>
			</item>
			<item>
				<dutyName>대동한의원</dutyName>
				<dutyTel1>02-2648-3255</dutyTel1>
				<dutyTime1c>1900</dutyTime1c>
				<dutyTime1s>900</dutyTime1s>
				<wgs84Lat>37.5234369863</wgs84Lat>
				<wgs84Lon>126.8773363372</wgs84Lon>
			</item>
			<item>
				<dutyName>대자연한의원</dutyName>
				<dutyTel1>02-2648-3345</dutyTel1>
				<dutyTime1c>1800</dutyTime1c>
				<dutyTime1s>930</dutyTime1s>
				<wgs84Lat>37.5369042859781</wgs84Lat>
				<wgs84Lon>126.883605157718</wgs84Lon>
			</item>
			<item>
				<dutyName>더바르게치과의원</dutyName>
				<dutyTel1>02-6734-2875</dutyTel1>
				<dutyTime1c>1830</dutyTime1c>
				<dutyTime1s>930</dutyTime1s>
				<wgs84Lat>37.527945204</wgs84Lat>
				<wgs84Lon>126.863821028</wgs84Lon>
			</item>
			<item>
				<dutyName>더본내과의원</dutyName>
				<dutyTel1>02-2138-0660</dutyTel1>
				<dutyTime1c>1830</dutyTime1c>
				<dutyTime1s>900</dutyTime1s>
				<wgs84Lat>37.515773294</wgs84Lat>
				<wgs84Lon>126.8628070305</wgs84Lon>
			</item>
			<item>
				<dutyName>더봄한의원</dutyName>
				<dutyTel1>02-2652-5875</dutyTel1>
				<dutyTime1c>2100</dutyTime1c>
				<dutyTime1s>1400</dutyTime1s>
				<wgs84Lat>37.5304612423519</wgs84Lat>
				<wgs84Lon>126.864211317304</wgs84Lon>
			</item>
			<item>
				<dutyName>더블유항외과의원</dutyName>
				<dutyTel1>02-2692-7175</dutyTel1>
				<dutyTime1c>1830</dutyTime1c>
				<dutyTime1s>930</dutyTime1s>
				<wgs84Lat>37.5264994783185</wgs84Lat>
				<wgs84Lon>126.863371137962</wgs84Lon>
			</item>
			<item>
				<dutyName>덕진사상체질과한의원</dutyName>
				<dutyTel1>02-2608-8895</dutyTel1>
				<dutyTime1c>1800</dutyTime1c>
				<dutyTime1s>900</dutyTime1s>
				<wgs84Lat>37.5264994783</wgs84Lat>
				<wgs84Lon>126.863371138</wgs84Lon>
			</item>
			<item>
				<dutyName>도곡한의원</dutyName>
				<dutyTel1>02-2642-8164</dutyTel1>
				<dutyTime1c>1830</dutyTime1c>
				<dutyTime1s>930</dutyTime1s>
				<wgs84Lat>37.5208225186203</wgs84Lat>
				<wgs84Lon>126.859743520301</wgs84Lon>
			</item>
			<item>
				<dutyName>도원한의원</dutyName>
				<dutyTel1>02-2647-7550</dutyTel1>
				<dutyTime1c>1800</dutyTime1c>
				<dutyTime1s>1000</dutyTime1s>
				<wgs84Lat>37.5283966141</wgs84Lat>
				<wgs84Lon>126.8646121341</wgs84Lon>
			</item>
			<item>
				<dutyName>독일의원</dutyName>
				<dutyTel1>02-2645-8700</dutyTel1>
				<dutyTime1c>1800</dutyTime1c>
				<dutyTime1s>900</dutyTime1s>
				<wgs84Lat>37.5466541752717</wgs84Lat>
				<wgs84Lon>126.874116244755</wgs84Lon>
			</item>
			<item>
				<dutyName>동의한의원</dutyName>
				<dutyTel1>02-2642-8377</dutyTel1>
				<dutyTime1c>1830</dutyTime1c>
				<dutyTime1s>930</dutyTime1s>
				<wgs84Lat>37.5087548959438</wgs84Lat>
				<wgs84Lon>126.864733574777</wgs84Lon>
			</item>
			<item>
				<dutyName>동인당한의원</dutyName>
				<dutyTel1>02-2699-8828</dutyTel1>
				<dutyTime1c>1800</dutyTime1c>
				<dutyTime1s>930</dutyTime1s>
				<wgs84Lat>37.5275661614571</wgs84Lat>
				<wgs84Lon>126.863287758627</wgs84Lon>
			</item>
			<item>
				<dutyName>동인한의원</dutyName>
				<dutyTel1>02-2603-0468</dutyTel1>
				<dutyTime1c>1900</dutyTime1c>
				<dutyTime1s>900</dutyTime1s>
				<wgs84Lat>37.5179572934105</wgs84Lat>
				<wgs84Lon>126.842555157574</wgs84Lon>
			</item>
			<item>
				<dutyName>동제한의원</dutyName>
				<dutyTel1>02-2643-9381</dutyTel1>
				<dutyTime1c>1830</dutyTime1c>
				<dutyTime1s>930</dutyTime1s>
				<wgs84Lat>37.5484303041306</wgs84Lat>
				<wgs84Lon>126.863797348695</wgs84Lon>
			</item>
			<item>
				<dutyName>동진한의원</dutyName>
				<dutyTel1>02-2653-2211</dutyTel1>
				<dutyTime1c>1815</dutyTime1c>
				<dutyTime1s>1015</dutyTime1s>
				<wgs84Lat>37.5254461304467</wgs84Lat>
				<wgs84Lon>126.872154049989</wgs84Lon>
			</item>
			<item>
				<dutyName>등촌한의원</dutyName>
				<dutyTel1>02-2653-8885</dutyTel1>
				<dutyTime1c>1900</dutyTime1c>
				<dutyTime1s>930</dutyTime1s>
				<wgs84Lat>37.5486407025186</wgs84Lat>
				<wgs84Lon>126.864991987593</wgs84Lon>
			</item>
			<item>
				<dutyName>똑바로정형외과의원</dutyName>
				<dutyTel1>02-2607-0001</dutyTel1>
				<dutyTime1c>1900</dutyTime1c>
				<dutyTime1s>830</dutyTime1s>
				<wgs84Lat>37.5221424985</wgs84Lat>
				<wgs84Lon>126.8516414469</wgs84Lon>
			</item>
			<item>
				<dutyName>라온휴병원</dutyName>
				<dutyTel1>02-2601-2611</dutyTel1>
				<dutyTime1c>1800</dutyTime1c>
				<dutyTime1s>900</dutyTime1s>
				<wgs84Lat>37.5177619584584</wgs84Lat>
				<wgs84Lon>126.842017134345</wgs84Lon>
			</item>
			<item>
				<dutyName>라파엘의원</dutyName>
				<dutyTel1>02-2652-0275</dutyTel1>
				<dutyTime1c>1900</dutyTime1c>
				<dutyTime1s>900</dutyTime1s>
				<wgs84Lat>37.5328866886359</wgs84Lat>
				<wgs84Lon>126.864165037985</wgs84Lon>
			</item>
			<item>
				<dutyName>로뎀나무치과의원</dutyName>
				<dutyTel1>02-2695-2271</dutyTel1>
				<dutyTime1c>1900</dutyTime1c>
				<dutyTime1s>1000</dutyTime1s>
				<wgs84Lat>37.5189404656695</wgs84Lat>
				<wgs84Lon>126.853191869294</wgs84Lon>
			</item>
			<item>
				<dutyName>리더스피부과의원</dutyName>
				<dutyTel1>1588-7833</dutyTel1>
				<dutyTime1c>2000</dutyTime1c>
				<dutyTime1s>1030</dutyTime1s>
				<wgs84Lat>37.5271967934</wgs84Lat>
				<wgs84Lon>126.8746919755</wgs84Lon>
			</item>
			<item>
				<dutyName>리더스함치과의원</dutyName>
				<dutyTel1>02-2649-3703</dutyTel1>
				<dutyTime1c>1900</dutyTime1c>
				<dutyTime1s>1000</dutyTime1s>
				<wgs84Lat>37.5245709549221</wgs84Lat>
				<wgs84Lon>126.873065041537</wgs84Lon>
			</item>
			<item>
				<dutyName>리빙웰치과의원</dutyName>
				<dutyTel1>02-2675-2875</dutyTel1>
				<dutyTime1c>1900</dutyTime1c>
				<dutyTime1s>930</dutyTime1s>
				<wgs84Lat>37.5241802045666</wgs84Lat>
				<wgs84Lon>126.870488753018</wgs84Lon>
			</item>
			<item>
				<dutyName>리엔장의원</dutyName>
				<dutyTel1>02-2651-3625</dutyTel1>
				<dutyTime1c>2000</dutyTime1c>
				<dutyTime1s>1000</dutyTime1s>
				<wgs84Lat>37.5251089396</wgs84Lat>
				<wgs84Lon>126.8736275447</wgs84Lon>
			</item>
			<item>
				<dutyName>리유외과의원</dutyName>
				<dutyTel1>02-2062-0101</dutyTel1>
				<dutyTime1c>1800</dutyTime1c>
				<dutyTime1s>1000</dutyTime1s>
				<wgs84Lat>37.5273836988</wgs84Lat>
				<wgs84Lon>126.8644465311</wgs84Lon>
			</item>
			<item>
				<dutyName>마디랑내과의원</dutyName>
				<dutyTel1>02-2648-1633</dutyTel1>
				<dutyTime1c>1800</dutyTime1c>
				<dutyTime1s>900</dutyTime1s>
				<wgs84Lat>37.5211040559962</wgs84Lat>
				<wgs84Lon>126.8546232993</wgs84Lon>
			</item>
			<item>
				<dutyName>마음그린한의원</dutyName>
				<dutyTel1>02-2603-0011</dutyTel1>
				<dutyTime1c>2000</dutyTime1c>
				<dutyTime1s>900</dutyTime1s>
				<wgs84Lat>37.5220886126748</wgs84Lat>
				<wgs84Lon>126.843406230816</wgs84Lon>
			</item>
			<item>
				<dutyName>마음누리정신건강의학과의원</dutyName>
				<dutyTel1>02-2643-6435</dutyTel1>
				<dutyTime1c>1900</dutyTime1c>
				<dutyTime1s>1000</dutyTime1s>
				<wgs84Lat>37.5255685146337</wgs84Lat>
				<wgs84Lon>126.875724083429</wgs84Lon>
			</item>
			<item>
				<dutyName>마이내과의원</dutyName>
				<dutyTel1>02-6215-8800</dutyTel1>
				<dutyTime1c>1900</dutyTime1c>
				<dutyTime1s>800</dutyTime1s>
				<wgs84Lat>37.5360253491139</wgs84Lat>
				<wgs84Lon>126.870196704848</wgs84Lon>
			</item>
			<item>
				<dutyName>마이빌내과의원</dutyName>
				<dutyTel1>02-2651-7533</dutyTel1>
				<dutyTime1c>1830</dutyTime1c>
				<dutyTime1s>900</dutyTime1s>
				<wgs84Lat>37.5495258882158</wgs84Lat>
				<wgs84Lon>126.866936817407</wgs84Lon>
			</item>
			<item>
				<dutyName>마인드케어의원</dutyName>
				<dutyTel1>02-2602-7588</dutyTel1>
				<dutyTime1c>2100</dutyTime1c>
				<dutyTime1s>1300</dutyTime1s>
				<wgs84Lat>37.5253110878899</wgs84Lat>
				<wgs84Lon>126.864178774769</wgs84Lon>
			</item>
			<item>
				<dutyName>맑은샘이비인후과의원</dutyName>
				<dutyTel1>02-2601-0575</dutyTel1>
				<dutyTime1c>2000</dutyTime1c>
				<dutyTime1s>900</dutyTime1s>
				<wgs84Lat>37.5352536820427</wgs84Lat>
				<wgs84Lon>126.828337602058</wgs84Lon>
			</item>
			<item>
				<dutyName>맑은숲한의원</dutyName>
				<dutyTel1>02-2654-4320</dutyTel1>
				<dutyTime1c>1930</dutyTime1c>
				<dutyTime1s>930</dutyTime1s>
				<wgs84Lat>37.5370235608</wgs84Lat>
				<wgs84Lon>126.8839534603</wgs84Lon>
			</item>
			<item>
				<dutyName>매난국죽한의원</dutyName>
				<dutyTel1>02-2696-7918</dutyTel1>
				<dutyTime1c>1900</dutyTime1c>
				<dutyTime1s>930</dutyTime1s>
				<wgs84Lat>37.521363797549</wgs84Lat>
				<wgs84Lon>126.84040775694</wgs84Lon>
			</item>
			<item>
				<dutyName>메디포유의원</dutyName>
				<dutyTel1>02-2606-7501</dutyTel1>
				<dutyTime1c>1800</dutyTime1c>
				<dutyTime1s>1000</dutyTime1s>
				<wgs84Lat>37.5173346314</wgs84Lat>
				<wgs84Lon>126.8544426606</wgs84Lon>
			</item>
			<item>
				<dutyName>메디힐병원</dutyName>
				<dutyTel1>02-2604-7551</dutyTel1>
				<dutyTime1c>1800</dutyTime1c>
				<dutyTime1s>900</dutyTime1s>
				<wgs84Lat>37.5372614302298</wgs84Lat>
				<wgs84Lon>126.827841839165</wgs84Lon>
			</item>
			<item>
				<dutyName>메디힐치과의원</dutyName>
				<dutyTel1>02-2065-1275</dutyTel1>
				<dutyTime1c>1800</dutyTime1c>
				<dutyTime1s>900</dutyTime1s>
				<wgs84Lat>37.5375030094</wgs84Lat>
				<wgs84Lon>126.8279182231</wgs84Lon>
			</item>
			<item>
				<dutyName>메이플치과의원</dutyName>
				<dutyTel1>02-2602-5394</dutyTel1>
				<dutyTime1c>1830</dutyTime1c>
				<dutyTime1s>930</dutyTime1s>
				<wgs84Lat>37.5213762057638</wgs84Lat>
				<wgs84Lon>126.852728933262</wgs84Lon>
			</item>
			<item>
				<dutyName>명안과의원</dutyName>
				<dutyTel1>02-2605-2105</dutyTel1>
				<dutyTime1c>1800</dutyTime1c>
				<dutyTime1s>900</dutyTime1s>
				<wgs84Lat>37.5180073023537</wgs84Lat>
				<wgs84Lon>126.84222477234</wgs84Lon>
			</item>
			<item>
				<dutyName>명인한의원</dutyName>
				<dutyTel1>02-2062-1191</dutyTel1>
				<dutyTime1c>1900</dutyTime1c>
				<dutyTime1s>930</dutyTime1s>
				<wgs84Lat>37.5483145252817</wgs84Lat>
				<wgs84Lon>126.866558724179</wgs84Lon>
			</item>
			<item>
				<dutyName>목동경희한의원</dutyName>
				<dutyTel1>02-2605-1075</dutyTel1>
				<dutyTime1c>2100</dutyTime1c>
				<dutyTime1s>1000</dutyTime1s>
				<wgs84Lat>37.5264987026487</wgs84Lat>
				<wgs84Lon>126.863156194784</wgs84Lon>
			</item>
			<item>
				<dutyName>목동고운세상피부과의원</dutyName>
				<dutyTel1>02-2607-4378</dutyTel1>
				<dutyTime1c>2000</dutyTime1c>
				<dutyTime1s>1000</dutyTime1s>
				<wgs84Lat>37.5266546773528</wgs84Lat>
				<wgs84Lon>126.864015685953</wgs84Lon>
			</item>
			<item>
				<dutyName>목동동안의원</dutyName>
				<dutyTel1>02-2694-7585</dutyTel1>
				<dutyTime1c>2100</dutyTime1c>
				<dutyTime1s>1000</dutyTime1s>
				<wgs84Lat>37.5264604821</wgs84Lat>
				<wgs84Lon>126.8639323313</wgs84Lon>
			</item>
			<item>
				<dutyName>목동리더스피부과의원</dutyName>
				<dutyTel1>02-2605-2700</dutyTel1>
				<dutyTime1c>2000</dutyTime1c>
				<dutyTime1s>1030</dutyTime1s>
				<wgs84Lat>37.5260820776</wgs84Lat>
				<wgs84Lon>126.8703542151</wgs84Lon>
			</item>
			<item>
				<dutyName>목동모아치과의원</dutyName>
				<dutyTel1>02-2642-2830</dutyTel1>
				<dutyTime1c>1800</dutyTime1c>
				<dutyTime1s>930</dutyTime1s>
				<wgs84Lat>37.5468813507157</wgs84Lat>
				<wgs84Lon>126.870893056405</wgs84Lon>
			</item>
			<item>
				<dutyName>목동미소가인피부과의원</dutyName>
				<dutyTel1>02-2643-9900</dutyTel1>
				<dutyTime1c>2000</dutyTime1c>
				<dutyTime1s>1000</dutyTime1s>
				<wgs84Lat>37.5241311070978</wgs84Lat>
				<wgs84Lon>126.876269497</wgs84Lon>
			</item>
			<item>
				<dutyName>목동미앤정의원</dutyName>
				<dutyTel1>02-2649-5533</dutyTel1>
				<dutyTime1c>1900</dutyTime1c>
				<dutyTime1s>900</dutyTime1s>
				<wgs84Lat>37.5370250012296</wgs84Lat>
				<wgs84Lon>126.87143054087</wgs84Lon>
			</item>
			<item>
				<dutyName>목동부부치과의원</dutyName>
				<dutyTel1>02-2648-5700</dutyTel1>
				<dutyTime1c>1800</dutyTime1c>
				<dutyTime1s>1000</dutyTime1s>
				<wgs84Lat>37.5364181075597</wgs84Lat>
				<wgs84Lon>126.8786004199</wgs84Lon>
			</item>
			<item>
				<dutyName>목동서울이비인후과의원</dutyName>
				<dutyTel1>02-2065-5005</dutyTel1>
				<dutyTime1c>1900</dutyTime1c>
				<dutyTime1s>900</dutyTime1s>
				<wgs84Lat>37.5283271180792</wgs84Lat>
				<wgs84Lon>126.863725302574</wgs84Lon>
			</item>
			<item>
				<dutyName>목동서울치과의원</dutyName>
				<dutyTel1>02-2643-5979</dutyTel1>
				<dutyTime1c>1800</dutyTime1c>
				<dutyTime1s>1000</dutyTime1s>
				<wgs84Lat>37.5322408048819</wgs84Lat>
				<wgs84Lon>126.863987330031</wgs84Lon>
			</item>
			<item>
				<dutyName>목동센타치과의원</dutyName>
				<dutyTel1>02-2602-2875</dutyTel1>
				<dutyTime1c>1900</dutyTime1c>
				<dutyTime1s>930</dutyTime1s>
				<wgs84Lat>37.5214070723</wgs84Lat>
				<wgs84Lon>126.8514754828</wgs84Lon>
			</item>
			<item>
				<dutyName>목동수치과의원</dutyName>
				<dutyTel1>02-2648-2879</dutyTel1>
				<dutyTime1c>1900</dutyTime1c>
				<dutyTime1s>1000</dutyTime1s>
				<wgs84Lat>37.5465439891716</wgs84Lat>
				<wgs84Lon>126.872192713013</wgs84Lon>
			</item>
			<item>
				<dutyName>목동시원한의원</dutyName>
				<dutyTel1>02-2039-8888</dutyTel1>
				<dutyTime1c>1900</dutyTime1c>
				<dutyTime1s>1000</dutyTime1s>
				<wgs84Lat>37.5220143646</wgs84Lat>
				<wgs84Lon>126.8588363073</wgs84Lon>
			</item>
			<item>
				<dutyName>목동안치과의원</dutyName>
				<dutyTel1>02-2605-2879</dutyTel1>
				<dutyTime1c>1900</dutyTime1c>
				<dutyTime1s>1000</dutyTime1s>
				<wgs84Lat>37.5260990729045</wgs84Lat>
				<wgs84Lon>126.863059632388</wgs84Lon>
			</item>
			<item>
				<dutyName>목동연세365의원</dutyName>
				<dutyTel1>02-2643-0365</dutyTel1>
				<dutyTime1c>2200</dutyTime1c>
				<dutyTime1s>800</dutyTime1s>
				<wgs84Lat>37.524058199789</wgs84Lat>
				<wgs84Lon>126.875491319287</wgs84Lon>
			</item>
			<item>
				<dutyName>목동연세가정의학과의원</dutyName>
				<dutyTel1>02-2644-3650</dutyTel1>
				<dutyTime1c>1900</dutyTime1c>
				<dutyTime1s>900</dutyTime1s>
				<wgs84Lat>37.5419061196</wgs84Lat>
				<wgs84Lon>126.869331075</wgs84Lon>
			</item>
			<item>
				<dutyName>목동연세수산부인과의원</dutyName>
				<dutyTel1>02-2643-8272</dutyTel1>
				<dutyTime1c>1900</dutyTime1c>
				<dutyTime1s>930</dutyTime1s>
				<wgs84Lat>37.5328866886359</wgs84Lat>
				<wgs84Lon>126.864165037985</wgs84Lon>
			</item>
			<item>
				<dutyName>목동연세요양병원</dutyName>
				<dutyTel1>02-2601-0052</dutyTel1>
				<dutyTime1c>1800</dutyTime1c>
				<dutyTime1s>900</dutyTime1s>
				<wgs84Lat>37.5254331108888</wgs84Lat>
				<wgs84Lon>126.864171780616</wgs84Lon>
			</item>
			<item>
				<dutyName>목동연세이비인후과의원</dutyName>
				<dutyTel1>02-2645-1575</dutyTel1>
				<dutyTime1c>1830</dutyTime1c>
				<dutyTime1s>930</dutyTime1s>
				<wgs84Lat>37.5329871204602</wgs84Lat>
				<wgs84Lon>126.864239389728</wgs84Lon>
			</item>
			<item>
				<dutyName>목동연세정형외과의원</dutyName>
				<dutyTel1>02-2061-9119</dutyTel1>
				<dutyTime1c>1900</dutyTime1c>
				<dutyTime1s>1000</dutyTime1s>
				<wgs84Lat>37.5370235608</wgs84Lat>
				<wgs84Lon>126.8839534603</wgs84Lon>
			</item>
			<item>
				<dutyName>목동예스치과의원</dutyName>
				<dutyTel1>02-2607-2275</dutyTel1>
				<dutyTime1c>1830</dutyTime1c>
				<dutyTime1s>930</dutyTime1s>
				<wgs84Lat>37.5260037341</wgs84Lat>
				<wgs84Lon>126.8616570098</wgs84Lon>
			</item>
			<item>
				<dutyName>목동예치과병원</dutyName>
				<dutyTel1>02-6200-8801</dutyTel1>
				<dutyTime1c>1830</dutyTime1c>
				<dutyTime1s>930</dutyTime1s>
				<wgs84Lat>37.5256625985061</wgs84Lat>
				<wgs84Lon>126.859657532092</wgs84Lon>
			</item>
			<item>
				<dutyName>목동은한의원</dutyName>
				<dutyTel1>02-2643-7975</dutyTel1>
				<dutyTime1c>1900</dutyTime1c>
				<dutyTime1s>930</dutyTime1s>
				<wgs84Lat>37.53639824</wgs84Lat>
				<wgs84Lon>126.8785506479</wgs84Lon>
			</item>
			<item>
				<dutyName>목동이안치과의원</dutyName>
				<dutyTel1>02-2646-2872</dutyTel1>
				<dutyTime1c>1900</dutyTime1c>
				<dutyTime1s>1000</dutyTime1s>
				<wgs84Lat>37.5241566774473</wgs84Lat>
				<wgs84Lon>126.876271774398</wgs84Lon>
			</item>
			<item>
				<dutyName>목동인의한의원</dutyName>
				<dutyTel1>02-2062-8275</dutyTel1>
				<dutyTime1c>1900</dutyTime1c>
				<dutyTime1s>930</dutyTime1s>
				<wgs84Lat>37.5188453385134</wgs84Lat>
				<wgs84Lon>126.873782899601</wgs84Lon>
			</item>
			<item>
				<dutyName>목동정형외과의원</dutyName>
				<dutyTel1>02-2062-0507</dutyTel1>
				<dutyTime1c>1900</dutyTime1c>
				<dutyTime1s>900</dutyTime1s>
				<wgs84Lat>37.5259879805876</wgs84Lat>
				<wgs84Lon>126.870388269702</wgs84Lon>
			</item>
			<item>
				<dutyName>목동제일내과의원</dutyName>
				<dutyTel1>02-2643-9888</dutyTel1>
				<dutyTime1c>1830</dutyTime1c>
				<dutyTime1s>900</dutyTime1s>
				<wgs84Lat>37.5223423027183</wgs84Lat>
				<wgs84Lon>126.874798532574</wgs84Lon>
			</item>
			<item>
				<dutyName>목동제일정형외과의원</dutyName>
				<dutyTel1>02-2651-8275</dutyTel1>
				<dutyTime1c>1700</dutyTime1c>
				<dutyTime1s>900</dutyTime1s>
				<wgs84Lat>37.5223170484</wgs84Lat>
				<wgs84Lon>126.8747680109</wgs84Lon>
			</item>
			<item>
				<dutyName>목동제일치과의원</dutyName>
				<dutyTel1>02-2653-0005</dutyTel1>
				<dutyTime1c>1830</dutyTime1c>
				<dutyTime1s>930</dutyTime1s>
				<wgs84Lat>37.5223170484274</wgs84Lat>
				<wgs84Lon>126.874768010949</wgs84Lon>
			</item>
			<item>
				<dutyName>목동중앙치과병원</dutyName>
				<dutyTel1>1544-2875</dutyTel1>
				<dutyTime1c>1900</dutyTime1c>
				<dutyTime1s>930</dutyTime1s>
				<wgs84Lat>37.5218568415774</wgs84Lat>
				<wgs84Lon>126.869139803107</wgs84Lon>
			</item>
			<item>
				<dutyName>목동치과의원</dutyName>
				<dutyTel1>02-2648-3275</dutyTel1>
				<dutyTime1c>1800</dutyTime1c>
				<dutyTime1s>900</dutyTime1s>
				<wgs84Lat>37.5393967086457</wgs84Lat>
				<wgs84Lon>126.865734773022</wgs84Lon>
			</item>
			<item>
				<dutyName>목동코엔이비인후과의원</dutyName>
				<dutyTel1>02-2644-5119</dutyTel1>
				<dutyTime1c>1930</dutyTime1c>
				<dutyTime1s>900</dutyTime1s>
				<wgs84Lat>37.5255446771987</wgs84Lat>
				<wgs84Lon>126.870375470325</wgs84Lon>
			</item>
			<item>
				<dutyName>목동크라운치과의원</dutyName>
				<dutyTel1>02-2642-8228</dutyTel1>
				<dutyTime1c>1830</dutyTime1c>
				<dutyTime1s>930</dutyTime1s>
				<wgs84Lat>37.5495722222222</wgs84Lat>
				<wgs84Lon>126.863980555556</wgs84Lon>
			</item>
			<item>
				<dutyName>목동키즈웰소아청소년과의원</dutyName>
				<dutyTel1>02-2643-2124</dutyTel1>
				<dutyTime1c>2100</dutyTime1c>
				<dutyTime1s>1000</dutyTime1s>
				<wgs84Lat>37.5255985809154</wgs84Lat>
				<wgs84Lon>126.870235098171</wgs84Lon>
			</item>
			<item>
				<dutyName>목동키즈치과의원</dutyName>
				<dutyTel1>02-2061-2280</dutyTel1>
				<dutyTime1c>1830</dutyTime1c>
				<dutyTime1s>1000</dutyTime1s>
				<wgs84Lat>37.5370629759253</wgs84Lat>
				<wgs84Lon>126.880502108988</wgs84Lon>
			</item>
			<item>
				<dutyName>목동킴스의원</dutyName>
				<dutyTel1>02-2648-1519</dutyTel1>
				<dutyTime1c>1830</dutyTime1c>
				<dutyTime1s>900</dutyTime1s>
				<wgs84Lat>37.543977847003</wgs84Lat>
				<wgs84Lon>126.862481524911</wgs84Lon>
			</item>
			<item>
				<dutyName>목동탑치과의원</dutyName>
				<dutyTel1>02-2061-3360</dutyTel1>
				<dutyTime1c>1900</dutyTime1c>
				<dutyTime1s>930</dutyTime1s>
				<wgs84Lat>37.5158758360365</wgs84Lat>
				<wgs84Lon>126.861510791026</wgs84Lon>
			</item>
			<item>
				<dutyName>목동플랜트치과의원</dutyName>
				<dutyTel1>02-2646-2275</dutyTel1>
				<dutyTime1c>1830</dutyTime1c>
				<dutyTime1s>930</dutyTime1s>
				<wgs84Lat>37.515773294</wgs84Lat>
				<wgs84Lon>126.8628070305</wgs84Lon>
			</item>
			<item>
				<dutyName>목동하나이비인후과의원</dutyName>
				<dutyTel1>02-2062-0601</dutyTel1>
				<dutyTime1c>1900</dutyTime1c>
				<dutyTime1s>900</dutyTime1s>
				<wgs84Lat>37.5245996466</wgs84Lat>
				<wgs84Lon>126.8692798146</wgs84Lon>
			</item>
			<item>
				<dutyName>목동한의원</dutyName>
				<dutyTel1>02-2643-7799</dutyTel1>
				<dutyTime1c>1900</dutyTime1c>
				<dutyTime1s>900</dutyTime1s>
				<wgs84Lat>37.5322013648994</wgs84Lat>
				<wgs84Lon>126.876801569959</wgs84Lon>
			</item>
			<item>
				<dutyName>목동힘찬병원</dutyName>
				<dutyTel1>02-1899-2221</dutyTel1>
				<dutyTime1c>1800</dutyTime1c>
				<dutyTime1s>900</dutyTime1s>
				<wgs84Lat>37.5249825943</wgs84Lat>
				<wgs84Lon>126.8768450968</wgs84Lon>
			</item>
			<item>
				<dutyName>목사랑한의원</dutyName>
				<dutyTel1>02-2648-1075</dutyTel1>
				<dutyTime1c>1830</dutyTime1c>
				<dutyTime1s>900</dutyTime1s>
				<wgs84Lat>37.5391882891</wgs84Lat>
				<wgs84Lon>126.8657467411</wgs84Lon>
			</item>
			<item>
				<dutyName>목양한의원</dutyName>
				<dutyTel1>02-2647-3399</dutyTel1>
				<dutyTime1c>1830</dutyTime1c>
				<dutyTime1s>930</dutyTime1s>
				<wgs84Lat>37.5155983138814</wgs84Lat>
				<wgs84Lon>126.861497735991</wgs84Lon>
			</item>
			<item>
				<dutyName>문국일치과의원</dutyName>
				<dutyTel1>02-2601-2875</dutyTel1>
				<dutyTime1c>1830</dutyTime1c>
				<dutyTime1s>930</dutyTime1s>
				<wgs84Lat>37.5245925400042</wgs84Lat>
				<wgs84Lon>126.853985104296</wgs84Lon>
			</item>
			<item>
				<dutyName>문복강치과의원</dutyName>
				<dutyTel1>02-2646-1327</dutyTel1>
				<dutyTime1c>1800</dutyTime1c>
				<dutyTime1s>900</dutyTime1s>
				<wgs84Lat>37.5466694264114</wgs84Lat>
				<wgs84Lon>126.872076597867</wgs84Lon>
			</item>
			<item>
				<dutyName>문형한내과의원</dutyName>
				<dutyTel1>02-2604-7588</dutyTel1>
				<dutyTime1c>1830</dutyTime1c>
				<dutyTime1s>900</dutyTime1s>
				<wgs84Lat>37.5191868833497</wgs84Lat>
				<wgs84Lon>126.843027692171</wgs84Lon>
			</item>
			<item>
				<dutyName>미그린치과의원</dutyName>
				<dutyTel1>02-2650-8750</dutyTel1>
				<dutyTime1c>1900</dutyTime1c>
				<dutyTime1s>1000</dutyTime1s>
				<wgs84Lat>37.5174051836134</wgs84Lat>
				<wgs84Lon>126.86530616446</wgs84Lon>
			</item>
			<item>
				<dutyName>미래미소치과의원</dutyName>
				<dutyTel1>02-2694-2875</dutyTel1>
				<dutyTime1c>1830</dutyTime1c>
				<dutyTime1s>1000</dutyTime1s>
				<wgs84Lat>37.5257780095836</wgs84Lat>
				<wgs84Lon>126.863243502665</wgs84Lon>
			</item>
			<item>
				<dutyName>미래플러스의원</dutyName>
				<dutyTel1>02-2066-8787</dutyTel1>
				<dutyTime1c>1830</dutyTime1c>
				<dutyTime1s>900</dutyTime1s>
				<wgs84Lat>37.5126767247024</wgs84Lat>
				<wgs84Lon>126.838049843632</wgs84Lon>
			</item>
			<item>
				<dutyName>미셀의원</dutyName>
				<dutyTel1>02-2642-1130</dutyTel1>
				<dutyTime1c>1900</dutyTime1c>
				<dutyTime1s>1000</dutyTime1s>
				<wgs84Lat>37.5304613300861</wgs84Lat>
				<wgs84Lon>126.864282571946</wgs84Lon>
			</item>
			<item>
				<dutyName>미소담은치과의원</dutyName>
				<dutyTel1>02-2651-2260</dutyTel1>
				<dutyTime1c>1900</dutyTime1c>
				<dutyTime1s>1000</dutyTime1s>
				<wgs84Lat>37.5198555735031</wgs84Lat>
				<wgs84Lon>126.853417640353</wgs84Lon>
			</item>
			<item>
				<dutyName>미소안치과의원</dutyName>
				<dutyTel1>02-2695-2080</dutyTel1>
				<dutyTime1c>1830</dutyTime1c>
				<dutyTime1s>930</dutyTime1s>
				<wgs84Lat>37.5227123133127</wgs84Lat>
				<wgs84Lon>126.833671757505</wgs84Lon>
			</item>
			<item>
				<dutyName>미소치과의원</dutyName>
				<dutyTel1>02-2643-2889</dutyTel1>
				<dutyTime1c>1830</dutyTime1c>
				<dutyTime1s>1000</dutyTime1s>
				<wgs84Lat>37.5177465467055</wgs84Lat>
				<wgs84Lon>126.870848250536</wgs84Lon>
			</item>
			<item>
				<dutyName>미소하임치과의원</dutyName>
				<dutyTel1>02-2602-2879</dutyTel1>
				<dutyTime1c>1830</dutyTime1c>
				<dutyTime1s>930</dutyTime1s>
				<wgs84Lat>37.5360069395</wgs84Lat>
				<wgs84Lon>126.8276365385</wgs84Lon>
			</item>
			<item>
				<dutyName>미소한의원</dutyName>
				<dutyTel1>02-2061-5075</dutyTel1>
				<dutyTime1c>2000</dutyTime1c>
				<dutyTime1s>1000</dutyTime1s>
				<wgs84Lat>37.5481393849043</wgs84Lat>
				<wgs84Lon>126.865463646636</wgs84Lon>
			</item>
			<item>
				<dutyName>미앤미의원</dutyName>
				<dutyTel1>02-2692-1131</dutyTel1>
				<dutyTime1c>2000</dutyTime1c>
				<dutyTime1s>1000</dutyTime1s>
				<wgs84Lat>37.5264994783</wgs84Lat>
				<wgs84Lon>126.863371138</wgs84Lon>
			</item>
			<item>
				<dutyName>미앤아이의원</dutyName>
				<dutyTel1>02-2061-6588</dutyTel1>
				<dutyTime1c>2000</dutyTime1c>
				<dutyTime1s>1300</dutyTime1s>
				<wgs84Lat>37.5495547404398</wgs84Lat>
				<wgs84Lon>126.866950325222</wgs84Lon>
			</item>
			<item>
				<dutyName>미올한의원</dutyName>
				<dutyTel1>02-2645-7255</dutyTel1>
				<dutyTime1c>2030</dutyTime1c>
				<dutyTime1s>1030</dutyTime1s>
				<wgs84Lat>37.5246891360309</wgs84Lat>
				<wgs84Lon>126.872012802006</wgs84Lon>
			</item>
			<item>
				<dutyName>미유인한의원</dutyName>
				<dutyTel1>02-2603-1077</dutyTel1>
				<dutyTime1c>2000</dutyTime1c>
				<dutyTime1s>1000</dutyTime1s>
				<wgs84Lat>37.5280737011</wgs84Lat>
				<wgs84Lon>126.8627437786</wgs84Lon>
			</item>
			<item>
				<dutyName>미플란트치과의원</dutyName>
				<dutyTel1>02-2652-2829</dutyTel1>
				<dutyTime1c>1830</dutyTime1c>
				<dutyTime1s>1000</dutyTime1s>
				<wgs84Lat>37.5468351654</wgs84Lat>
				<wgs84Lon>126.8715042015</wgs84Lon>
			</item>
			<item>
				<dutyName>민동환치과의원</dutyName>
				<dutyTel1>02-2651-5475</dutyTel1>
				<dutyTime1c>1830</dutyTime1c>
				<dutyTime1s>930</dutyTime1s>
				<wgs84Lat>37.5392533443367</wgs84Lat>
				<wgs84Lon>126.866427497997</wgs84Lon>
			</item>
			<item>
				<dutyName>민병일정형외과의원</dutyName>
				<dutyTel1>02-2651-0989</dutyTel1>
				<dutyTime1c>1900</dutyTime1c>
				<dutyTime1s>900</dutyTime1s>
				<wgs84Lat>37.5370886147305</wgs84Lat>
				<wgs84Lon>126.88052733297</wgs84Lon>
			</item>
			<item>
				<dutyName>민준식이비인후과의원</dutyName>
				<dutyTel1>02-2651-5333</dutyTel1>
				<dutyTime1c>1830</dutyTime1c>
				<dutyTime1s>930</dutyTime1s>
				<wgs84Lat>37.5363946397174</wgs84Lat>
				<wgs84Lon>126.878559725926</wgs84Lon>
			</item>
			<item>
				<dutyName>바로한의원</dutyName>
				<dutyTel1>02-2602-4375</dutyTel1>
				<dutyTime1c>1900</dutyTime1c>
				<dutyTime1s>930</dutyTime1s>
				<wgs84Lat>37.5224949687</wgs84Lat>
				<wgs84Lon>126.8427266202</wgs84Lon>
			</item>
			<item>
				<dutyName>바른몸정형외과의원</dutyName>
				<dutyTel1>02-2648-7773</dutyTel1>
				<dutyTime1c>1900</dutyTime1c>
				<dutyTime1s>930</dutyTime1s>
				<wgs84Lat>37.5328866886359</wgs84Lat>
				<wgs84Lon>126.864165037985</wgs84Lon>
			</item>
			<item>
				<dutyName>바른생각치과의원</dutyName>
				<dutyTel1>02-2691-0010</dutyTel1>
				<dutyTime1c>1830</dutyTime1c>
				<dutyTime1s>930</dutyTime1s>
				<wgs84Lat>37.5186920737443</wgs84Lat>
				<wgs84Lon>126.836920351828</wgs84Lon>
			</item>
			<item>
				<dutyName>박내과의원</dutyName>
				<dutyTel1>02-2646-5377</dutyTel1>
				<dutyTime1c>1900</dutyTime1c>
				<dutyTime1s>900</dutyTime1s>
				<wgs84Lat>37.5481402130944</wgs84Lat>
				<wgs84Lon>126.865981449627</wgs84Lon>
			</item>
			<item>
				<dutyName>박동권치과의원</dutyName>
				<dutyTel1>02-2648-7245</dutyTel1>
				<dutyTime1c>1700</dutyTime1c>
				<dutyTime1s>1000</dutyTime1s>
				<wgs84Lat>37.5149830911684</wgs84Lat>
				<wgs84Lon>126.865134062695</wgs84Lon>
			</item>
			<item>
				<dutyName>박연천치과의원</dutyName>
				<dutyTel1>02-2693-0110</dutyTel1>
				<dutyTime1c>1800</dutyTime1c>
				<dutyTime1s>930</dutyTime1s>
				<wgs84Lat>37.5220339700929</wgs84Lat>
				<wgs84Lon>126.842962883251</wgs84Lon>
			</item>
			<item>
				<dutyName>박영수치과의원</dutyName>
				<dutyTel1>02-2643-0889</dutyTel1>
				<dutyTime1c>1830</dutyTime1c>
				<dutyTime1s>930</dutyTime1s>
				<wgs84Lat>37.5327136136</wgs84Lat>
				<wgs84Lon>126.864092943</wgs84Lon>
			</item>
			<item>
				<dutyName>박원기치과의원</dutyName>
				<dutyTel1>02-2642-0028</dutyTel1>
				<dutyTime1c>1830</dutyTime1c>
				<dutyTime1s>1000</dutyTime1s>
				<wgs84Lat>37.5373175153083</wgs84Lat>
				<wgs84Lon>126.871968592453</wgs84Lon>
			</item>
			<item>
				<dutyName>박은실한의원</dutyName>
				<dutyTel1>02-2060-7525</dutyTel1>
				<dutyTime1c>1900</dutyTime1c>
				<dutyTime1s>930</dutyTime1s>
				<wgs84Lat>37.5362727501</wgs84Lat>
				<wgs84Lon>126.8791844596</wgs84Lon>
			</item>
			<item>
				<dutyName>박은주소아과의원</dutyName>
				<dutyTel1>02-2694-1527</dutyTel1>
				<dutyTime1c>1800</dutyTime1c>
				<dutyTime1s>930</dutyTime1s>
				<wgs84Lat>37.5132814217613</wgs84Lat>
				<wgs84Lon>126.855504713743</wgs84Lon>
			</item>
			<item>
				<dutyName>박장환피부과의원</dutyName>
				<dutyTel1>02-2646-5535</dutyTel1>
				<dutyTime1c>1800</dutyTime1c>
				<dutyTime1s>930</dutyTime1s>
				<wgs84Lat>37.5198923678798</wgs84Lat>
				<wgs84Lon>126.859910576826</wgs84Lon>
			</item>
			<item>
				<dutyName>박재균이비인후과의원</dutyName>
				<dutyTel1>02-2643-1177</dutyTel1>
				<dutyTime1c>1830</dutyTime1c>
				<dutyTime1s>900</dutyTime1s>
				<wgs84Lat>37.549551487653</wgs84Lat>
				<wgs84Lon>126.864098609675</wgs84Lon>
			</item>
			<item>
				<dutyName>박주진산부인과의원</dutyName>
				<dutyTel1>02-2653-0098</dutyTel1>
				<dutyTime1c>1830</dutyTime1c>
				<dutyTime1s>930</dutyTime1s>
				<wgs84Lat>37.525295788566</wgs84Lat>
				<wgs84Lon>126.873111387638</wgs84Lon>
			</item>
			<item>
				<dutyName>박한수한의원</dutyName>
				<dutyTel1>02-2642-1025</dutyTel1>
				<dutyTime1c>1900</dutyTime1c>
				<dutyTime1s>930</dutyTime1s>
				<wgs84Lat>37.5360048579455</wgs84Lat>
				<wgs84Lon>126.87802631878</wgs84Lon>
			</item>
			<item>
				<dutyName>발머스한의원</dutyName>
				<dutyTel1>02-3447-7010</dutyTel1>
				<dutyTime1c>2100</dutyTime1c>
				<dutyTime1s>1400</dutyTime1s>
				<wgs84Lat>37.526665309333</wgs84Lat>
				<wgs84Lon>126.863411562236</wgs84Lon>
			</item>
			<item>
				<dutyName>밝은미래산부인과의원</dutyName>
				<dutyTel1>02-2687-3555</dutyTel1>
				<dutyTime1c>1800</dutyTime1c>
				<dutyTime1s>900</dutyTime1s>
				<wgs84Lat>37.5107195083976</wgs84Lat>
				<wgs84Lon>126.841860057958</wgs84Lon>
			</item>
			<item>
				<dutyName>밝은미소치과의원</dutyName>
				<dutyTel1>02-2695-0028</dutyTel1>
				<dutyTime1c>1830</dutyTime1c>
				<dutyTime1s>930</dutyTime1s>
				<wgs84Lat>37.5220194444444</wgs84Lat>
				<wgs84Lon>126.843313888889</wgs84Lon>
			</item>
			<item>
				<dutyName>밝은서울안과의원</dutyName>
				<dutyTel1>02-2694-0775</dutyTel1>
				<dutyTime1c>1800</dutyTime1c>
				<dutyTime1s>930</dutyTime1s>
				<wgs84Lat>37.5207809185</wgs84Lat>
				<wgs84Lon>126.8522278466</wgs84Lon>
			</item>
			<item>
				<dutyName>방소아청소년과의원</dutyName>
				<dutyTel1>02-2696-5421</dutyTel1>
				<dutyTime1c>1830</dutyTime1c>
				<dutyTime1s>900</dutyTime1s>
				<wgs84Lat>37.5257057799596</wgs84Lat>
				<wgs84Lon>126.862666664711</wgs84Lon>
			</item>
			<item>
				<dutyName>백경한의원</dutyName>
				<dutyTel1>02-2690-1511</dutyTel1>
				<dutyTime1c>1900</dutyTime1c>
				<dutyTime1s>930</dutyTime1s>
				<wgs84Lat>37.5216111103419</wgs84Lat>
				<wgs84Lon>126.834180968551</wgs84Lon>
			</item>
			<item>
				<dutyName>백기훈신경과의원</dutyName>
				<dutyTel1>02-2690-2075</dutyTel1>
				<dutyTime1c>1800</dutyTime1c>
				<dutyTime1s>900</dutyTime1s>
				<wgs84Lat>37.5257527553109</wgs84Lat>
				<wgs84Lon>126.863220923777</wgs84Lon>
			</item>
			<item>
				<dutyName>백산한의원</dutyName>
				<dutyTel1>02-2602-6813</dutyTel1>
				<dutyTime1c>1830</dutyTime1c>
				<dutyTime1s>900</dutyTime1s>
				<wgs84Lat>37.5358952253</wgs84Lat>
				<wgs84Lon>126.8301304821</wgs84Lon>
			</item>
			<item>
				<dutyName>백진우치과의원</dutyName>
				<dutyTel1>02-2606-3988</dutyTel1>
				<dutyTime1c>1830</dutyTime1c>
				<dutyTime1s>930</dutyTime1s>
				<wgs84Lat>37.5172531982448</wgs84Lat>
				<wgs84Lon>126.871215595262</wgs84Lon>
			</item>
			<item>
				<dutyName>베스트덴치과의원</dutyName>
				<dutyTel1>02-2644-2278</dutyTel1>
				<dutyTime1c>1800</dutyTime1c>
				<dutyTime1s>900</dutyTime1s>
				<wgs84Lat>37.5252117029203</wgs84Lat>
				<wgs84Lon>126.87536953633</wgs84Lon>
			</item>
			<item>
				<dutyName>벼리한의원</dutyName>
				<dutyTel1>02-2692-5672</dutyTel1>
				<dutyTime1c>2100</dutyTime1c>
				<dutyTime1s>900</dutyTime1s>
				<wgs84Lat>37.5177445035641</wgs84Lat>
				<wgs84Lon>126.853645525784</wgs84Lon>
			</item>
			<item>
				<dutyName>변정섭내과의원</dutyName>
				<dutyTel1>02-2601-2229</dutyTel1>
				<dutyTime1c>1830</dutyTime1c>
				<dutyTime1s>900</dutyTime1s>
				<wgs84Lat>37.5183893274216</wgs84Lat>
				<wgs84Lon>126.853413527722</wgs84Lon>
			</item>
			<item>
				<dutyName>변종언치과의원</dutyName>
				<dutyTel1>02-2697-8688</dutyTel1>
				<dutyTime1c>1800</dutyTime1c>
				<dutyTime1s>900</dutyTime1s>
				<wgs84Lat>37.5224666722594</wgs84Lat>
				<wgs84Lon>126.843129398993</wgs84Lon>
			</item>
			<item>
				<dutyName>복음한의원</dutyName>
				<dutyTel1>02-2605-2191</dutyTel1>
				<dutyTime1c>1900</dutyTime1c>
				<dutyTime1s>930</dutyTime1s>
				<wgs84Lat>37.5396279734334</wgs84Lat>
				<wgs84Lon>126.827707433064</wgs84Lon>
			</item>
			<item>
				<dutyName>본이비인후과의원</dutyName>
				<dutyTel1>02-2642-5333</dutyTel1>
				<dutyTime1c>1900</dutyTime1c>
				<dutyTime1s>900</dutyTime1s>
				<wgs84Lat>37.5483066379371</wgs84Lat>
				<wgs84Lon>126.866542429654</wgs84Lon>
			</item>
			<item>
				<dutyName>본치과의원</dutyName>
				<dutyTel1>02-2654-2497</dutyTel1>
				<dutyTime1c>1830</dutyTime1c>
				<dutyTime1s>1000</dutyTime1s>
				<wgs84Lat>37.5188453385134</wgs84Lat>
				<wgs84Lon>126.873782899601</wgs84Lon>
			</item>
			<item>
				<dutyName>본피부과의원</dutyName>
				<dutyTel1>02-2062-8700</dutyTel1>
				<dutyTime1c>2000</dutyTime1c>
				<dutyTime1s>1000</dutyTime1s>
				<wgs84Lat>37.5281782237</wgs84Lat>
				<wgs84Lon>126.8757718764</wgs84Lon>
			</item>
			<item>
				<dutyName>봄빛내과의원</dutyName>
				<dutyTel1>02-2695-1517</dutyTel1>
				<dutyTime1c>1900</dutyTime1c>
				<dutyTime1s>900</dutyTime1s>
				<wgs84Lat>37.5301316485515</wgs84Lat>
				<wgs84Lon>126.837893433025</wgs84Lon>
			</item>
			<item>
				<dutyName>봄빛산부인과의원</dutyName>
				<dutyTel1>02-2601-2511</dutyTel1>
				<dutyTime1c>1800</dutyTime1c>
				<dutyTime1s>900</dutyTime1s>
				<wgs84Lat>37.5359889469763</wgs84Lat>
				<wgs84Lon>126.827659229214</wgs84Lon>
			</item>
			<item>
				<dutyName>뷰다임의원</dutyName>
				<dutyTel1>02-2643-1333</dutyTel1>
				<dutyTime1c>1900</dutyTime1c>
				<dutyTime1s>1000</dutyTime1s>
				<wgs84Lat>37.5282314576178</wgs84Lat>
				<wgs84Lon>126.874988913612</wgs84Lon>
			</item>
			<item>
				<dutyName>비젼치과의원</dutyName>
				<dutyTel1>02-2699-2833</dutyTel1>
				<dutyTime1c>1830</dutyTime1c>
				<dutyTime1s>930</dutyTime1s>
				<wgs84Lat>37.5221829611</wgs84Lat>
				<wgs84Lon>126.8333380681</wgs84Lon>
			</item>
			<item>
				<dutyName>빛샘한의원</dutyName>
				<dutyTel1>02-2654-7587</dutyTel1>
				<dutyTime1c>1830</dutyTime1c>
				<dutyTime1s>1000</dutyTime1s>
				<wgs84Lat>37.5252549735798</wgs84Lat>
				<wgs84Lon>126.875396635547</wgs84Lon>
			</item>
			<item>
				<dutyName>뽀빠이마취통증의학과의원</dutyName>
				<dutyTel1>02-2062-9082</dutyTel1>
				<dutyTime1c>1900</dutyTime1c>
				<dutyTime1s>1000</dutyTime1s>
				<wgs84Lat>37.5251089396456</wgs84Lat>
				<wgs84Lon>126.873627544675</wgs84Lon>
			</item>
			<item>
				<dutyName>뿌리한의원</dutyName>
				<dutyTel1>02-2698-6116</dutyTel1>
				<dutyTime1c>1900</dutyTime1c>
				<dutyTime1s>930</dutyTime1s>
				<wgs84Lat>37.5272785211566</wgs84Lat>
				<wgs84Lon>126.863876563233</wgs84Lon>
			</item>
			<item>
				<dutyName>사단법인대한보건의료진흥회용치과의원</dutyName>
				<dutyTel1>02-2695-0700</dutyTel1>
				<dutyTime1c>1800</dutyTime1c>
				<dutyTime1s>930</dutyTime1s>
				<wgs84Lat>37.5311104536</wgs84Lat>
				<wgs84Lon>126.8336033095</wgs84Lon>
			</item>
			<item>
				<dutyName>사단법인한국자동차후유장애인협회목동밸런스의원</dutyName>
				<dutyTel1>1670-7176</dutyTel1>
				<dutyTime1c>1900</dutyTime1c>
				<dutyTime1s>930</dutyTime1s>
				<wgs84Lat>37.526705408</wgs84Lat>
				<wgs84Lon>126.863805181</wgs84Lon>
			</item>
			<item>
				<dutyName>사단법인한국자동차후유장애인협회척바른의원</dutyName>
				<dutyTel1>02-2606-9975</dutyTel1>
				<dutyTime1c>1800</dutyTime1c>
				<dutyTime1s>900</dutyTime1s>
				<wgs84Lat>37.5214070723</wgs84Lat>
				<wgs84Lon>126.8514754828</wgs84Lon>
			</item>
			<item>
				<dutyName>사람사랑치과의원</dutyName>
				<dutyTel1>02-2605-2275</dutyTel1>
				<dutyTime1c>2100</dutyTime1c>
				<dutyTime1s>900</dutyTime1s>
				<wgs84Lat>37.5266689351073</wgs84Lat>
				<wgs84Lon>126.863879905144</wgs84Lon>
			</item>
			<item>
				<dutyName>사랑의치과의원</dutyName>
				<dutyTel1>02-2065-2875</dutyTel1>
				<dutyTime1c>1800</dutyTime1c>
				<dutyTime1s>930</dutyTime1s>
				<wgs84Lat>37.5301757785476</wgs84Lat>
				<wgs84Lon>126.837895466765</wgs84Lon>
			</item>
			<item>
				<dutyName>산타클로스치과의원</dutyName>
				<dutyTel1>02-2642-7528</dutyTel1>
				<dutyTime1c>1900</dutyTime1c>
				<dutyTime1s>1000</dutyTime1s>
				<wgs84Lat>37.5328866886359</wgs84Lat>
				<wgs84Lon>126.864165037985</wgs84Lon>
			</item>
			<item>
				<dutyName>삼성드림의원</dutyName>
				<dutyTel1>02-2699-0011</dutyTel1>
				<dutyTime1c>1900</dutyTime1c>
				<dutyTime1s>900</dutyTime1s>
				<wgs84Lat>37.5127389737213</wgs84Lat>
				<wgs84Lon>126.832291323796</wgs84Lon>
			</item>
			<item>
				<dutyName>삼성마취통증의학과의원</dutyName>
				<dutyTel1>02-2653-8275</dutyTel1>
				<dutyTime1c>1900</dutyTime1c>
				<dutyTime1s>900</dutyTime1s>
				<wgs84Lat>37.5088465462222</wgs84Lat>
				<wgs84Lon>126.866099712765</wgs84Lon>
			</item>
			<item>
				<dutyName>삼성바른치과의원</dutyName>
				<dutyTel1>02-2654-2275</dutyTel1>
				<dutyTime1c>1830</dutyTime1c>
				<dutyTime1s>930</dutyTime1s>
				<wgs84Lat>37.5216948801146</wgs84Lat>
				<wgs84Lon>126.859904783404</wgs84Lon>
			</item>
			<item>
				<dutyName>삼성치과의원</dutyName>
				<dutyTel1>02-2605-0895</dutyTel1>
				<dutyTime1c>1830</dutyTime1c>
				<dutyTime1s>930</dutyTime1s>
				<wgs84Lat>37.5222666666667</wgs84Lat>
				<wgs84Lon>126.8415</wgs84Lon>
			</item>
			<item>
				<dutyName>삼성키즈소아청소년과의원</dutyName>
				<dutyTel1>02-2062-7575</dutyTel1>
				<dutyTime1c>1930</dutyTime1c>
				<dutyTime1s>830</dutyTime1s>
				<wgs84Lat>37.5328866886</wgs84Lat>
				<wgs84Lon>126.864165038</wgs84Lon>
			</item>
			<item>
				<dutyName>삼성탑신경외과의원</dutyName>
				<dutyTel1>02-2696-7533</dutyTel1>
				<dutyTime1c>1900</dutyTime1c>
				<dutyTime1s>900</dutyTime1s>
				<wgs84Lat>37.5242234601138</wgs84Lat>
				<wgs84Lon>126.8416550818</wgs84Lon>
			</item>
			<item>
				<dutyName>삼일이비인후과의원</dutyName>
				<dutyTel1>02-2691-0020</dutyTel1>
				<dutyTime1c>1830</dutyTime1c>
				<dutyTime1s>900</dutyTime1s>
				<wgs84Lat>37.5217695783369</wgs84Lat>
				<wgs84Lon>126.834108240095</wgs84Lon>
			</item>
			<item>
				<dutyName>상내과의원</dutyName>
				<dutyTel1>02-312-0839</dutyTel1>
				<dutyTime1c>1830</dutyTime1c>
				<dutyTime1s>900</dutyTime1s>
				<wgs84Lat>37.518650588291</wgs84Lat>
				<wgs84Lon>126.873962025631</wgs84Lon>
			</item>
			<item>
				<dutyName>상현한의원</dutyName>
				<dutyTel1>02-2607-7510</dutyTel1>
				<dutyTime1c>1900</dutyTime1c>
				<dutyTime1s>1000</dutyTime1s>
				<wgs84Lat>37.5283307579561</wgs84Lat>
				<wgs84Lon>126.863761518854</wgs84Lon>
			</item>
			<item>
				<dutyName>새이플란트치과의원</dutyName>
				<dutyTel1>02-2601-8228</dutyTel1>
				<dutyTime1c>1830</dutyTime1c>
				<dutyTime1s>930</dutyTime1s>
				<wgs84Lat>37.5253110879</wgs84Lat>
				<wgs84Lon>126.8641787748</wgs84Lon>
			</item>
			<item>
				<dutyName>샘터한의원</dutyName>
				<dutyTel1>02-2647-3322</dutyTel1>
				<dutyTime1c>1800</dutyTime1c>
				<dutyTime1s>900</dutyTime1s>
				<wgs84Lat>37.509454707</wgs84Lat>
				<wgs84Lon>126.8621625936</wgs84Lon>
			</item>
			<item>
				<dutyName>생명나무한의원</dutyName>
				<dutyTel1>02-2645-7515</dutyTel1>
				<dutyTime1c>1900</dutyTime1c>
				<dutyTime1s>900</dutyTime1s>
				<wgs84Lat>37.5218424445048</wgs84Lat>
				<wgs84Lon>126.869162473305</wgs84Lon>
			</item>
			<item>
				<dutyName>샤인의원</dutyName>
				<dutyTel1>02-2654-4440</dutyTel1>
				<dutyTime1c>2000</dutyTime1c>
				<dutyTime1s>1000</dutyTime1s>
				<wgs84Lat>37.5245749361</wgs84Lat>
				<wgs84Lon>126.8730582872</wgs84Lon>
			</item>
			<item>
				<dutyName>서남치과의원</dutyName>
				<dutyTel1>02-2607-2875</dutyTel1>
				<dutyTime1c>1830</dutyTime1c>
				<dutyTime1s>930</dutyTime1s>
				<wgs84Lat>37.512710160982</wgs84Lat>
				<wgs84Lon>126.832304961307</wgs84Lon>
			</item>
			<item>
				<dutyName>서로한의원</dutyName>
				<dutyTel1>02-6225-1075</dutyTel1>
				<dutyTime1c>1900</dutyTime1c>
				<dutyTime1s>930</dutyTime1s>
				<wgs84Lat>37.5466143769086</wgs84Lat>
				<wgs84Lon>126.873971466966</wgs84Lon>
			</item>
			<item>
				<dutyName>서서울정형외과의원</dutyName>
				<dutyTel1>02-2604-0911</dutyTel1>
				<dutyTime1c>1900</dutyTime1c>
				<dutyTime1s>900</dutyTime1s>
				<wgs84Lat>37.5192059949229</wgs84Lat>
				<wgs84Lon>126.843851154746</wgs84Lon>
			</item>
			<item>
				<dutyName>서울21치과의원</dutyName>
				<dutyTel1>02-2605-2899</dutyTel1>
				<dutyTime1c>1830</dutyTime1c>
				<dutyTime1s>930</dutyTime1s>
				<wgs84Lat>37.540066388</wgs84Lat>
				<wgs84Lon>126.8336015131</wgs84Lon>
			</item>
			<item>
				<dutyName>서울S치과의원</dutyName>
				<dutyTel1>02-2062-7522</dutyTel1>
				<dutyTime1c>1900</dutyTime1c>
				<dutyTime1s>900</dutyTime1s>
				<wgs84Lat>37.5199821391834</wgs84Lat>
				<wgs84Lon>126.853279172441</wgs84Lon>
			</item>
			<item>
				<dutyName>서울가정의원</dutyName>
				<dutyTel1>02-2697-1623</dutyTel1>
				<dutyTime1c>1830</dutyTime1c>
				<dutyTime1s>900</dutyTime1s>
				<wgs84Lat>37.5416521214083</wgs84Lat>
				<wgs84Lon>126.831049818052</wgs84Lon>
			</item>
			<item>
				<dutyName>서울그린치과병원</dutyName>
				<dutyTel1>02-2648-2727</dutyTel1>
				<dutyTime1c>1700</dutyTime1c>
				<dutyTime1s>900</dutyTime1s>
				<wgs84Lat>37.5201952181186</wgs84Lat>
				<wgs84Lon>126.859572752087</wgs84Lon>
			</item>
			<item>
				<dutyName>서울리더스치과의원</dutyName>
				<dutyTel1>02-2643-4868</dutyTel1>
				<dutyTime1c>1830</dutyTime1c>
				<dutyTime1s>1000</dutyTime1s>
				<wgs84Lat>37.5375076195023</wgs84Lat>
				<wgs84Lon>126.881831978725</wgs84Lon>
			</item>
			<item>
				<dutyName>서울봄내과의원</dutyName>
				<dutyTel1>02-2650-8875</dutyTel1>
				<dutyTime1c>1800</dutyTime1c>
				<dutyTime1s>900</dutyTime1s>
				<wgs84Lat>37.5176284836488</wgs84Lat>
				<wgs84Lon>126.865547992454</wgs84Lon>
			</item>
			<item>
				<dutyName>서울삼성내과</dutyName>
				<dutyTel1>02-2060-0300</dutyTel1>
				<dutyTime1c>2000</dutyTime1c>
				<dutyTime1s>800</dutyTime1s>
				<wgs84Lat>37.5328866886359</wgs84Lat>
				<wgs84Lon>126.864165037985</wgs84Lon>
			</item>
			<item>
				<dutyName>서울삼성치과의원</dutyName>
				<dutyTel1>02-2653-8033</dutyTel1>
				<dutyTime1c>1900</dutyTime1c>
				<dutyTime1s>1000</dutyTime1s>
				<wgs84Lat>37.515051104905</wgs84Lat>
				<wgs84Lon>126.861618411723</wgs84Lon>
			</item>
			<item>
				<dutyName>서울소아과의원</dutyName>
				<dutyTel1>02-2682-8994</dutyTel1>
				<dutyTime1c>1800</dutyTime1c>
				<dutyTime1s>900</dutyTime1s>
				<wgs84Lat>37.5126353549564</wgs84Lat>
				<wgs84Lon>126.838100811348</wgs84Lon>
			</item>
			<item>
				<dutyName>서울순플란트치과의원</dutyName>
				<dutyTel1>02-2642-5757</dutyTel1>
				<dutyTime1c>2000</dutyTime1c>
				<dutyTime1s>1000</dutyTime1s>
				<wgs84Lat>37.5500813825</wgs84Lat>
				<wgs84Lon>126.8641881591</wgs84Lon>
			</item>
			<item>
				<dutyName>서울안과의원</dutyName>
				<dutyTel1>02-2693-5800</dutyTel1>
				<dutyTime1c>1900</dutyTime1c>
				<dutyTime1s>930</dutyTime1s>
				<wgs84Lat>37.5283307579561</wgs84Lat>
				<wgs84Lon>126.863761518854</wgs84Lon>
			</item>
			<item>
				<dutyName>서울연세신경외과의원</dutyName>
				<dutyTel1>02-6737-0820</dutyTel1>
				<dutyTime1c>1900</dutyTime1c>
				<dutyTime1s>900</dutyTime1s>
				<wgs84Lat>37.5256625985</wgs84Lat>
				<wgs84Lon>126.8596575321</wgs84Lon>
			</item>
			<item>
				<dutyName>서울연정신건강의학과의원</dutyName>
				<dutyTel1>02-2643-0006</dutyTel1>
				<dutyTime1c>1900</dutyTime1c>
				<dutyTime1s>1000</dutyTime1s>
				<wgs84Lat>37.5247562292989</wgs84Lat>
				<wgs84Lon>126.871118956874</wgs84Lon>
			</item>
			<item>
				<dutyName>서울예항외과의원</dutyName>
				<dutyTel1>02-2645-2626</dutyTel1>
				<dutyTime1c>1800</dutyTime1c>
				<dutyTime1s>900</dutyTime1s>
				<wgs84Lat>37.5247179669193</wgs84Lat>
				<wgs84Lon>126.872017298386</wgs84Lon>
			</item>
			<item>
				<dutyName>서울온빛치과의원</dutyName>
				<dutyTel1>02-2645-2652</dutyTel1>
				<dutyTime1c>1830</dutyTime1c>
				<dutyTime1s>1000</dutyTime1s>
				<wgs84Lat>37.5482450230258</wgs84Lat>
				<wgs84Lon>126.86565354897</wgs84Lon>
			</item>
			<item>
				<dutyName>서울외과의원</dutyName>
				<dutyTel1>02-2696-7582</dutyTel1>
				<dutyTime1c>1800</dutyTime1c>
				<dutyTime1s>900</dutyTime1s>
				<wgs84Lat>37.5216931375</wgs84Lat>
				<wgs84Lon>126.8525518396</wgs84Lon>
			</item>
			<item>
				<dutyName>서울원치과의원</dutyName>
				<dutyTel1>02-6734-6789</dutyTel1>
				<dutyTime1c>1830</dutyTime1c>
				<dutyTime1s>930</dutyTime1s>
				<wgs84Lat>37.5295034602405</wgs84Lat>
				<wgs84Lon>126.87516538615</wgs84Lon>
			</item>
			<item>
				<dutyName>서울이비인후과의원</dutyName>
				<dutyTel1>02-2607-7179</dutyTel1>
				<dutyTime1c>1830</dutyTime1c>
				<dutyTime1s>930</dutyTime1s>
				<wgs84Lat>37.5302580002814</wgs84Lat>
				<wgs84Lon>126.838047019615</wgs84Lon>
			</item>
			<item>
				<dutyName>서울익투스치과의원</dutyName>
				<dutyTel1>02-2605-2607</dutyTel1>
				<dutyTime1c>1830</dutyTime1c>
				<dutyTime1s>930</dutyTime1s>
				<wgs84Lat>37.5246615856842</wgs84Lat>
				<wgs84Lon>126.854446526835</wgs84Lon>
			</item>
			<item>
				<dutyName>서울인화요양병원</dutyName>
				<dutyTel1>02-2696-0119</dutyTel1>
				<dutyTime1c>1800</dutyTime1c>
				<dutyTime1s>900</dutyTime1s>
				<wgs84Lat>37.5174142445178</wgs84Lat>
				<wgs84Lon>126.8412739275</wgs84Lon>
			</item>
			<item>
				<dutyName>서울자연치과의원</dutyName>
				<dutyTel1>02-2651-2875</dutyTel1>
				<dutyTime1c>2100</dutyTime1c>
				<dutyTime1s>1000</dutyTime1s>
				<wgs84Lat>37.5466074922219</wgs84Lat>
				<wgs84Lon>126.874274747149</wgs84Lon>
			</item>
			<item>
				<dutyName>서울케이에스의원</dutyName>
				<dutyTel1>02-2692-2584</dutyTel1>
				<dutyTime1c>1800</dutyTime1c>
				<dutyTime1s>1000</dutyTime1s>
				<wgs84Lat>37.5220886126748</wgs84Lat>
				<wgs84Lon>126.843406230816</wgs84Lon>
			</item>
			<item>
				<dutyName>서울탑치과의원</dutyName>
				<dutyTel1>02-2062-7588</dutyTel1>
				<dutyTime1c>2000</dutyTime1c>
				<dutyTime1s>930</dutyTime1s>
				<wgs84Lat>37.525129434579</wgs84Lat>
				<wgs84Lon>126.869278890174</wgs84Lon>
			</item>
			<item>
				<dutyName>서울특별시서남병원</dutyName>
				<dutyTel1>1566-6688</dutyTel1>
				<dutyTime1c>1730</dutyTime1c>
				<dutyTime1s>900</dutyTime1s>
				<wgs84Lat>37.5120193588378</wgs84Lat>
				<wgs84Lon>126.833129930402</wgs84Lon>
			</item>
			<item>
				<dutyName>서울프라임치과의원</dutyName>
				<dutyTel1>02-2607-2276</dutyTel1>
				<dutyTime1c>1900</dutyTime1c>
				<dutyTime1s>1000</dutyTime1s>
				<wgs84Lat>37.5246628197352</wgs84Lat>
				<wgs84Lon>126.841409799466</wgs84Lon>
			</item>
			<item>
				<dutyName>서울플란트원치과의원</dutyName>
				<dutyTel1>02-2652-2801</dutyTel1>
				<dutyTime1c>1900</dutyTime1c>
				<dutyTime1s>1000</dutyTime1s>
				<wgs84Lat>37.5497281764576</wgs84Lat>
				<wgs84Lon>126.864175220203</wgs84Lon>
			</item>
			<item>
				<dutyName>서울하이안치과의원</dutyName>
				<dutyTel1>02-2691-8800</dutyTel1>
				<dutyTime1c>1800</dutyTime1c>
				<dutyTime1s>900</dutyTime1s>
				<wgs84Lat>37.5177619585</wgs84Lat>
				<wgs84Lon>126.8420171343</wgs84Lon>
			</item>
			<item>
				<dutyName>서울휴치과의원</dutyName>
				<dutyTel1>02-2642-6322</dutyTel1>
				<dutyTime1c>1830</dutyTime1c>
				<dutyTime1s>930</dutyTime1s>
				<wgs84Lat>37.5085604865379</wgs84Lat>
				<wgs84Lon>126.864914889504</wgs84Lon>
			</item>
			<item>
				<dutyName>서피부과의원</dutyName>
				<dutyTel1>02-2649-7464</dutyTel1>
				<dutyTime1c>1800</dutyTime1c>
				<dutyTime1s>930</dutyTime1s>
				<wgs84Lat>37.5208502242646</wgs84Lat>
				<wgs84Lon>126.852897406675</wgs84Lon>
			</item>
			<item>
				<dutyName>서현종치과의원</dutyName>
				<dutyTel1>02-2642-7039</dutyTel1>
				<dutyTime1c>1800</dutyTime1c>
				<dutyTime1s>900</dutyTime1s>
				<wgs84Lat>37.5333621918631</wgs84Lat>
				<wgs84Lon>126.863969574967</wgs84Lon>
			</item>
			<item>
				<dutyName>석산한의원</dutyName>
				<dutyTel1>02-2644-1119</dutyTel1>
				<dutyTime1c>1630</dutyTime1c>
				<dutyTime1s>930</dutyTime1s>
				<wgs84Lat>37.5376416267989</wgs84Lat>
				<wgs84Lon>126.882119551711</wgs84Lon>
			</item>
			<item>
				<dutyName>선내과의원</dutyName>
				<dutyTel1>02-2648-5004</dutyTel1>
				<dutyTime1c>1900</dutyTime1c>
				<dutyTime1s>930</dutyTime1s>
				<wgs84Lat>37.5186969250216</wgs84Lat>
				<wgs84Lon>126.860813245714</wgs84Lon>
			</item>
			<item>
				<dutyName>설피부과의원</dutyName>
				<dutyTel1>02-2646-7577</dutyTel1>
				<dutyTime1c>2100</dutyTime1c>
				<dutyTime1s>940</dutyTime1s>
				<wgs84Lat>37.5245076202383</wgs84Lat>
				<wgs84Lon>126.871178214875</wgs84Lon>
			</item>
			<item>
				<dutyName>성가치과의원</dutyName>
				<dutyTel1>02-2648-2257</dutyTel1>
				<dutyTime1c>1800</dutyTime1c>
				<dutyTime1s>930</dutyTime1s>
				<wgs84Lat>37.5381107917528</wgs84Lat>
				<wgs84Lon>126.876146551244</wgs84Lon>
			</item>
			<item>
				<dutyName>성누가의원</dutyName>
				<dutyTel1>02-2645-3235</dutyTel1>
				<dutyTime1c>1800</dutyTime1c>
				<dutyTime1s>930</dutyTime1s>
				<wgs84Lat>37.5053958964</wgs84Lat>
				<wgs84Lon>126.8646853486</wgs84Lon>
			</item>
			<item>
				<dutyName>성모외과의원</dutyName>
				<dutyTel1>02-2644-0089</dutyTel1>
				<dutyTime1c>1830</dutyTime1c>
				<dutyTime1s>900</dutyTime1s>
				<wgs84Lat>37.5467431118411</wgs84Lat>
				<wgs84Lon>126.873029757981</wgs84Lon>
			</item>
			<item>
				<dutyName>성심안과의원</dutyName>
				<dutyTel1>02-2643-8331</dutyTel1>
				<dutyTime1c>1830</dutyTime1c>
				<dutyTime1s>1000</dutyTime1s>
				<wgs84Lat>37.5492813519</wgs84Lat>
				<wgs84Lon>126.8674079936</wgs84Lon>
			</item>
			<item>
				<dutyName>성인한의원</dutyName>
				<dutyTel1>02-2642-3916</dutyTel1>
				<dutyTime1c>1900</dutyTime1c>
				<dutyTime1s>930</dutyTime1s>
				<wgs84Lat>37.5391812556546</wgs84Lat>
				<wgs84Lon>126.86590518245</wgs84Lon>
			</item>
			<item>
				<dutyName>세란마취통증의학과의원</dutyName>
				<dutyTel1>02-2062-1318</dutyTel1>
				<dutyTime1c>1830</dutyTime1c>
				<dutyTime1s>900</dutyTime1s>
				<wgs84Lat>37.5495258882158</wgs84Lat>
				<wgs84Lon>126.866936817407</wgs84Lon>
			</item>
			<item>
				<dutyName>세란의원</dutyName>
				<dutyTel1>02-2642-5975</dutyTel1>
				<dutyTime1c>1900</dutyTime1c>
				<dutyTime1s>900</dutyTime1s>
				<wgs84Lat>37.5360048579455</wgs84Lat>
				<wgs84Lon>126.87802631878</wgs84Lon>
			</item>
			<item>
				<dutyName>세란치과의원</dutyName>
				<dutyTel1>02-2642-2875</dutyTel1>
				<dutyTime1c>1730</dutyTime1c>
				<dutyTime1s>900</dutyTime1s>
				<wgs84Lat>37.5491512210648</wgs84Lat>
				<wgs84Lon>126.86390014757</wgs84Lon>
			</item>
			<item>
				<dutyName>세원법의의원</dutyName>
				<dutyTel1>02-2065-1500</dutyTel1>
				<dutyTime1c>1800</dutyTime1c>
				<dutyTime1s>900</dutyTime1s>
				<wgs84Lat>37.516173776</wgs84Lat>
				<wgs84Lon>126.8375773681</wgs84Lon>
			</item>
			<item>
				<dutyName>소나무한의원</dutyName>
				<dutyTel1>02-2061-1075</dutyTel1>
				<dutyTime1c>1900</dutyTime1c>
				<dutyTime1s>930</dutyTime1s>
				<wgs84Lat>37.5486873212501</wgs84Lat>
				<wgs84Lon>126.86478821001</wgs84Lon>
			</item>
			<item>
				<dutyName>소망내과의원</dutyName>
				<dutyTel1>02-2649-0098</dutyTel1>
				<dutyTime1c>1900</dutyTime1c>
				<dutyTime1s>800</dutyTime1s>
				<wgs84Lat>37.5438639905768</wgs84Lat>
				<wgs84Lon>126.870669275622</wgs84Lon>
			</item>
			<item>
				<dutyName>소망이비인후과의원</dutyName>
				<dutyTel1>02-2651-0345</dutyTel1>
				<dutyTime1c>1800</dutyTime1c>
				<dutyTime1s>930</dutyTime1s>
				<wgs84Lat>37.5356091642274</wgs84Lat>
				<wgs84Lon>126.878751080417</wgs84Lon>
			</item>
			<item>
				<dutyName>소생의원</dutyName>
				<dutyTel1>02-2652-7172</dutyTel1>
				<dutyTime1c>1800</dutyTime1c>
				<dutyTime1s>900</dutyTime1s>
				<wgs84Lat>37.5485652049569</wgs84Lat>
				<wgs84Lon>126.865150531166</wgs84Lon>
			</item>
			<item>
				<dutyName>소화의원</dutyName>
				<dutyTel1>02-2066-6375</dutyTel1>
				<dutyTime1c>1830</dutyTime1c>
				<dutyTime1s>930</dutyTime1s>
				<wgs84Lat>37.5087612479875</wgs84Lat>
				<wgs84Lon>126.844079253846</wgs84Lon>
			</item>
			<item>
				<dutyName>손내과의원</dutyName>
				<dutyTel1>02-2692-8629</dutyTel1>
				<dutyTime1c>1600</dutyTime1c>
				<dutyTime1s>900</dutyTime1s>
				<wgs84Lat>37.5215887622114</wgs84Lat>
				<wgs84Lon>126.852669712537</wgs84Lon>
			</item>
			<item>
				<dutyName>손치과의원</dutyName>
				<dutyTel1>02-2605-7049</dutyTel1>
				<dutyTime1c>1800</dutyTime1c>
				<dutyTime1s>930</dutyTime1s>
				<wgs84Lat>37.5303166666667</wgs84Lat>
				<wgs84Lon>126.838075</wgs84Lon>
			</item>
			<item>
				<dutyName>솔빛한방병원</dutyName>
				<dutyTel1>02-2696-5601</dutyTel1>
				<dutyTime1c>1800</dutyTime1c>
				<dutyTime1s>900</dutyTime1s>
				<wgs84Lat>37.517691427003</wgs84Lat>
				<wgs84Lon>126.840487952001</wgs84Lon>
			</item>
			<item>
				<dutyName>송재원소아과의원</dutyName>
				<dutyTel1>02-2694-7117</dutyTel1>
				<dutyTime1c>1800</dutyTime1c>
				<dutyTime1s>900</dutyTime1s>
				<wgs84Lat>37.5180325668722</wgs84Lat>
				<wgs84Lon>126.84224732195</wgs84Lon>
			</item>
			<item>
				<dutyName>송주연정신건강의학과의원</dutyName>
				<dutyTel1>02-2605-1005</dutyTel1>
				<dutyTime1c>1900</dutyTime1c>
				<dutyTime1s>900</dutyTime1s>
				<wgs84Lat>37.5267054079637</wgs84Lat>
				<wgs84Lon>126.863805180969</wgs84Lon>
			</item>
			<item>
				<dutyName>순명한의원</dutyName>
				<dutyTel1>02-2651-1275</dutyTel1>
				<dutyTime1c>1830</dutyTime1c>
				<dutyTime1s>915</dutyTime1s>
				<wgs84Lat>37.5393641109</wgs84Lat>
				<wgs84Lon>126.8650675321</wgs84Lon>
			</item>
			<item>
				<dutyName>스위트콘치과의원</dutyName>
				<dutyTel1>02-2653-6713</dutyTel1>
				<dutyTime1c>1900</dutyTime1c>
				<dutyTime1s>1000</dutyTime1s>
				<wgs84Lat>37.53707664425</wgs84Lat>
				<wgs84Lon>126.880489993454</wgs84Lon>
			</item>
			<item>
				<dutyName>스텔라의원</dutyName>
				<dutyTel1>02-2655-2822</dutyTel1>
				<dutyTime1c>1900</dutyTime1c>
				<dutyTime1s>1000</dutyTime1s>
				<wgs84Lat>37.5241566774473</wgs84Lat>
				<wgs84Lon>126.876271774398</wgs84Lon>
			</item>
			<item>
				<dutyName>시원한비뇨기과의원</dutyName>
				<dutyTel1>02-2062-7510</dutyTel1>
				<dutyTime1c>1900</dutyTime1c>
				<dutyTime1s>900</dutyTime1s>
				<wgs84Lat>37.5198597879531</wgs84Lat>
				<wgs84Lon>126.853433275066</wgs84Lon>
			</item>
			<item>
				<dutyName>신곡경희한의원</dutyName>
				<dutyTel1>02-2601-0075</dutyTel1>
				<dutyTime1c>1900</dutyTime1c>
				<dutyTime1s>930</dutyTime1s>
				<wgs84Lat>37.5175703343</wgs84Lat>
				<wgs84Lon>126.8415605496</wgs84Lon>
			</item>
			<item>
				<dutyName>신내과의원</dutyName>
				<dutyTel1>02-2698-1414</dutyTel1>
				<dutyTime1c>1800</dutyTime1c>
				<dutyTime1s>830</dutyTime1s>
				<wgs84Lat>37.5224618066707</wgs84Lat>
				<wgs84Lon>126.844907729683</wgs84Lon>
			</item>
			<item>
				<dutyName>신목치과의원</dutyName>
				<dutyTel1>02-2644-2890</dutyTel1>
				<dutyTime1c>1900</dutyTime1c>
				<dutyTime1s>1000</dutyTime1s>
				<wgs84Lat>37.5378078724061</wgs84Lat>
				<wgs84Lon>126.872625964022</wgs84Lon>
			</item>
			<item>
				<dutyName>신앤정소아청소년과의원</dutyName>
				<dutyTel1>02-2684-7582</dutyTel1>
				<dutyTime1c>1830</dutyTime1c>
				<dutyTime1s>900</dutyTime1s>
				<wgs84Lat>37.5126063825</wgs84Lat>
				<wgs84Lon>126.8328254927</wgs84Lon>
			</item>
			<item>
				<dutyName>신연수의원</dutyName>
				<dutyTel1>02-2602-5133</dutyTel1>
				<dutyTime1c>1900</dutyTime1c>
				<dutyTime1s>900</dutyTime1s>
				<wgs84Lat>37.5354934712</wgs84Lat>
				<wgs84Lon>126.8289456541</wgs84Lon>
			</item>
			<item>
				<dutyName>신영한의원</dutyName>
				<dutyTel1>02-2690-9949</dutyTel1>
				<dutyTime1c>1900</dutyTime1c>
				<dutyTime1s>900</dutyTime1s>
				<wgs84Lat>37.5299081652801</wgs84Lat>
				<wgs84Lon>126.837866769085</wgs84Lon>
			</item>
			<item>
				<dutyName>신월경희한의원</dutyName>
				<dutyTel1>02-2607-1025</dutyTel1>
				<dutyTime1c>1730</dutyTime1c>
				<dutyTime1s>930</dutyTime1s>
				<wgs84Lat>37.5222217872543</wgs84Lat>
				<wgs84Lon>126.833401351167</wgs84Lon>
			</item>
			<item>
				<dutyName>신월동의보감한의원</dutyName>
				<dutyTel1>02-2602-7510</dutyTel1>
				<dutyTime1c>1900</dutyTime1c>
				<dutyTime1s>930</dutyTime1s>
				<wgs84Lat>37.5222665288227</wgs84Lat>
				<wgs84Lon>126.833817524128</wgs84Lon>
			</item>
			<item>
				<dutyName>신월맥한의원</dutyName>
				<dutyTel1>02-2608-1210</dutyTel1>
				<dutyTime1c>2100</dutyTime1c>
				<dutyTime1s>930</dutyTime1s>
				<wgs84Lat>37.5296740181731</wgs84Lat>
				<wgs84Lon>126.834715216503</wgs84Lon>
			</item>
			<item>
				<dutyName>신월이웃사랑소아청소년과의원</dutyName>
				<dutyTel1>02-2602-7600</dutyTel1>
				<dutyTime1c>1900</dutyTime1c>
				<dutyTime1s>900</dutyTime1s>
				<wgs84Lat>37.534912079499</wgs84Lat>
				<wgs84Lon>126.828154986706</wgs84Lon>
			</item>
			<item>
				<dutyName>신정박내과의원</dutyName>
				<dutyTel1>02-2644-1415</dutyTel1>
				<dutyTime1c>1900</dutyTime1c>
				<dutyTime1s>900</dutyTime1s>
				<wgs84Lat>37.5198597879531</wgs84Lat>
				<wgs84Lon>126.853433275066</wgs84Lon>
			</item>
			<item>
				<dutyName>신정한의원</dutyName>
				<dutyTel1>02-2643-1363</dutyTel1>
				<dutyTime1c>1900</dutyTime1c>
				<dutyTime1s>930</dutyTime1s>
				<wgs84Lat>37.5162483501259</wgs84Lat>
				<wgs84Lon>126.87183266257</wgs84Lon>
			</item>
			<item>
				<dutyName>신트리치과의원</dutyName>
				<dutyTel1>02-2603-2688</dutyTel1>
				<dutyTime1c>1830</dutyTime1c>
				<dutyTime1s>930</dutyTime1s>
				<wgs84Lat>37.5132917084912</wgs84Lat>
				<wgs84Lon>126.855498236913</wgs84Lon>
			</item>
			<item>
				<dutyName>심재학정형외과의원</dutyName>
				<dutyTel1>02-2690-9090</dutyTel1>
				<dutyTime1c>1900</dutyTime1c>
				<dutyTime1s>900</dutyTime1s>
				<wgs84Lat>37.530218983334</wgs84Lat>
				<wgs84Lon>126.837868241405</wgs84Lon>
			</item>
			<item>
				<dutyName>씨네연세치과의원</dutyName>
				<dutyTel1>02-2607-7512</dutyTel1>
				<dutyTime1c>1900</dutyTime1c>
				<dutyTime1s>1000</dutyTime1s>
				<wgs84Lat>37.5128943373038</wgs84Lat>
				<wgs84Lon>126.83256696199</wgs84Lon>
			</item>
			<item>
				<dutyName>아라야한의원</dutyName>
				<dutyTel1>02-2605-7711</dutyTel1>
				<dutyTime1c>1900</dutyTime1c>
				<dutyTime1s>600</dutyTime1s>
				<wgs84Lat>37.5257097931154</wgs84Lat>
				<wgs84Lon>126.863024163456</wgs84Lon>
			</item>
			<item>
				<dutyName>아름다운소아청소년과의원</dutyName>
				<dutyTel1>02-2697-6697</dutyTel1>
				<dutyTime1c>1830</dutyTime1c>
				<dutyTime1s>930</dutyTime1s>
				<wgs84Lat>37.513145230595</wgs84Lat>
				<wgs84Lon>126.853634495159</wgs84Lon>
			</item>
			<item>
				<dutyName>아름다운치과의원</dutyName>
				<dutyTel1>02-2652-2004</dutyTel1>
				<dutyTime1c>1830</dutyTime1c>
				<dutyTime1s>1000</dutyTime1s>
				<wgs84Lat>37.5373848550413</wgs84Lat>
				<wgs84Lon>126.884867120068</wgs84Lon>
			</item>
			<item>
				<dutyName>아비쥬의원</dutyName>
				<dutyTel1>02-2603-0377</dutyTel1>
				<dutyTime1c>2030</dutyTime1c>
				<dutyTime1s>1030</dutyTime1s>
				<wgs84Lat>37.5273836988181</wgs84Lat>
				<wgs84Lon>126.864446531108</wgs84Lon>
			</item>
			<item>
				<dutyName>아이꿈한의원</dutyName>
				<dutyTel1>02-2652-3772</dutyTel1>
				<dutyTime1c>1900</dutyTime1c>
				<dutyTime1s>1000</dutyTime1s>
				<wgs84Lat>37.5257403869314</wgs84Lat>
				<wgs84Lon>126.87433242127</wgs84Lon>
			</item>
			<item>
				<dutyName>아이리스산부인과의원</dutyName>
				<dutyTel1>02-2647-0020</dutyTel1>
				<dutyTime1c>2000</dutyTime1c>
				<dutyTime1s>930</dutyTime1s>
				<wgs84Lat>37.5158629945935</wgs84Lat>
				<wgs84Lon>126.862845543133</wgs84Lon>
			</item>
			<item>
				<dutyName>아이맘소아과의원</dutyName>
				<dutyTel1>02-2646-3100</dutyTel1>
				<dutyTime1c>1830</dutyTime1c>
				<dutyTime1s>900</dutyTime1s>
				<wgs84Lat>37.5168570533875</wgs84Lat>
				<wgs84Lon>126.871487751992</wgs84Lon>
			</item>
			<item>
				<dutyName>아이비의원</dutyName>
				<dutyTel1>02-2653-9787</dutyTel1>
				<dutyTime1c>1830</dutyTime1c>
				<dutyTime1s>930</dutyTime1s>
				<wgs84Lat>37.5239512845143</wgs84Lat>
				<wgs84Lon>126.851303013235</wgs84Lon>
			</item>
			<item>
				<dutyName>아이비피부과의원</dutyName>
				<dutyTel1>02-2652-5975</dutyTel1>
				<dutyTime1c>1830</dutyTime1c>
				<dutyTime1s>900</dutyTime1s>
				<wgs84Lat>37.5223062207172</wgs84Lat>
				<wgs84Lon>126.874758999744</wgs84Lon>
			</item>
			<item>
				<dutyName>아이사랑소아청소년과의원</dutyName>
				<dutyTel1>02-2603-8228</dutyTel1>
				<dutyTime1c>1900</dutyTime1c>
				<dutyTime1s>900</dutyTime1s>
				<wgs84Lat>37.5242674650302</wgs84Lat>
				<wgs84Lon>126.842225165045</wgs84Lon>
			</item>
			<item>
				<dutyName>아이토마토한의원</dutyName>
				<dutyTel1>02-2649-1140</dutyTel1>
				<dutyTime1c>2100</dutyTime1c>
				<dutyTime1s>900</dutyTime1s>
				<wgs84Lat>37.5500813825</wgs84Lat>
				<wgs84Lon>126.8641881591</wgs84Lon>
			</item>
			<item>
				<dutyName>아이피부과의원</dutyName>
				<dutyTel1>02-2647-7588</dutyTel1>
				<dutyTime1c>1900</dutyTime1c>
				<dutyTime1s>1000</dutyTime1s>
				<wgs84Lat>37.5153150062409</wgs84Lat>
				<wgs84Lon>126.862310173808</wgs84Lon>
			</item>
			<item>
				<dutyName>안가정의학과의원</dutyName>
				<dutyTel1>02-2065-8275</dutyTel1>
				<dutyTime1c>1900</dutyTime1c>
				<dutyTime1s>930</dutyTime1s>
				<wgs84Lat>37.5171674086</wgs84Lat>
				<wgs84Lon>126.8532801589</wgs84Lon>
			</item>
			<item>
				<dutyName>애플소아과의원</dutyName>
				<dutyTel1>02-2062-7582</dutyTel1>
				<dutyTime1c>1800</dutyTime1c>
				<dutyTime1s>900</dutyTime1s>
				<wgs84Lat>37.5391487207039</wgs84Lat>
				<wgs84Lon>126.86633264265</wgs84Lon>
			</item>
			<item>
				<dutyName>앤의원</dutyName>
				<dutyTel1>02-2607-2221</dutyTel1>
				<dutyTime1c>1930</dutyTime1c>
				<dutyTime1s>1000</dutyTime1s>
				<wgs84Lat>37.51894399014</wgs84Lat>
				<wgs84Lon>126.853122839799</wgs84Lon>
			</item>
			<item>
				<dutyName>양미혜산부인과의원</dutyName>
				<dutyTel1>02-2606-2434</dutyTel1>
				<dutyTime1c>1800</dutyTime1c>
				<dutyTime1s>930</dutyTime1s>
				<wgs84Lat>37.52570578</wgs84Lat>
				<wgs84Lon>126.8626666647</wgs84Lon>
			</item>
			<item>
				<dutyName>양천구보건소</dutyName>
				<dutyTel1>02-2620-3936</dutyTel1>
				<dutyTime1c>1800</dutyTime1c>
				<dutyTime1s>900</dutyTime1s>
				<wgs84Lat>37.5175355856257</wgs84Lat>
				<wgs84Lon>126.865889629167</wgs84Lon>
			</item>
			<item>
				<dutyName>양천서울이비인후과의원</dutyName>
				<dutyTel1>02-2062-1800</dutyTel1>
				<dutyTime1c>1700</dutyTime1c>
				<dutyTime1s>900</dutyTime1s>
				<wgs84Lat>37.5370741813887</wgs84Lat>
				<wgs84Lon>126.880504706303</wgs84Lon>
			</item>
			<item>
				<dutyName>양천성모소아과의원</dutyName>
				<dutyTel1>02-2644-1089</dutyTel1>
				<dutyTime1c>1800</dutyTime1c>
				<dutyTime1s>900</dutyTime1s>
				<wgs84Lat>37.5158537127071</wgs84Lat>
				<wgs84Lon>126.861090053715</wgs84Lon>
			</item>
			<item>
				<dutyName>양천신경외과의원</dutyName>
				<dutyTel1>02-2607-9901~5</dutyTel1>
				<dutyTime1c>1900</dutyTime1c>
				<dutyTime1s>900</dutyTime1s>
				<wgs84Lat>37.5218613063</wgs84Lat>
				<wgs84Lon>126.8574293515</wgs84Lon>
			</item>
			<item>
				<dutyName>양천연세내과의원</dutyName>
				<dutyTel1>02-2065-6600</dutyTel1>
				<dutyTime1c>1830</dutyTime1c>
				<dutyTime1s>900</dutyTime1s>
				<wgs84Lat>37.5348181461614</wgs84Lat>
				<wgs84Lon>126.828001349644</wgs84Lon>
			</item>
			<item>
				<dutyName>양천연세이비인후과의원</dutyName>
				<dutyTel1>02-2642-7560</dutyTel1>
				<dutyTime1c>1830</dutyTime1c>
				<dutyTime1s>900</dutyTime1s>
				<wgs84Lat>37.5153114064009</wgs84Lat>
				<wgs84Lon>126.862319249969</wgs84Lon>
			</item>
			<item>
				<dutyName>양천이비인후과의원</dutyName>
				<dutyTel1>02-2690-6789</dutyTel1>
				<dutyTime1c>1800</dutyTime1c>
				<dutyTime1s>920</dutyTime1s>
				<wgs84Lat>37.5263956094272</wgs84Lat>
				<wgs84Lon>126.863936994823</wgs84Lon>
			</item>
			<item>
				<dutyName>양천인의한의원</dutyName>
				<dutyTel1>02-2653-1075</dutyTel1>
				<dutyTime1c>1900</dutyTime1c>
				<dutyTime1s>900</dutyTime1s>
				<wgs84Lat>37.5161564519572</wgs84Lat>
				<wgs84Lon>126.861094010997</wgs84Lon>
			</item>
			<item>
				<dutyName>양천정형외과.마취통증의학과의원</dutyName>
				<dutyTel1>02-2646-8697</dutyTel1>
				<dutyTime1c>1900</dutyTime1c>
				<dutyTime1s>900</dutyTime1s>
				<wgs84Lat>37.5210394948</wgs84Lat>
				<wgs84Lon>126.8765438882</wgs84Lon>
			</item>
			<item>
				<dutyName>양천제일안과의원</dutyName>
				<dutyTel1>02-2601-2100</dutyTel1>
				<dutyTime1c>1800</dutyTime1c>
				<dutyTime1s>900</dutyTime1s>
				<wgs84Lat>37.5177835700952</wgs84Lat>
				<wgs84Lon>126.84201258467</wgs84Lon>
			</item>
			<item>
				<dutyName>양천코아이비인후과의원</dutyName>
				<dutyTel1>02-2690-7979</dutyTel1>
				<dutyTime1c>1900</dutyTime1c>
				<dutyTime1s>900</dutyTime1s>
				<wgs84Lat>37.5177619585</wgs84Lat>
				<wgs84Lon>126.8420171343</wgs84Lon>
			</item>
			<item>
				<dutyName>양천탑의원</dutyName>
				<dutyTel1>02-2608-7920</dutyTel1>
				<dutyTime1c>1830</dutyTime1c>
				<dutyTime1s>930</dutyTime1s>
				<wgs84Lat>37.5222327807528</wgs84Lat>
				<wgs84Lon>126.860668489684</wgs84Lon>
			</item>
			<item>
				<dutyName>양천한의원</dutyName>
				<dutyTel1>02-2654-2184</dutyTel1>
				<dutyTime1c>2100</dutyTime1c>
				<dutyTime1s>900</dutyTime1s>
				<wgs84Lat>37.5468813507157</wgs84Lat>
				<wgs84Lon>126.870893056405</wgs84Lon>
			</item>
			<item>
				<dutyName>양천효요양병원</dutyName>
				<dutyTel1>02-2696-6568</dutyTel1>
				<dutyTime1c>1730</dutyTime1c>
				<dutyTime1s>900</dutyTime1s>
				<wgs84Lat>37.5243042767718</wgs84Lat>
				<wgs84Lon>126.85114393596</wgs84Lon>
			</item>
			<item>
				<dutyName>어울림한의원</dutyName>
				<dutyTel1>02-336-1075</dutyTel1>
				<dutyTime1c>2000</dutyTime1c>
				<dutyTime1s>1000</dutyTime1s>
				<wgs84Lat>37.5370741813887</wgs84Lat>
				<wgs84Lon>126.880504706303</wgs84Lon>
			</item>
			<item>
				<dutyName>엄보용치과의원</dutyName>
				<dutyTel1>02-2648-2639</dutyTel1>
				<dutyTime1c>1800</dutyTime1c>
				<dutyTime1s>1400</dutyTime1s>
				<wgs84Lat>37.5354888659007</wgs84Lat>
				<wgs84Lon>126.881310225038</wgs84Lon>
			</item>
			<item>
				<dutyName>에버스마일치과의원</dutyName>
				<dutyTel1>02-2692-2221</dutyTel1>
				<dutyTime1c>2100</dutyTime1c>
				<dutyTime1s>1000</dutyTime1s>
				<wgs84Lat>37.5260820776</wgs84Lat>
				<wgs84Lon>126.8703542151</wgs84Lon>
			</item>
			<item>
				<dutyName>에스쁘와르의원</dutyName>
				<dutyTel1>02-2643-1675</dutyTel1>
				<dutyTime1c>1900</dutyTime1c>
				<dutyTime1s>1000</dutyTime1s>
				<wgs84Lat>37.5244997957529</wgs84Lat>
				<wgs84Lon>126.873565221322</wgs84Lon>
			</item>
			<item>
				<dutyName>엘스의원</dutyName>
				<dutyTel1>02-2602-1900</dutyTel1>
				<dutyTime1c>1830</dutyTime1c>
				<dutyTime1s>930</dutyTime1s>
				<wgs84Lat>37.5177619584585</wgs84Lat>
				<wgs84Lon>126.842017134345</wgs84Lon>
			</item>
			<item>
				<dutyName>엠디플러스치과의원</dutyName>
				<dutyTel1>02-2643-2875</dutyTel1>
				<dutyTime1c>1830</dutyTime1c>
				<dutyTime1s>930</dutyTime1s>
				<wgs84Lat>37.5214906451</wgs84Lat>
				<wgs84Lon>126.8578870695</wgs84Lon>
			</item>
			<item>
				<dutyName>여미애산부인과의원</dutyName>
				<dutyTel1>02-2649-3575</dutyTel1>
				<dutyTime1c>1900</dutyTime1c>
				<dutyTime1s>930</dutyTime1s>
				<wgs84Lat>37.5356091326</wgs84Lat>
				<wgs84Lon>126.878714854</wgs84Lon>
			</item>
			<item>
				<dutyName>연세365소아청소년과의원</dutyName>
				<dutyTel1>02-2699-0365</dutyTel1>
				<dutyTime1c>2100</dutyTime1c>
				<dutyTime1s>900</dutyTime1s>
				<wgs84Lat>37.521054691703</wgs84Lat>
				<wgs84Lon>126.852127780462</wgs84Lon>
			</item>
			<item>
				<dutyName>연세고운미소치과의원</dutyName>
				<dutyTel1>02-2642-3960</dutyTel1>
				<dutyTime1c>1830</dutyTime1c>
				<dutyTime1s>930</dutyTime1s>
				<wgs84Lat>37.5250866962889</wgs84Lat>
				<wgs84Lon>126.87340806185</wgs84Lon>
			</item>
			<item>
				<dutyName>연세내과의원</dutyName>
				<dutyTel1>02-2606-0833</dutyTel1>
				<dutyTime1c>1800</dutyTime1c>
				<dutyTime1s>830</dutyTime1s>
				<wgs84Lat>37.5225444444445</wgs84Lat>
				<wgs84Lon>126.852063888889</wgs84Lon>
			</item>
			<item>
				<dutyName>연세누리정신건강의학과의원</dutyName>
				<dutyTel1>02-2647-7579</dutyTel1>
				<dutyTime1c>1830</dutyTime1c>
				<dutyTime1s>1000</dutyTime1s>
				<wgs84Lat>37.5245748814654</wgs84Lat>
				<wgs84Lon>126.87301305719</wgs84Lon>
			</item>
			<item>
				<dutyName>연세닥터장치과의원</dutyName>
				<dutyTel1>02-2061-2888</dutyTel1>
				<dutyTime1c>1830</dutyTime1c>
				<dutyTime1s>930</dutyTime1s>
				<wgs84Lat>37.5374460122238</wgs84Lat>
				<wgs84Lon>126.881497167491</wgs84Lon>
			</item>
			<item>
				<dutyName>연세대성치과의원</dutyName>
				<dutyTel1>02-2642-3155</dutyTel1>
				<dutyTime1c>1800</dutyTime1c>
				<dutyTime1s>930</dutyTime1s>
				<wgs84Lat>37.5279170281044</wgs84Lat>
				<wgs84Lon>126.864391262826</wgs84Lon>
			</item>
			<item>
				<dutyName>연세더블유산부인과의원</dutyName>
				<dutyTel1>02-2654-3500</dutyTel1>
				<dutyTime1c>1900</dutyTime1c>
				<dutyTime1s>930</dutyTime1s>
				<wgs84Lat>37.5240256867706</wgs84Lat>
				<wgs84Lon>126.875418974045</wgs84Lon>
			</item>
			<item>
				<dutyName>연세라온산부인과의원</dutyName>
				<dutyTel1>02-2061-3575</dutyTel1>
				<dutyTime1c>2100</dutyTime1c>
				<dutyTime1s>1000</dutyTime1s>
				<wgs84Lat>37.5281782237147</wgs84Lat>
				<wgs84Lon>126.875771876431</wgs84Lon>
			</item>
			<item>
				<dutyName>연세레몬치과의원</dutyName>
				<dutyTel1>02-2655-2875</dutyTel1>
				<dutyTime1c>1800</dutyTime1c>
				<dutyTime1s>930</dutyTime1s>
				<wgs84Lat>37.5360253491139</wgs84Lat>
				<wgs84Lon>126.870196704848</wgs84Lon>
			</item>
			<item>
				<dutyName>연세로이재활의학과의원</dutyName>
				<dutyTel1>02-3666-8886</dutyTel1>
				<dutyTime1c>1900</dutyTime1c>
				<dutyTime1s>900</dutyTime1s>
				<wgs84Lat>37.510848560092</wgs84Lat>
				<wgs84Lon>126.841844440273</wgs84Lon>
			</item>
			<item>
				<dutyName>연세마스터치과의원</dutyName>
				<dutyTel1>02-2648-0202</dutyTel1>
				<dutyTime1c>1830</dutyTime1c>
				<dutyTime1s>930</dutyTime1s>
				<wgs84Lat>37.5235867227</wgs84Lat>
				<wgs84Lon>126.875774965</wgs84Lon>
			</item>
			<item>
				<dutyName>연세명치과의원</dutyName>
				<dutyTel1>02-2646-0300</dutyTel1>
				<dutyTime1c>1800</dutyTime1c>
				<dutyTime1s>930</dutyTime1s>
				<wgs84Lat>37.5162483501259</wgs84Lat>
				<wgs84Lon>126.87183266257</wgs84Lon>
			</item>
			<item>
				<dutyName>연세밝은아이치과의원</dutyName>
				<dutyTel1>02-2692-2803</dutyTel1>
				<dutyTime1c>1830</dutyTime1c>
				<dutyTime1s>1000</dutyTime1s>
				<wgs84Lat>37.5265131185228</wgs84Lat>
				<wgs84Lon>126.86315616816</wgs84Lon>
			</item>
			<item>
				<dutyName>연세샌프란시스코치과의원</dutyName>
				<dutyTel1>02-2696-8222</dutyTel1>
				<dutyTime1c>1800</dutyTime1c>
				<dutyTime1s>930</dutyTime1s>
				<wgs84Lat>37.5272666666667</wgs84Lat>
				<wgs84Lon>126.863788888889</wgs84Lon>
			</item>
			<item>
				<dutyName>연세수재활의학과의원</dutyName>
				<dutyTel1>02-2061-8275</dutyTel1>
				<dutyTime1c>1900</dutyTime1c>
				<dutyTime1s>900</dutyTime1s>
				<wgs84Lat>37.535610713453</wgs84Lat>
				<wgs84Lon>126.878718811479</wgs84Lon>
			</item>
			<item>
				<dutyName>연세시카고치과의원</dutyName>
				<dutyTel1>02-2642-2121</dutyTel1>
				<dutyTime1c>1900</dutyTime1c>
				<dutyTime1s>930</dutyTime1s>
				<wgs84Lat>37.5482781318968</wgs84Lat>
				<wgs84Lon>126.866827648081</wgs84Lon>
			</item>
			<item>
				<dutyName>연세안과의원</dutyName>
				<dutyTel1>02-2065-0075</dutyTel1>
				<dutyTime1c>1800</dutyTime1c>
				<dutyTime1s>900</dutyTime1s>
				<wgs84Lat>37.5264994783185</wgs84Lat>
				<wgs84Lon>126.863371137962</wgs84Lon>
			</item>
			<item>
				<dutyName>연세윤내과의원</dutyName>
				<dutyTel1>02-2604-7373</dutyTel1>
				<dutyTime1c>1900</dutyTime1c>
				<dutyTime1s>900</dutyTime1s>
				<wgs84Lat>37.5264994783185</wgs84Lat>
				<wgs84Lon>126.863371137962</wgs84Lon>
			</item>
			<item>
				<dutyName>연세으뜸치과의원</dutyName>
				<dutyTel1>02-2642-8586</dutyTel1>
				<dutyTime1c>1800</dutyTime1c>
				<dutyTime1s>1000</dutyTime1s>
				<wgs84Lat>37.5332670829103</wgs84Lat>
				<wgs84Lon>126.869556401922</wgs84Lon>
			</item>
			<item>
				<dutyName>연세이비인후과의원</dutyName>
				<dutyTel1>02-2607-3055</dutyTel1>
				<dutyTime1c>1830</dutyTime1c>
				<dutyTime1s>900</dutyTime1s>
				<wgs84Lat>37.5181410609454</wgs84Lat>
				<wgs84Lon>126.842532168636</wgs84Lon>
			</item>
			<item>
				<dutyName>연세재활의학과의원</dutyName>
				<dutyTel1>02-2065-3338</dutyTel1>
				<dutyTime1c>1900</dutyTime1c>
				<dutyTime1s>930</dutyTime1s>
				<wgs84Lat>37.5264604821422</wgs84Lat>
				<wgs84Lon>126.863932331256</wgs84Lon>
			</item>
			<item>
				<dutyName>연세주니어치과의원</dutyName>
				<dutyTel1>02-2646-2875</dutyTel1>
				<dutyTime1c>1830</dutyTime1c>
				<dutyTime1s>1000</dutyTime1s>
				<wgs84Lat>37.516006493621</wgs84Lat>
				<wgs84Lon>126.862284238287</wgs84Lon>
			</item>
			<item>
				<dutyName>연세준안과의원</dutyName>
				<dutyTel1>02-2642-6858</dutyTel1>
				<dutyTime1c>1800</dutyTime1c>
				<dutyTime1s>930</dutyTime1s>
				<wgs84Lat>37.5155923195547</wgs84Lat>
				<wgs84Lon>126.862147933177</wgs84Lon>
			</item>
			<item>
				<dutyName>연세최내과의원</dutyName>
				<dutyTel1>02-2646-3303</dutyTel1>
				<dutyTime1c>1900</dutyTime1c>
				<dutyTime1s>830</dutyTime1s>
				<wgs84Lat>37.5212467260935</wgs84Lat>
				<wgs84Lon>126.855864918117</wgs84Lon>
			</item>
			<item>
				<dutyName>연세치과의원</dutyName>
				<dutyTel1>02-2648-2442</dutyTel1>
				<dutyTime1c>1800</dutyTime1c>
				<dutyTime1s>1000</dutyTime1s>
				<wgs84Lat>37.531517520746</wgs84Lat>
				<wgs84Lon>126.870905967502</wgs84Lon>
			</item>
			<item>
				<dutyName>연세퀸의원</dutyName>
				<dutyTel1>02-2653-5500</dutyTel1>
				<dutyTime1c>2000</dutyTime1c>
				<dutyTime1s>1000</dutyTime1s>
				<wgs84Lat>37.5240725818753</wgs84Lat>
				<wgs84Lon>126.875459620107</wgs84Lon>
			</item>
			<item>
				<dutyName>연세크리스마스치과의원</dutyName>
				<dutyTel1>02-2645-5540</dutyTel1>
				<dutyTime1c>1830</dutyTime1c>
				<dutyTime1s>1000</dutyTime1s>
				<wgs84Lat>37.5257516471458</wgs84Lat>
				<wgs84Lon>126.874748694378</wgs84Lon>
			</item>
			<item>
				<dutyName>연세탑비뇨기과의원</dutyName>
				<dutyTel1>02-2605-2580</dutyTel1>
				<dutyTime1c>1900</dutyTime1c>
				<dutyTime1s>930</dutyTime1s>
				<wgs84Lat>37.5265273064691</wgs84Lat>
				<wgs84Lon>126.863287391889</wgs84Lon>
			</item>
			<item>
				<dutyName>연세필정신과의원</dutyName>
				<dutyTel1>02-2696-8114</dutyTel1>
				<dutyTime1c>1800</dutyTime1c>
				<dutyTime1s>1000</dutyTime1s>
				<wgs84Lat>37.5264922434226</wgs84Lat>
				<wgs84Lon>126.863353070997</wgs84Lon>
			</item>
			<item>
				<dutyName>연세힐링치과의원</dutyName>
				<dutyTel1>02-2644-2875</dutyTel1>
				<dutyTime1c>1830</dutyTime1c>
				<dutyTime1s>930</dutyTime1s>
				<wgs84Lat>37.549072266946</wgs84Lat>
				<wgs84Lon>126.867939740383</wgs84Lon>
			</item>
			<item>
				<dutyName>열린경희한의원</dutyName>
				<dutyTel1>02-2655-1775</dutyTel1>
				<dutyTime1c>2100</dutyTime1c>
				<dutyTime1s>930</dutyTime1s>
				<wgs84Lat>37.5487442157</wgs84Lat>
				<wgs84Lon>126.8672822023</wgs84Lon>
			</item>
			<item>
				<dutyName>열린연세소아과의원</dutyName>
				<dutyTel1>02-2061-2109</dutyTel1>
				<dutyTime1c>1930</dutyTime1c>
				<dutyTime1s>900</dutyTime1s>
				<wgs84Lat>37.5488234149308</wgs84Lat>
				<wgs84Lon>126.864036539508</wgs84Lon>
			</item>
			<item>
				<dutyName>열린이비인후과의원</dutyName>
				<dutyTel1>02-2690-5075</dutyTel1>
				<dutyTime1c>1830</dutyTime1c>
				<dutyTime1s>930</dutyTime1s>
				<wgs84Lat>37.5207809184932</wgs84Lat>
				<wgs84Lon>126.852227846577</wgs84Lon>
			</item>
			<item>
				<dutyName>영빈치과의원</dutyName>
				<dutyTel1>02-2694-0061</dutyTel1>
				<dutyTime1c>1830</dutyTime1c>
				<dutyTime1s>1000</dutyTime1s>
				<wgs84Lat>37.5227079165394</wgs84Lat>
				<wgs84Lon>126.833090612465</wgs84Lon>
			</item>
			<item>
				<dutyName>영생한의원</dutyName>
				<dutyTel1>02-874-4747</dutyTel1>
				<dutyTime1c>1900</dutyTime1c>
				<dutyTime1s>930</dutyTime1s>
				<wgs84Lat>37.5216948801</wgs84Lat>
				<wgs84Lon>126.8599047834</wgs84Lon>
			</item>
			<item>
				<dutyName>영의원</dutyName>
				<dutyTel1>02-2648-0155</dutyTel1>
				<dutyTime1c>1900</dutyTime1c>
				<dutyTime1s>900</dutyTime1s>
				<wgs84Lat>37.5495547404398</wgs84Lat>
				<wgs84Lon>126.866950325222</wgs84Lon>
			</item>
			<item>
				<dutyName>예강한의원</dutyName>
				<dutyTel1>02-2643-1735</dutyTel1>
				<dutyTime1c>1830</dutyTime1c>
				<dutyTime1s>930</dutyTime1s>
				<wgs84Lat>37.5150644935899</wgs84Lat>
				<wgs84Lon>126.86074970536</wgs84Lon>
			</item>
			<item>
				<dutyName>예본치과의원</dutyName>
				<dutyTel1>02-2652-0494</dutyTel1>
				<dutyTime1c>1830</dutyTime1c>
				<dutyTime1s>930</dutyTime1s>
				<wgs84Lat>37.5280353011836</wgs84Lat>
				<wgs84Lon>126.870624523783</wgs84Lon>
			</item>
			<item>
				<dutyName>예사랑정형외과의원</dutyName>
				<dutyTel1>02-2649-7994</dutyTel1>
				<dutyTime1c>1900</dutyTime1c>
				<dutyTime1s>900</dutyTime1s>
				<wgs84Lat>37.5483145252817</wgs84Lat>
				<wgs84Lon>126.866558724179</wgs84Lon>
			</item>
			<item>
				<dutyName>예사랑치과의원</dutyName>
				<dutyTel1>02-2065-7528</dutyTel1>
				<dutyTime1c>1830</dutyTime1c>
				<dutyTime1s>930</dutyTime1s>
				<wgs84Lat>37.512767793404</wgs84Lat>
				<wgs84Lon>126.851554055033</wgs84Lon>
			</item>
			<item>
				<dutyName>예손한의원</dutyName>
				<dutyTel1>02-2651-1004</dutyTel1>
				<dutyTime1c>1830</dutyTime1c>
				<dutyTime1s>830</dutyTime1s>
				<wgs84Lat>37.522621834699</wgs84Lat>
				<wgs84Lon>126.873310468439</wgs84Lon>
			</item>
			<item>
				<dutyName>예스치과의원</dutyName>
				<dutyTel1>02-2601-2825</dutyTel1>
				<dutyTime1c>1830</dutyTime1c>
				<dutyTime1s>1000</dutyTime1s>
				<wgs84Lat>37.5114239843927</wgs84Lat>
				<wgs84Lon>126.843129891463</wgs84Lon>
			</item>
			<item>
				<dutyName>예인소아청소년과의원</dutyName>
				<dutyTel1>02-2690-5747</dutyTel1>
				<dutyTime1c>1830</dutyTime1c>
				<dutyTime1s>900</dutyTime1s>
				<wgs84Lat>37.5396758425</wgs84Lat>
				<wgs84Lon>126.8276597751</wgs84Lon>
			</item>
			<item>
				<dutyName>예인치과의원</dutyName>
				<dutyTel1>02-2604-2873</dutyTel1>
				<dutyTime1c>1900</dutyTime1c>
				<dutyTime1s>930</dutyTime1s>
				<wgs84Lat>37.5396758424788</wgs84Lat>
				<wgs84Lon>126.827659775111</wgs84Lon>
			</item>
			<item>
				<dutyName>예인피부과의원</dutyName>
				<dutyTel1>02-2643-4476</dutyTel1>
				<dutyTime1c>1900</dutyTime1c>
				<dutyTime1s>1000</dutyTime1s>
				<wgs84Lat>37.5356091326</wgs84Lat>
				<wgs84Lon>126.878714854</wgs84Lon>
			</item>
			<item>
				<dutyName>오내과의원</dutyName>
				<dutyTel1>02-2653-9327</dutyTel1>
				<dutyTime1c>1800</dutyTime1c>
				<dutyTime1s>1000</dutyTime1s>
				<wgs84Lat>37.5363909705494</wgs84Lat>
				<wgs84Lon>126.878496370963</wgs84Lon>
			</item>
			<item>
				<dutyName>오목교정치과의원</dutyName>
				<dutyTel1>02-2645-1718</dutyTel1>
				<dutyTime1c>1800</dutyTime1c>
				<dutyTime1s>1100</dutyTime1s>
				<wgs84Lat>37.5235867227291</wgs84Lat>
				<wgs84Lon>126.875774965006</wgs84Lon>
			</item>
			<item>
				<dutyName>오목한의원</dutyName>
				<dutyTel1>02-2653-8292</dutyTel1>
				<dutyTime1c>1830</dutyTime1c>
				<dutyTime1s>930</dutyTime1s>
				<wgs84Lat>37.5237857215278</wgs84Lat>
				<wgs84Lon>126.873464586073</wgs84Lon>
			</item>
			<item>
				<dutyName>오복치과의원</dutyName>
				<dutyTel1>02-2699-0500</dutyTel1>
				<dutyTime1c>2000</dutyTime1c>
				<dutyTime1s>1000</dutyTime1s>
				<wgs84Lat>37.5486548645519</wgs84Lat>
				<wgs84Lon>126.864765615421</wgs84Lon>
			</item>
			<item>
				<dutyName>오성산치과의원</dutyName>
				<dutyTel1>02-2652-8117</dutyTel1>
				<dutyTime1c>1830</dutyTime1c>
				<dutyTime1s>930</dutyTime1s>
				<wgs84Lat>37.5255670403248</wgs84Lat>
				<wgs84Lon>126.875694754224</wgs84Lon>
			</item>
			<item>
				<dutyName>오영제한의원</dutyName>
				<dutyTel1>02-2631-5503</dutyTel1>
				<dutyTime1c>1900</dutyTime1c>
				<dutyTime1s>930</dutyTime1s>
				<wgs84Lat>37.5261175324718</wgs84Lat>
				<wgs84Lon>126.870216088328</wgs84Lon>
			</item>
			<item>
				<dutyName>오용섭피부과의원</dutyName>
				<dutyTel1>02-2693-7582</dutyTel1>
				<dutyTime1c>1830</dutyTime1c>
				<dutyTime1s>940</dutyTime1s>
				<wgs84Lat>37.5207953735895</wgs84Lat>
				<wgs84Lon>126.852264037306</wgs84Lon>
			</item>
			<item>
				<dutyName>오치과의원</dutyName>
				<dutyTel1>02-2644-5399</dutyTel1>
				<dutyTime1c>1800</dutyTime1c>
				<dutyTime1s>1000</dutyTime1s>
				<wgs84Lat>37.5391036951043</wgs84Lat>
				<wgs84Lon>126.864257857559</wgs84Lon>
			</item>
			<item>
