<?xml version="1.0" encoding="UTF-8" standalone="yes"?>
<response xmlns:xsi="http://www.w3.org/2001/XMLSchema-instance">
	<body>
		<items>
			<item>
				<dutyName>97.7비엔에치의원</dutyName>
				<dutyTel1>02-3438-0510</dutyTel1>
				<dutyTime1c>1900</dutyTime1c>
				<dutyTime1s>1000</dutyTime1s>
				<wgs84Lat>37.5321894510312</wgs84Lat>
				<wgs84Lon>127.010816012518</wgs84Lon>
			</item>
			<item>
				<dutyName>강원한의원</dutyName>
				<dutyTel1>02-792-1991</dutyTel1>
				<dutyTime1c>1830</dutyTime1c>
				<dutyTime1s>930</dutyTime1s>
				<wgs84Lat>37.5312092286471</wgs84Lat>
				<wgs84Lon>127.010057854909</wgs84Lon>
			</item>
			<item>
				<dutyName>강태욱치과의원</dutyName>
				<dutyTel1>02-798-1126</dutyTel1>
				<dutyTime1c>1800</dutyTime1c>
				<dutyTime1s>1030</dutyTime1s>
				<wgs84Lat>37.538692022401</wgs84Lat>
				<wgs84Lon>126.988812923808</wgs84Lon>
			</item>
			<item>
				<dutyName>경희미담한의원</dutyName>
				<dutyTel1>02-798-8275</dutyTel1>
				<dutyTime1c>1900</dutyTime1c>
				<dutyTime1s>930</dutyTime1s>
				<wgs84Lat>37.5201456061</wgs84Lat>
				<wgs84Lon>126.9718783636</wgs84Lon>
			</item>
			<item>
				<dutyName>경희서계한의원</dutyName>
				<dutyTel1>02-716-1075</dutyTel1>
				<dutyTime1c>1900</dutyTime1c>
				<dutyTime1s>900</dutyTime1s>
				<wgs84Lat>37.5508638536771</wgs84Lat>
				<wgs84Lon>126.963569464092</wgs84Lon>
			</item>
			<item>
				<dutyName>경희유엔한의원</dutyName>
				<dutyTel1>02-790-9939</dutyTel1>
				<dutyTime1c>1830</dutyTime1c>
				<dutyTime1s>930</dutyTime1s>
				<wgs84Lat>37.5342834411313</wgs84Lat>
				<wgs84Lon>127.010096735816</wgs84Lon>
			</item>
			<item>
				<dutyName>경희이촌한의원</dutyName>
				<dutyTel1>02-796-3337</dutyTel1>
				<dutyTime1c>1900</dutyTime1c>
				<dutyTime1s>1000</dutyTime1s>
				<wgs84Lat>37.5190292984527</wgs84Lat>
				<wgs84Lon>126.976132031743</wgs84Lon>
			</item>
			<item>
				<dutyName>경희장한의원</dutyName>
				<dutyTel1>02-749-1075</dutyTel1>
				<dutyTime1c>1900</dutyTime1c>
				<dutyTime1s>900</dutyTime1s>
				<wgs84Lat>37.5387054526</wgs84Lat>
				<wgs84Lon>126.9888028689</wgs84Lon>
			</item>
			<item>
				<dutyName>경희황금손한의원</dutyName>
				<dutyTel1>02-3273-5555</dutyTel1>
				<dutyTime1c>1800</dutyTime1c>
				<dutyTime1s>900</dutyTime1s>
				<wgs84Lat>37.5513464758</wgs84Lat>
				<wgs84Lon>126.9625688316</wgs84Lon>
			</item>
			<item>
				<dutyName>경희효전한의원</dutyName>
				<dutyTel1>02-545-3579</dutyTel1>
				<dutyTime1c>1800</dutyTime1c>
				<dutyTime1s>930</dutyTime1s>
				<wgs84Lat>37.5344709104332</wgs84Lat>
				<wgs84Lon>127.00935455185</wgs84Lon>
			</item>
			<item>
				<dutyName>고른이치과의원</dutyName>
				<dutyTel1>02-796-0844</dutyTel1>
				<dutyTime1c>1800</dutyTime1c>
				<dutyTime1s>1000</dutyTime1s>
				<wgs84Lat>37.5343782998</wgs84Lat>
				<wgs84Lon>126.973914093</wgs84Lon>
			</item>
			<item>
				<dutyName>고앤박치과의원</dutyName>
				<dutyTel1>02-793-2710</dutyTel1>
				<dutyTime1c>1800</dutyTime1c>
				<dutyTime1s>1000</dutyTime1s>
				<wgs84Lat>37.5372540559209</wgs84Lat>
				<wgs84Lon>126.972858571911</wgs84Lon>
			</item>
			<item>
				<dutyName>구창서치과의원</dutyName>
				<dutyTel1>02-798-1100</dutyTel1>
				<dutyTime1c>1800</dutyTime1c>
				<dutyTime1s>900</dutyTime1s>
				<wgs84Lat>37.5193858674193</wgs84Lat>
				<wgs84Lon>126.975027878002</wgs84Lon>
			</item>
			<item>
				<dutyName>국방의원</dutyName>
				<dutyTel1>02-748-1171</dutyTel1>
				<dutyTime1c>1800</dutyTime1c>
				<dutyTime1s>900</dutyTime1s>
				<wgs84Lat>37.5336582502378</wgs84Lat>
				<wgs84Lon>126.977571042257</wgs84Lon>
			</item>
			<item>
				<dutyName>국방치과의원</dutyName>
				<dutyTel1>02-748-1186</dutyTel1>
				<dutyTime1c>1800</dutyTime1c>
				<dutyTime1s>900</dutyTime1s>
				<wgs84Lat>37.5336582502378</wgs84Lat>
				<wgs84Lon>126.977571042257</wgs84Lon>
			</item>
			<item>
				<dutyName>국방한의원</dutyName>
				<dutyTel1>02-748-1188</dutyTel1>
				<dutyTime1c>1630</dutyTime1c>
				<dutyTime1s>900</dutyTime1s>
				<wgs84Lat>37.5336582502378</wgs84Lat>
				<wgs84Lon>126.977571042257</wgs84Lon>
			</item>
			<item>
				<dutyName>국제의원</dutyName>
				<dutyTel1>02-790-0857</dutyTel1>
				<dutyTime1c>1830</dutyTime1c>
				<dutyTime1s>900</dutyTime1s>
				<wgs84Lat>37.534986622</wgs84Lat>
				<wgs84Lon>126.9972755302</wgs84Lon>
			</item>
			<item>
				<dutyName>굿모닝치과의원</dutyName>
				<dutyTel1>02-798-7528</dutyTel1>
				<dutyTime1c>1900</dutyTime1c>
				<dutyTime1s>1000</dutyTime1s>
				<wgs84Lat>37.519087895563</wgs84Lat>
				<wgs84Lon>126.975911802696</wgs84Lon>
			</item>
			<item>
				<dutyName>그레이스치과의원</dutyName>
				<dutyTel1>02-794-7700</dutyTel1>
				<dutyTime1c>1900</dutyTime1c>
				<dutyTime1s>1000</dutyTime1s>
				<wgs84Lat>37.5346548931</wgs84Lat>
				<wgs84Lon>126.9932657923</wgs84Lon>
			</item>
			<item>
				<dutyName>금강아산병원(재단법인아산사회복지재단)</dutyName>
				<dutyTel1>02-799-5000</dutyTel1>
				<dutyTime1c>1630</dutyTime1c>
				<dutyTime1s>820</dutyTime1s>
				<wgs84Lat>37.5176175529939</wgs84Lat>
				<wgs84Lon>126.981919506226</wgs84Lon>
			</item>
			<item>
				<dutyName>김낙인피부과의원</dutyName>
				<dutyTel1>02-2039-7550</dutyTel1>
				<dutyTime1c>1800</dutyTime1c>
				<dutyTime1s>930</dutyTime1s>
				<wgs84Lat>37.5415859611</wgs84Lat>
				<wgs84Lon>126.9724134443</wgs84Lon>
			</item>
			<item>
				<dutyName>김내과의원</dutyName>
				<dutyTel1>02-703-2226</dutyTel1>
				<dutyTime1c>1900</dutyTime1c>
				<dutyTime1s>800</dutyTime1s>
				<wgs84Lat>37.5397806549</wgs84Lat>
				<wgs84Lon>126.9607325374</wgs84Lon>
			</item>
			<item>
				<dutyName>김도현소아청소년과의원</dutyName>
				<dutyTel1>02-713-9340</dutyTel1>
				<dutyTime1c>1800</dutyTime1c>
				<dutyTime1s>900</dutyTime1s>
				<wgs84Lat>37.5381759535543</wgs84Lat>
				<wgs84Lon>126.967193009772</wgs84Lon>
			</item>
			<item>
				<dutyName>김성태치과</dutyName>
				<dutyTel1>02-797-2865</dutyTel1>
				<dutyTime1c>1800</dutyTime1c>
				<dutyTime1s>1000</dutyTime1s>
				<wgs84Lat>37.519649754681</wgs84Lat>
				<wgs84Lon>126.974291755859</wgs84Lon>
			</item>
			<item>
				<dutyName>김승욱내과의원</dutyName>
				<dutyTel1>02-3273-7533</dutyTel1>
				<dutyTime1c>1900</dutyTime1c>
				<dutyTime1s>900</dutyTime1s>
				<wgs84Lat>37.5513434143924</wgs84Lat>
				<wgs84Lon>126.962560736817</wgs84Lon>
			</item>
			<item>
				<dutyName>김안과의원</dutyName>
				<dutyTel1>02-715-2422</dutyTel1>
				<dutyTime1c>1900</dutyTime1c>
				<dutyTime1s>930</dutyTime1s>
				<wgs84Lat>37.5444048861279</wgs84Lat>
				<wgs84Lon>126.97189290701</wgs84Lon>
			</item>
			<item>
				<dutyName>김연일정형외과의원</dutyName>
				<dutyTel1>02-792-3667</dutyTel1>
				<dutyTime1c>1800</dutyTime1c>
				<dutyTime1s>930</dutyTime1s>
				<wgs84Lat>37.5179952595687</wgs84Lat>
				<wgs84Lon>126.977734094565</wgs84Lon>
			</item>
			<item>
				<dutyName>김영주치과의원</dutyName>
				<dutyTel1>02-713-3400</dutyTel1>
				<dutyTime1c>1800</dutyTime1c>
				<dutyTime1s>930</dutyTime1s>
				<wgs84Lat>37.526394229251</wgs84Lat>
				<wgs84Lon>126.955614046546</wgs84Lon>
			</item>
			<item>
				<dutyName>김용연재활의학과의원</dutyName>
				<dutyTel1>02-792-6358</dutyTel1>
				<dutyTime1c>1900</dutyTime1c>
				<dutyTime1s>900</dutyTime1s>
				<wgs84Lat>37.5206831139733</wgs84Lat>
				<wgs84Lon>126.970314084211</wgs84Lon>
			</item>
			<item>
				<dutyName>김재관한의원</dutyName>
				<dutyTel1>02-790-1047</dutyTel1>
				<dutyTime1c>1700</dutyTime1c>
				<dutyTime1s>900</dutyTime1s>
				<wgs84Lat>37.5301462611431</wgs84Lat>
				<wgs84Lon>126.969969414042</wgs84Lon>
			</item>
			<item>
				<dutyName>김정범치과의원</dutyName>
				<dutyTel1>02-794-7083</dutyTel1>
				<dutyTime1c>1800</dutyTime1c>
				<dutyTime1s>900</dutyTime1s>
				<wgs84Lat>37.5335533053688</wgs84Lat>
				<wgs84Lon>127.007155947613</wgs84Lon>
			</item>
			<item>
				<dutyName>김형석소아과의원</dutyName>
				<dutyTel1>02-718-8982</dutyTel1>
				<dutyTime1c>1900</dutyTime1c>
				<dutyTime1s>900</dutyTime1s>
				<wgs84Lat>37.5338624607953</wgs84Lat>
				<wgs84Lon>126.950068733049</wgs84Lon>
			</item>
			<item>
				<dutyName>김호선한의원</dutyName>
				<dutyTel1>02-422-4075</dutyTel1>
				<dutyTime1c>1800</dutyTime1c>
				<dutyTime1s>900</dutyTime1s>
				<wgs84Lat>37.5461653151</wgs84Lat>
				<wgs84Lon>126.9850584428</wgs84Lon>
			</item>
			<item>
				<dutyName>김홍경의신농백초한의원</dutyName>
				<dutyTel1>02-736-4644</dutyTel1>
				<dutyTime1c>1900</dutyTime1c>
				<dutyTime1s>900</dutyTime1s>
				<wgs84Lat>37.5447573066</wgs84Lat>
				<wgs84Lon>126.9716835434</wgs84Lon>
			</item>
			<item>
				<dutyName>나비드치과의원</dutyName>
				<dutyTel1>02-790-7119</dutyTel1>
				<dutyTime1c>1900</dutyTime1c>
				<dutyTime1s>1000</dutyTime1s>
				<wgs84Lat>37.5341876326861</wgs84Lat>
				<wgs84Lon>127.006540512061</wgs84Lon>
			</item>
			<item>
				<dutyName>내이치과의원</dutyName>
				<dutyTel1>02-797-6220</dutyTel1>
				<dutyTime1c>1830</dutyTime1c>
				<dutyTime1s>1000</dutyTime1s>
				<wgs84Lat>37.5280588929787</wgs84Lat>
				<wgs84Lon>126.967464521523</wgs84Lon>
			</item>
			<item>
				<dutyName>노만희정신건강의학과의원</dutyName>
				<dutyTel1>02-793-0945</dutyTel1>
				<dutyTime1c>1800</dutyTime1c>
				<dutyTime1s>900</dutyTime1s>
				<wgs84Lat>37.5341503448027</wgs84Lat>
				<wgs84Lon>127.006516931308</wgs84Lon>
			</item>
			<item>
				<dutyName>노블라인치과의원</dutyName>
				<dutyTel1>02-790-2822</dutyTel1>
				<dutyTime1c>1830</dutyTime1c>
				<dutyTime1s>930</dutyTime1s>
				<wgs84Lat>37.5240708801475</wgs84Lat>
				<wgs84Lon>126.970403173421</wgs84Lon>
			</item>
			<item>
				<dutyName>노블치과의원</dutyName>
				<dutyTel1>02-703-8287</dutyTel1>
				<dutyTime1c>1900</dutyTime1c>
				<dutyTime1s>1000</dutyTime1s>
				<wgs84Lat>37.5338624607953</wgs84Lat>
				<wgs84Lon>126.950068733049</wgs84Lon>
			</item>
			<item>
				<dutyName>뉴욕컬럼비아치과의원</dutyName>
				<dutyTel1>02-797-1771</dutyTel1>
				<dutyTime1c>1900</dutyTime1c>
				<dutyTime1s>1000</dutyTime1s>
				<wgs84Lat>37.5348171663069</wgs84Lat>
				<wgs84Lon>126.995302357449</wgs84Lon>
			</item>
			<item>
				<dutyName>느티나무한의원</dutyName>
				<dutyTel1>02-797-5255</dutyTel1>
				<dutyTime1c>1800</dutyTime1c>
				<dutyTime1s>1030</dutyTime1s>
				<wgs84Lat>37.5343485767773</wgs84Lat>
				<wgs84Lon>127.006195647383</wgs84Lon>
			</item>
			<item>
				<dutyName>늘좋은한의원</dutyName>
				<dutyTel1>02-792-2523</dutyTel1>
				<dutyTime1c>1900</dutyTime1c>
				<dutyTime1s>900</dutyTime1s>
				<wgs84Lat>37.5264379424029</wgs84Lat>
				<wgs84Lon>127.000923157457</wgs84Lon>
			</item>
			<item>
				<dutyName>다나의원</dutyName>
				<dutyTel1>02-749-5009</dutyTel1>
				<dutyTime1c>1800</dutyTime1c>
				<dutyTime1s>900</dutyTime1s>
				<wgs84Lat>37.533834364945</wgs84Lat>
				<wgs84Lon>127.008128970868</wgs84Lon>
			</item>
			<item>
				<dutyName>다인한의원</dutyName>
				<dutyTel1>02-711-9557</dutyTel1>
				<dutyTime1c>2100</dutyTime1c>
				<dutyTime1s>1000</dutyTime1s>
				<wgs84Lat>37.5450659705</wgs84Lat>
				<wgs84Lon>126.9667723842</wgs84Lon>
			</item>
			<item>
				<dutyName>닥터고치과의원</dutyName>
				<dutyTel1>02-707-2882</dutyTel1>
				<dutyTime1c>1830</dutyTime1c>
				<dutyTime1s>930</dutyTime1s>
				<wgs84Lat>37.5443969556</wgs84Lat>
				<wgs84Lon>126.9718873617</wgs84Lon>
			</item>
			<item>
				<dutyName>닥터유이비인후과의원</dutyName>
				<dutyTel1>02-6271-2525</dutyTel1>
				<dutyTime1c>1800</dutyTime1c>
				<dutyTime1s>900</dutyTime1s>
				<wgs84Lat>37.5209522741971</wgs84Lat>
				<wgs84Lon>126.969344145202</wgs84Lon>
			</item>
			<item>
				<dutyName>대남의원</dutyName>
				<dutyTel1>02-754-4414</dutyTel1>
				<dutyTime1c>1800</dutyTime1c>
				<dutyTime1s>900</dutyTime1s>
				<wgs84Lat>37.5499305555556</wgs84Lat>
				<wgs84Lon>126.977113888889</wgs84Lon>
			</item>
			<item>
				<dutyName>대원치과의원</dutyName>
				<dutyTel1>02-794-0551</dutyTel1>
				<dutyTime1c>1800</dutyTime1c>
				<dutyTime1s>1000</dutyTime1s>
				<wgs84Lat>37.534651254639</wgs84Lat>
				<wgs84Lon>126.992686505952</wgs84Lon>
			</item>
			<item>
				<dutyName>대한민국한의원</dutyName>
				<dutyTel1>02-797-9988</dutyTel1>
				<dutyTime1c>1900</dutyTime1c>
				<dutyTime1s>900</dutyTime1s>
				<wgs84Lat>37.5262541456111</wgs84Lat>
				<wgs84Lon>127.000651624435</wgs84Lon>
			</item>
			<item>
				<dutyName>더블유스타일치과의원</dutyName>
				<dutyTel1>02-704-8275</dutyTel1>
				<dutyTime1c>1900</dutyTime1c>
				<dutyTime1s>930</dutyTime1s>
				<wgs84Lat>37.5379375928</wgs84Lat>
				<wgs84Lon>126.9679749045</wgs84Lon>
			</item>
			<item>
				<dutyName>더블유외과의원</dutyName>
				<dutyTel1>02-717-7175</dutyTel1>
				<dutyTime1c>1830</dutyTime1c>
				<dutyTime1s>930</dutyTime1s>
				<wgs84Lat>37.5422327570451</wgs84Lat>
				<wgs84Lon>126.971918746307</wgs84Lon>
			</item>
			<item>
				<dutyName>더행복한치과의원</dutyName>
				<dutyTel1>02-794-2879</dutyTel1>
				<dutyTime1c>1900</dutyTime1c>
				<dutyTime1s>1000</dutyTime1s>
				<wgs84Lat>37.5288190969</wgs84Lat>
				<wgs84Lon>126.9666528833</wgs84Lon>
			</item>
			<item>
				<dutyName>동민의원</dutyName>
				<dutyTel1>02-714-0593</dutyTel1>
				<dutyTime1c>1800</dutyTime1c>
				<dutyTime1s>900</dutyTime1s>
				<wgs84Lat>37.5484798841175</wgs84Lat>
				<wgs84Lon>126.970278936901</wgs84Lon>
			</item>
			<item>
				<dutyName>동방한의원</dutyName>
				<dutyTel1>02-712-5041</dutyTel1>
				<dutyTime1c>1800</dutyTime1c>
				<dutyTime1s>1000</dutyTime1s>
				<wgs84Lat>37.5363217154622</wgs84Lat>
				<wgs84Lon>126.961486900028</wgs84Lon>
			</item>
			<item>
				<dutyName>동백한의원</dutyName>
				<dutyTel1>02-796-7904</dutyTel1>
				<dutyTime1c>1900</dutyTime1c>
				<dutyTime1s>900</dutyTime1s>
				<wgs84Lat>37.5233290565851</wgs84Lat>
				<wgs84Lon>126.972756458784</wgs84Lon>
			</item>
			<item>
				<dutyName>동성한의원</dutyName>
				<dutyTel1>02-754-8742</dutyTel1>
				<dutyTime1c>1800</dutyTime1c>
				<dutyTime1s>1000</dutyTime1s>
				<wgs84Lat>37.551598870057</wgs84Lat>
				<wgs84Lon>126.977158284624</wgs84Lon>
			</item>
			<item>
				<dutyName>드림이비인후과의원</dutyName>
				<dutyTel1>02-790-5075</dutyTel1>
				<dutyTime1c>1800</dutyTime1c>
				<dutyTime1s>900</dutyTime1s>
				<wgs84Lat>37.5200636707001</wgs84Lat>
				<wgs84Lon>126.972033750636</wgs84Lon>
			</item>
			<item>
				<dutyName>라라산부인과의원</dutyName>
				<dutyTel1>02-707-2005</dutyTel1>
				<dutyTime1c>2000</dutyTime1c>
				<dutyTime1s>1000</dutyTime1s>
				<wgs84Lat>37.5337142884</wgs84Lat>
				<wgs84Lon>126.9940126042</wgs84Lon>
			</item>
			<item>
				<dutyName>라엘르의원</dutyName>
				<dutyTel1>02-749-0126</dutyTel1>
				<dutyTime1c>2100</dutyTime1c>
				<dutyTime1s>1030</dutyTime1s>
				<wgs84Lat>37.5438745567221</wgs84Lat>
				<wgs84Lon>126.972657300546</wgs84Lon>
			</item>
			<item>
				<dutyName>래안치과의원</dutyName>
				<dutyTel1>02-798-2875</dutyTel1>
				<dutyTime1c>1830</dutyTime1c>
				<dutyTime1s>930</dutyTime1s>
				<wgs84Lat>37.543975457121</wgs84Lat>
				<wgs84Lon>126.972629843977</wgs84Lon>
			</item>
			<item>
				<dutyName>랜드엘치과의원</dutyName>
				<dutyTel1>02-3272-2875</dutyTel1>
				<dutyTime1c>1900</dutyTime1c>
				<dutyTime1s>1000</dutyTime1s>
				<wgs84Lat>37.5329368170052</wgs84Lat>
				<wgs84Lon>126.959284772845</wgs84Lon>
			</item>
			<item>
				<dutyName>로하스가정의학과의원</dutyName>
				<dutyTel1>02-790-7470</dutyTel1>
				<dutyTime1c>1800</dutyTime1c>
				<dutyTime1s>900</dutyTime1s>
				<wgs84Lat>37.5190292984527</wgs84Lat>
				<wgs84Lon>126.976132031743</wgs84Lon>
			</item>
			<item>
				<dutyName>리더스치과의원</dutyName>
				<dutyTel1>02-717-7528</dutyTel1>
				<dutyTime1c>1830</dutyTime1c>
				<dutyTime1s>930</dutyTime1s>
				<wgs84Lat>37.5845666666667</wgs84Lat>
				<wgs84Lon>126.826733333333</wgs84Lon>
			</item>
			<item>
				<dutyName>마음담은삼성내과의원</dutyName>
				<dutyTel1>02-798-7550</dutyTel1>
				<dutyTime1c>1900</dutyTime1c>
				<dutyTime1s>900</dutyTime1s>
				<wgs84Lat>37.5442025026</wgs84Lat>
				<wgs84Lon>126.9725799516</wgs84Lon>
			</item>
			<item>
				<dutyName>마이디피부과의원이촌점</dutyName>
				<dutyTel1>02-790-7277</dutyTel1>
				<dutyTime1c>1830</dutyTime1c>
				<dutyTime1s>1000</dutyTime1s>
				<wgs84Lat>37.520323115537</wgs84Lat>
				<wgs84Lon>126.971866231887</wgs84Lon>
			</item>
			<item>
				<dutyName>마쯔야마의원</dutyName>
				<dutyTel1>02-790-9677</dutyTel1>
				<dutyTime1c>1900</dutyTime1c>
				<dutyTime1s>930</dutyTime1s>
				<wgs84Lat>37.5330944017</wgs84Lat>
				<wgs84Lon>127.005946616</wgs84Lon>
			</item>
			<item>
				<dutyName>맨해튼치과의원</dutyName>
				<dutyTel1>02-749-3837</dutyTel1>
				<dutyTime1c>1830</dutyTime1c>
				<dutyTime1s>1000</dutyTime1s>
				<wgs84Lat>37.5356281648243</wgs84Lat>
				<wgs84Lon>126.999493117563</wgs84Lon>
			</item>
			<item>
				<dutyName>명내과의원</dutyName>
				<dutyTel1>02-714-1675</dutyTel1>
				<dutyTime1c>1830</dutyTime1c>
				<dutyTime1s>900</dutyTime1s>
				<wgs84Lat>37.5395722222222</wgs84Lat>
				<wgs84Lon>126.960972222222</wgs84Lon>
			</item>
			<item>
				<dutyName>명소아과의원</dutyName>
				<dutyTel1>02-704-7577</dutyTel1>
				<dutyTime1c>1830</dutyTime1c>
				<dutyTime1s>900</dutyTime1s>
				<wgs84Lat>37.5374521170865</wgs84Lat>
				<wgs84Lon>126.959683762206</wgs84Lon>
			</item>
			<item>
				<dutyName>문원실산부인과의원</dutyName>
				<dutyTel1>02-795-2922</dutyTel1>
				<dutyTime1c>1730</dutyTime1c>
				<dutyTime1s>1000</dutyTime1s>
				<wgs84Lat>37.5265280494794</wgs84Lat>
				<wgs84Lon>127.000778332032</wgs84Lon>
			</item>
			<item>
				<dutyName>미소인치과의원</dutyName>
				<dutyTel1>02-796-2280</dutyTel1>
				<dutyTime1c>1900</dutyTime1c>
				<dutyTime1s>1000</dutyTime1s>
				<wgs84Lat>37.5199479645401</wgs84Lat>
				<wgs84Lon>126.974425893778</wgs84Lon>
			</item>
			<item>
				<dutyName>미소지인의원</dutyName>
				<dutyTel1>02-718-5004</dutyTel1>
				<dutyTime1c>1900</dutyTime1c>
				<dutyTime1s>1000</dutyTime1s>
				<wgs84Lat>37.5434390419876</wgs84Lat>
				<wgs84Lon>126.971970234089</wgs84Lon>
			</item>
			<item>
				<dutyName>미앤영의원</dutyName>
				<dutyTel1>02-3275-0010</dutyTel1>
				<dutyTime1c>1900</dutyTime1c>
				<dutyTime1s>1000</dutyTime1s>
				<wgs84Lat>37.5422093301</wgs84Lat>
				<wgs84Lon>126.9718927092</wgs84Lon>
			</item>
			<item>
				<dutyName>믿음치과의원</dutyName>
				<dutyTel1>02-794-2323</dutyTel1>
				<dutyTime1c>1900</dutyTime1c>
				<dutyTime1s>1000</dutyTime1s>
				<wgs84Lat>37.5343679133089</wgs84Lat>
				<wgs84Lon>126.972240824883</wgs84Lon>
			</item>
			<item>
				<dutyName>바른길한의원</dutyName>
				<dutyTel1>02-778-1075</dutyTel1>
				<dutyTime1c>1840</dutyTime1c>
				<dutyTime1s>920</dutyTime1s>
				<wgs84Lat>37.5412870841</wgs84Lat>
				<wgs84Lon>126.9735269696</wgs84Lon>
			</item>
			<item>
				<dutyName>박소아과의원</dutyName>
				<dutyTel1>02-777-5945</dutyTel1>
				<dutyTime1c>1800</dutyTime1c>
				<dutyTime1s>900</dutyTime1s>
				<wgs84Lat>37.545628334475</wgs84Lat>
				<wgs84Lon>126.985176234798</wgs84Lon>
			</item>
			<item>
				<dutyName>박영진치과의원</dutyName>
				<dutyTel1>02-792-0733</dutyTel1>
				<dutyTime1c>1730</dutyTime1c>
				<dutyTime1s>1000</dutyTime1s>
				<wgs84Lat>37.5262541456111</wgs84Lat>
				<wgs84Lon>127.000651624435</wgs84Lon>
			</item>
			<item>
				<dutyName>박은주치과의원</dutyName>
				<dutyTel1>02-749-6900</dutyTel1>
				<dutyTime1c>1830</dutyTime1c>
				<dutyTime1s>1000</dutyTime1s>
				<wgs84Lat>37.53438224922</wgs84Lat>
				<wgs84Lon>127.006495268869</wgs84Lon>
			</item>
			<item>
				<dutyName>박태응내과의원</dutyName>
				<dutyTel1>02-706-6877</dutyTel1>
				<dutyTime1c>1800</dutyTime1c>
				<dutyTime1s>900</dutyTime1s>
				<wgs84Lat>37.5357698153786</wgs84Lat>
				<wgs84Lon>126.961997323241</wgs84Lon>
			</item>
			<item>
				<dutyName>밝은연세안과의원</dutyName>
				<dutyTel1>02-797-8275</dutyTel1>
				<dutyTime1c>1830</dutyTime1c>
				<dutyTime1s>930</dutyTime1s>
				<wgs84Lat>37.5261544745814</wgs84Lat>
				<wgs84Lon>127.001259150013</wgs84Lon>
			</item>
			<item>
				<dutyName>방선빈치과의원</dutyName>
				<dutyTel1>02-713-4743</dutyTel1>
				<dutyTime1c>1730</dutyTime1c>
				<dutyTime1s>1000</dutyTime1s>
				<wgs84Lat>37.5352756855939</wgs84Lat>
				<wgs84Lon>126.96082993965</wgs84Lon>
			</item>
			<item>
				<dutyName>배나무한의원</dutyName>
				<dutyTel1>02-790-9975</dutyTel1>
				<dutyTime1c>1900</dutyTime1c>
				<dutyTime1s>930</dutyTime1s>
				<wgs84Lat>37.533314268972</wgs84Lat>
				<wgs84Lon>126.994528554169</wgs84Lon>
			</item>
			<item>
				<dutyName>백두한의원</dutyName>
				<dutyTel1>02-793-7575</dutyTel1>
				<dutyTime1c>1900</dutyTime1c>
				<dutyTime1s>900</dutyTime1s>
				<wgs84Lat>37.5271947932</wgs84Lat>
				<wgs84Lon>127.0002896145</wgs84Lon>
			</item>
			<item>
				<dutyName>백합의원</dutyName>
				<dutyTel1>02-774-7557</dutyTel1>
				<dutyTime1c>1800</dutyTime1c>
				<dutyTime1s>900</dutyTime1s>
				<wgs84Lat>37.5489256734077</wgs84Lat>
				<wgs84Lon>126.977500854135</wgs84Lon>
			</item>
			<item>
				<dutyName>보광가정의원</dutyName>
				<dutyTel1>02-795-5283</dutyTel1>
				<dutyTime1c>1800</dutyTime1c>
				<dutyTime1s>900</dutyTime1s>
				<wgs84Lat>37.5282904034161</wgs84Lat>
				<wgs84Lon>126.999208094359</wgs84Lon>
			</item>
			<item>
				<dutyName>보림한의원</dutyName>
				<dutyTel1>02-794-4454</dutyTel1>
				<dutyTime1c>1830</dutyTime1c>
				<dutyTime1s>930</dutyTime1s>
				<wgs84Lat>37.5303948449082</wgs84Lat>
				<wgs84Lon>126.969607280806</wgs84Lon>
			</item>
			<item>
				<dutyName>보스톤치과의원</dutyName>
				<dutyTel1>02-796-7274</dutyTel1>
				<dutyTime1c>1830</dutyTime1c>
				<dutyTime1s>930</dutyTime1s>
				<wgs84Lat>37.5208284094581</wgs84Lat>
				<wgs84Lon>126.974960998825</wgs84Lon>
			</item>
			<item>
				<dutyName>봄가정의학과의원</dutyName>
				<dutyTel1>02-719-1191</dutyTel1>
				<dutyTime1c>1900</dutyTime1c>
				<dutyTime1s>900</dutyTime1s>
				<wgs84Lat>37.533845405931</wgs84Lat>
				<wgs84Lon>126.949975972689</wgs84Lon>
			</item>
			<item>
				<dutyName>봄산부인과의원</dutyName>
				<dutyTel1>02-792-3885</dutyTel1>
				<dutyTime1c>1900</dutyTime1c>
				<dutyTime1s>930</dutyTime1s>
				<wgs84Lat>37.5395472222222</wgs84Lat>
				<wgs84Lon>126.989191666667</wgs84Lon>
			</item>
			<item>
				<dutyName>브라이트치과의원</dutyName>
				<dutyTel1>02-797-0015</dutyTel1>
				<dutyTime1c>1830</dutyTime1c>
				<dutyTime1s>930</dutyTime1s>
				<wgs84Lat>37.5339917577</wgs84Lat>
				<wgs84Lon>127.0067115199</wgs84Lon>
			</item>
			<item>
				<dutyName>비에프오치과의원</dutyName>
				<dutyTel1>02-3785-2828</dutyTel1>
				<dutyTime1c>2000</dutyTime1c>
				<dutyTime1s>1300</dutyTime1s>
				<wgs84Lat>37.5297736038</wgs84Lat>
				<wgs84Lon>126.9647427471</wgs84Lon>
			</item>
			<item>
				<dutyName>삼성드림의원</dutyName>
				<dutyTel1>02-796-7178</dutyTel1>
				<dutyTime1c>1900</dutyTime1c>
				<dutyTime1s>900</dutyTime1s>
				<wgs84Lat>37.5240314979434</wgs84Lat>
				<wgs84Lon>126.959592967881</wgs84Lon>
			</item>
			<item>
				<dutyName>삼성신경외과의원</dutyName>
				<dutyTel1>02-793-8863</dutyTel1>
				<dutyTime1c>1800</dutyTime1c>
				<dutyTime1s>900</dutyTime1s>
				<wgs84Lat>37.5387054525759</wgs84Lat>
				<wgs84Lon>126.988802868914</wgs84Lon>
			</item>
			<item>
				<dutyName>삼익당한의원</dutyName>
				<dutyTel1>02-706-3535</dutyTel1>
				<dutyTime1c>1900</dutyTime1c>
				<dutyTime1s>930</dutyTime1s>
				<wgs84Lat>37.5363495043348</wgs84Lat>
				<wgs84Lon>126.960308913366</wgs84Lon>
			</item>
			<item>
				<dutyName>샘치과의원</dutyName>
				<dutyTel1>02-793-0455</dutyTel1>
				<dutyTime1c>1800</dutyTime1c>
				<dutyTime1s>930</dutyTime1s>
				<wgs84Lat>37.5339592475</wgs84Lat>
				<wgs84Lon>127.0079108103</wgs84Lon>
			</item>
			<item>
				<dutyName>서도한의원</dutyName>
				<dutyTel1>02-796-7533</dutyTel1>
				<dutyTime1c>1800</dutyTime1c>
				<dutyTime1s>1000</dutyTime1s>
				<wgs84Lat>37.5209450589338</wgs84Lat>
				<wgs84Lon>126.969339643866</wgs84Lon>
			</item>
			<item>
				<dutyName>서앤정소아청소년과의원</dutyName>
				<dutyTel1>02-793-9640</dutyTel1>
				<dutyTime1c>1930</dutyTime1c>
				<dutyTime1s>800</dutyTime1s>
				<wgs84Lat>37.5209522742</wgs84Lat>
				<wgs84Lon>126.9693441452</wgs84Lon>
			</item>
			<item>
				<dutyName>서울류마내과의원</dutyName>
				<dutyTel1>02-2077-1278</dutyTel1>
				<dutyTime1c>1900</dutyTime1c>
				<dutyTime1s>900</dutyTime1s>
				<wgs84Lat>37.5300052332042</wgs84Lat>
				<wgs84Lon>126.968168362928</wgs84Lon>
			</item>
			<item>
				<dutyName>서울미소치과의원</dutyName>
				<dutyTel1>02-794-5575</dutyTel1>
				<dutyTime1c>1830</dutyTime1c>
				<dutyTime1s>930</dutyTime1s>
				<wgs84Lat>37.5200045554</wgs84Lat>
				<wgs84Lon>126.9698739336</wgs84Lon>
			</item>
			<item>
				<dutyName>서울빛드림안과의원</dutyName>
				<dutyTel1>02-706-8555</dutyTel1>
				<dutyTime1c>1800</dutyTime1c>
				<dutyTime1s>930</dutyTime1s>
				<wgs84Lat>37.5433346732539</wgs84Lat>
				<wgs84Lon>126.971892307353</wgs84Lon>
			</item>
			<item>
				<dutyName>서울삼성내과의원</dutyName>
				<dutyTel1>02-793-5588</dutyTel1>
				<dutyTime1c>1800</dutyTime1c>
				<dutyTime1s>830</dutyTime1s>
				<wgs84Lat>37.5209641029655</wgs84Lat>
				<wgs84Lon>126.969856961037</wgs84Lon>
			</item>
			<item>
				<dutyName>서울성심정형외과의원</dutyName>
				<dutyTel1>02-701-4864</dutyTel1>
				<dutyTime1c>1900</dutyTime1c>
				<dutyTime1s>830</dutyTime1s>
				<wgs84Lat>37.5347927792824</wgs84Lat>
				<wgs84Lon>126.960920705929</wgs84Lon>
			</item>
			<item>
				<dutyName>서울스마트치과의원</dutyName>
				<dutyTel1>02-714-0328</dutyTel1>
				<dutyTime1c>1900</dutyTime1c>
				<dutyTime1s>1000</dutyTime1s>
				<wgs84Lat>37.5439068237964</wgs84Lat>
				<wgs84Lon>126.971937334298</wgs84Lon>
			</item>
			<item>
				<dutyName>서울앤치과의원</dutyName>
				<dutyTel1>02-790-2825</dutyTel1>
				<dutyTime1c>1900</dutyTime1c>
				<dutyTime1s>1000</dutyTime1s>
				<wgs84Lat>37.5343522628</wgs84Lat>
				<wgs84Lon>126.9954924437</wgs84Lon>
			</item>
			<item>
				<dutyName>서울엠치과의원</dutyName>
				<dutyTel1>02-701-7528</dutyTel1>
				<dutyTime1c>1900</dutyTime1c>
				<dutyTime1s>1000</dutyTime1s>
				<wgs84Lat>37.5439068238</wgs84Lat>
				<wgs84Lon>126.9719373343</wgs84Lon>
			</item>
			<item>
				<dutyName>서울역예치과의원</dutyName>
				<dutyTel1>02-712-2804</dutyTel1>
				<dutyTime1c>1830</dutyTime1c>
				<dutyTime1s>930</dutyTime1s>
				<wgs84Lat>37.5548657685</wgs84Lat>
				<wgs84Lon>126.9687462885</wgs84Lon>
			</item>
			<item>
				<dutyName>서울이촌치과의원</dutyName>
				<dutyTel1>02-795-3101</dutyTel1>
				<dutyTime1c>1800</dutyTime1c>
				<dutyTime1s>930</dutyTime1s>
				<wgs84Lat>37.5209522742</wgs84Lat>
				<wgs84Lon>126.9693441452</wgs84Lon>
			</item>
			<item>
				<dutyName>서울일미치과의원</dutyName>
				<dutyTel1>02-718-7368</dutyTel1>
				<dutyTime1c>1830</dutyTime1c>
				<dutyTime1s>930</dutyTime1s>
				<wgs84Lat>37.5416083515601</wgs84Lat>
				<wgs84Lon>126.97247787533</wgs84Lon>
			</item>
			<item>
				<dutyName>서울정형외과의원</dutyName>
				<dutyTel1>02-792-0321</dutyTel1>
				<dutyTime1c>2030</dutyTime1c>
				<dutyTime1s>900</dutyTime1s>
				<wgs84Lat>37.5415398961464</wgs84Lat>
				<wgs84Lon>126.972559370899</wgs84Lon>
			</item>
			<item>
				<dutyName>서울준치과의원</dutyName>
				<dutyTel1>02-716-2275</dutyTel1>
				<dutyTime1c>1830</dutyTime1c>
				<dutyTime1s>1000</dutyTime1s>
				<wgs84Lat>37.537816343366</wgs84Lat>
				<wgs84Lon>126.960339816973</wgs84Lon>
			</item>
			<item>
				<dutyName>서울효창의원</dutyName>
				<dutyTel1>02-702-6292</dutyTel1>
				<dutyTime1c>1900</dutyTime1c>
				<dutyTime1s>900</dutyTime1s>
				<wgs84Lat>37.5407781597</wgs84Lat>
				<wgs84Lon>126.9583875219</wgs84Lon>
			</item>
			<item>
				<dutyName>서울휴치과의원</dutyName>
				<dutyTel1>02-754-2855</dutyTel1>
				<dutyTime1c>1830</dutyTime1c>
				<dutyTime1s>930</dutyTime1s>
				<wgs84Lat>37.5467372601</wgs84Lat>
				<wgs84Lon>126.9780740818</wgs84Lon>
			</item>
			<item>
				<dutyName>서은치과의원</dutyName>
				<dutyTel1>02-778-4959</dutyTel1>
				<dutyTime1c>1700</dutyTime1c>
				<dutyTime1s>1000</dutyTime1s>
				<wgs84Lat>37.5465909473706</wgs84Lat>
				<wgs84Lon>126.981723300319</wgs84Lon>
			</item>
			<item>
				<dutyName>서정훈치과의원</dutyName>
				<dutyTel1>02-794-9657</dutyTel1>
				<dutyTime1c>1500</dutyTime1c>
				<dutyTime1s>900</dutyTime1s>
				<wgs84Lat>37.5196861111111</wgs84Lat>
				<wgs84Lon>126.973783333333</wgs84Lon>
			</item>
			<item>
				<dutyName>서치과의원</dutyName>
				<dutyTel1>02-796-7528</dutyTel1>
				<dutyTime1c>1800</dutyTime1c>
				<dutyTime1s>900</dutyTime1s>
				<wgs84Lat>37.5332061509358</wgs84Lat>
				<wgs84Lon>127.005426182036</wgs84Lon>
			</item>
			<item>
				<dutyName>선인메디칼의원</dutyName>
				<dutyTel1>02-717-3210</dutyTel1>
				<dutyTime1c>1800</dutyTime1c>
				<dutyTime1s>900</dutyTime1s>
				<wgs84Lat>37.5327182059</wgs84Lat>
				<wgs84Lon>126.9651803403</wgs84Lon>
			</item>
			<item>
				<dutyName>성대혁치과의원</dutyName>
				<dutyTel1>02-790-2833</dutyTel1>
				<dutyTime1c>1830</dutyTime1c>
				<dutyTime1s>1000</dutyTime1s>
				<wgs84Lat>37.5201179254371</wgs84Lat>
				<wgs84Lon>126.972825562721</wgs84Lon>
			</item>
			<item>
				<dutyName>성모이비인후과의원</dutyName>
				<dutyTel1>02-795-6653</dutyTel1>
				<dutyTime1c>1800</dutyTime1c>
				<dutyTime1s>900</dutyTime1s>
				<wgs84Lat>37.5266014700765</wgs84Lat>
				<wgs84Lon>126.965760165926</wgs84Lon>
			</item>
			<item>
				<dutyName>성원한의원</dutyName>
				<dutyTel1>02-712-7523</dutyTel1>
				<dutyTime1c>1900</dutyTime1c>
				<dutyTime1s>930</dutyTime1s>
				<wgs84Lat>37.5383706322517</wgs84Lat>
				<wgs84Lon>126.967414687925</wgs84Lon>
			</item>
			<item>
				<dutyName>세라세진치과의원</dutyName>
				<dutyTel1>02-797-5001</dutyTel1>
				<dutyTime1c>1800</dutyTime1c>
				<dutyTime1s>900</dutyTime1s>
				<wgs84Lat>37.5184083333333</wgs84Lat>
				<wgs84Lon>126.977747222222</wgs84Lon>
			</item>
			<item>
				<dutyName>세란치과의원</dutyName>
				<dutyTel1>02-712-2875</dutyTel1>
				<dutyTime1c>1700</dutyTime1c>
				<dutyTime1s>1000</dutyTime1s>
				<wgs84Lat>37.5349690432578</wgs84Lat>
				<wgs84Lon>126.959929486542</wgs84Lon>
			</item>
			<item>
				<dutyName>세명치과의원</dutyName>
				<dutyTel1>02-777-4125</dutyTel1>
				<dutyTime1c>1830</dutyTime1c>
				<dutyTime1s>1000</dutyTime1s>
				<wgs84Lat>37.5458527777778</wgs84Lat>
				<wgs84Lon>126.985025</wgs84Lon>
			</item>
			<item>
				<dutyName>세심재한의원</dutyName>
				<dutyTel1>02-793-1082</dutyTel1>
				<dutyTime1c>1900</dutyTime1c>
				<dutyTime1s>900</dutyTime1s>
				<wgs84Lat>37.5372540559</wgs84Lat>
				<wgs84Lon>126.9728585719</wgs84Lon>
			</item>
			<item>
				<dutyName>세정한의원</dutyName>
				<dutyTel1>02-794-1464</dutyTel1>
				<dutyTime1c>1830</dutyTime1c>
				<dutyTime1s>1000</dutyTime1s>
				<wgs84Lat>37.5194624643065</wgs84Lat>
				<wgs84Lon>126.974803117593</wgs84Lon>
			</item>
			<item>
				<dutyName>센트럴서울안과의원</dutyName>
				<dutyTel1>02-792-2226</dutyTel1>
				<dutyTime1c>1800</dutyTime1c>
				<dutyTime1s>930</dutyTime1s>
				<wgs84Lat>37.5203519825252</wgs84Lat>
				<wgs84Lon>126.972006488539</wgs84Lon>
			</item>
			<item>
				<dutyName>소망정형외과의원</dutyName>
				<dutyTel1>02-778-8770</dutyTel1>
				<dutyTime1c>1730</dutyTime1c>
				<dutyTime1s>900</dutyTime1s>
				<wgs84Lat>37.5467877162782</wgs84Lat>
				<wgs84Lon>126.978102377717</wgs84Lon>
			</item>
			<item>
				<dutyName>소망한의원</dutyName>
				<dutyTel1>02-792-7577</dutyTel1>
				<dutyTime1c>1830</dutyTime1c>
				<dutyTime1s>900</dutyTime1s>
				<wgs84Lat>37.5284987681679</wgs84Lat>
				<wgs84Lon>126.99972423921</wgs84Lon>
			</item>
			<item>
				<dutyName>소화아동병원(의료법인 소화아동병원)</dutyName>
				<dutyTel1>02-705-9000</dutyTel1>
				<dutyTime1c>2130</dutyTime1c>
				<dutyTime1s>820</dutyTime1s>
				<wgs84Lat>37.5537701361713</wgs84Lat>
				<wgs84Lon>126.968674316707</wgs84Lon>
			</item>
			<item>
				<dutyName>송가한의원</dutyName>
				<dutyTel1>02-3293-7575</dutyTel1>
				<dutyTime1c>1900</dutyTime1c>
				<dutyTime1s>1000</dutyTime1s>
				<wgs84Lat>37.5362780296329</wgs84Lat>
				<wgs84Lon>126.999657003502</wgs84Lon>
			</item>
			<item>
				<dutyName>수풀림한의원</dutyName>
				<dutyTel1>02-798-9295</dutyTel1>
				<dutyTime1c>2030</dutyTime1c>
				<dutyTime1s>1200</dutyTime1s>
				<wgs84Lat>37.534392368</wgs84Lat>
				<wgs84Lon>126.9723844146</wgs84Lon>
			</item>
			<item>
				<dutyName>순수한의원</dutyName>
				<dutyTel1>02-704-1035</dutyTel1>
				<dutyTime1c>1900</dutyTime1c>
				<dutyTime1s>930</dutyTime1s>
				<wgs84Lat>37.5397773910001</wgs84Lat>
				<wgs84Lon>126.96176899005</wgs84Lon>
			</item>
			<item>
				<dutyName>순천향대학교부속서울병원</dutyName>
				<dutyTel1>02-709-9114</dutyTel1>
				<dutyTime1c>1700</dutyTime1c>
				<dutyTime1s>900</dutyTime1s>
				<wgs84Lat>37.5338417223144</wgs84Lat>
				<wgs84Lon>127.004417986403</wgs84Lon>
			</item>
			<item>
				<dutyName>숨한의원</dutyName>
				<dutyTel1>02-2001-9017</dutyTel1>
				<dutyTime1c>1700</dutyTime1c>
				<dutyTime1s>700</dutyTime1s>
				<wgs84Lat>37.5416076083297</wgs84Lat>
				<wgs84Lon>126.972535661529</wgs84Lon>
			</item>
			<item>
				<dutyName>승치과의원</dutyName>
				<dutyTel1>02-790-2691</dutyTel1>
				<dutyTime1c>1800</dutyTime1c>
				<dutyTime1s>930</dutyTime1s>
				<wgs84Lat>37.5272128132326</wgs84Lat>
				<wgs84Lon>127.000285089339</wgs84Lon>
			</item>
			<item>
				<dutyName>시민의원</dutyName>
				<dutyTel1>02-719-8147</dutyTel1>
				<dutyTime1c>1830</dutyTime1c>
				<dutyTime1s>900</dutyTime1s>
				<wgs84Lat>37.5458745204204</wgs84Lat>
				<wgs84Lon>126.971579014635</wgs84Lon>
			</item>
			<item>
				<dutyName>시카고치과의원</dutyName>
				<dutyTel1>02-795-1500</dutyTel1>
				<dutyTime1c>1800</dutyTime1c>
				<dutyTime1s>930</dutyTime1s>
				<wgs84Lat>37.5337430760447</wgs84Lat>
				<wgs84Lon>127.006806535685</wgs84Lon>
			</item>
			<item>
				<dutyName>신경란의원</dutyName>
				<dutyTel1>02-795-3495</dutyTel1>
				<dutyTime1c>1800</dutyTime1c>
				<dutyTime1s>900</dutyTime1s>
				<wgs84Lat>37.5305933318</wgs84Lat>
				<wgs84Lon>126.9969181809</wgs84Lon>
			</item>
			<item>
				<dutyName>신용산홍플란트치과의원</dutyName>
				<dutyTel1>02-793-2875</dutyTel1>
				<dutyTime1c>1900</dutyTime1c>
				<dutyTime1s>1000</dutyTime1s>
				<wgs84Lat>37.5304735064933</wgs84Lat>
				<wgs84Lon>126.967263079048</wgs84Lon>
			</item>
			<item>
				<dutyName>아이파크몰의원</dutyName>
				<dutyTel1>02-2012-2511</dutyTel1>
				<dutyTime1c>1930</dutyTime1c>
				<dutyTime1s>930</dutyTime1s>
				<wgs84Lat>37.5297736038</wgs84Lat>
				<wgs84Lon>126.9647427471</wgs84Lon>
			</item>
			<item>
				<dutyName>아인치과의원</dutyName>
				<dutyTel1>02-3273-2275</dutyTel1>
				<dutyTime1c>1900</dutyTime1c>
				<dutyTime1s>1000</dutyTime1s>
				<wgs84Lat>37.5374521171</wgs84Lat>
				<wgs84Lon>126.9596837622</wgs84Lon>
			</item>
			<item>
				<dutyName>안드로김의원</dutyName>
				<dutyTel1>02-2678-0101</dutyTel1>
				<dutyTime1c>1900</dutyTime1c>
				<dutyTime1s>1000</dutyTime1s>
				<wgs84Lat>37.5299952129054</wgs84Lat>
				<wgs84Lon>126.968174236228</wgs84Lon>
			</item>
			<item>
				<dutyName>안병철한의원</dutyName>
				<dutyTel1>02-794-7001</dutyTel1>
				<dutyTime1c>1830</dutyTime1c>
				<dutyTime1s>930</dutyTime1s>
				<wgs84Lat>37.5211250139</wgs84Lat>
				<wgs84Lon>126.9683848043</wgs84Lon>
			</item>
			<item>
				<dutyName>안아픈세상경희한의원</dutyName>
				<dutyTel1>02-796-8706</dutyTel1>
				<dutyTime1c>1800</dutyTime1c>
				<dutyTime1s>930</dutyTime1s>
				<wgs84Lat>37.5259717851161</wgs84Lat>
				<wgs84Lon>126.966160929711</wgs84Lon>
			</item>
			<item>
				<dutyName>안영한의원</dutyName>
				<dutyTel1>02-797-3566</dutyTel1>
				<dutyTime1c>1830</dutyTime1c>
				<dutyTime1s>900</dutyTime1s>
				<wgs84Lat>37.534388211</wgs84Lat>
				<wgs84Lon>127.0064807467</wgs84Lon>
			</item>
			<item>
				<dutyName>약손한의원</dutyName>
				<dutyTel1>02-719-7776</dutyTel1>
				<dutyTime1c>1830</dutyTime1c>
				<dutyTime1s>900</dutyTime1s>
				<wgs84Lat>37.5253772643</wgs84Lat>
				<wgs84Lon>126.9556764829</wgs84Lon>
			</item>
			<item>
				<dutyName>에버피부과의원</dutyName>
				<dutyTel1>02-795-9553</dutyTel1>
				<dutyTime1c>1900</dutyTime1c>
				<dutyTime1s>1000</dutyTime1s>
				<wgs84Lat>37.5348352243659</wgs84Lat>
				<wgs84Lon>126.996207473347</wgs84Lon>
			</item>
			<item>
				<dutyName>연세리더스치과의원</dutyName>
				<dutyTel1>02-713-2570</dutyTel1>
				<dutyTime1c>1830</dutyTime1c>
				<dutyTime1s>930</dutyTime1s>
				<wgs84Lat>37.5447573065661</wgs84Lat>
				<wgs84Lon>126.971683543389</wgs84Lon>
			</item>
			<item>
				<dutyName>연세마취통증의학과의원</dutyName>
				<dutyTel1>02-716-9556</dutyTel1>
				<dutyTime1c>1900</dutyTime1c>
				<dutyTime1s>900</dutyTime1s>
				<wgs84Lat>37.5350376507</wgs84Lat>
				<wgs84Lon>126.96031866</wgs84Lon>
			</item>
			<item>
				<dutyName>연세메디노블의원</dutyName>
				<dutyTel1>02-790-2175</dutyTel1>
				<dutyTime1c>1900</dutyTime1c>
				<dutyTime1s>1000</dutyTime1s>
				<wgs84Lat>37.5230228922933</wgs84Lat>
				<wgs84Lon>126.973480566368</wgs84Lon>
			</item>
			<item>
				<dutyName>연세미소치과의원</dutyName>
				<dutyTel1>02-701-5872</dutyTel1>
				<dutyTime1c>1830</dutyTime1c>
				<dutyTime1s>930</dutyTime1s>
				<wgs84Lat>37.5413915063744</wgs84Lat>
				<wgs84Lon>126.970106310455</wgs84Lon>
			</item>
			<item>
				<dutyName>연세바른생각치과의원</dutyName>
				<dutyTel1>02-6952-2882</dutyTel1>
				<dutyTime1c>2100</dutyTime1c>
				<dutyTime1s>1000</dutyTime1s>
				<wgs84Lat>37.5434383084</wgs84Lat>
				<wgs84Lon>126.9719556147</wgs84Lon>
			</item>
			<item>
				<dutyName>연세밝은미소치과의원</dutyName>
				<dutyTel1>02-2012-0300</dutyTel1>
				<dutyTime1c>1830</dutyTime1c>
				<dutyTime1s>1000</dutyTime1s>
				<wgs84Lat>37.5288228401204</wgs84Lat>
				<wgs84Lon>126.964545476985</wgs84Lon>
			</item>
			<item>
				<dutyName>연세산부인과의원</dutyName>
				<dutyTel1>02-790-0802</dutyTel1>
				<dutyTime1c>1700</dutyTime1c>
				<dutyTime1s>900</dutyTime1s>
				<wgs84Lat>37.5335987917092</wgs84Lat>
				<wgs84Lon>127.008698228976</wgs84Lon>
			</item>
			<item>
				<dutyName>연세세림내과의원</dutyName>
				<dutyTel1>02-706-1199</dutyTel1>
				<dutyTime1c>1800</dutyTime1c>
				<dutyTime1s>830</dutyTime1s>
				<wgs84Lat>37.5403144599</wgs84Lat>
				<wgs84Lon>126.9619950168</wgs84Lon>
			</item>
			<item>
				<dutyName>연세안과의원</dutyName>
				<dutyTel1>02-793-7582</dutyTel1>
				<dutyTime1c>1800</dutyTime1c>
				<dutyTime1s>930</dutyTime1s>
				<wgs84Lat>37.541325</wgs84Lat>
				<wgs84Lon>126.973444444444</wgs84Lon>
			</item>
			<item>
				<dutyName>연세우리들의원</dutyName>
				<dutyTel1>02-716-4385</dutyTel1>
				<dutyTime1c>1900</dutyTime1c>
				<dutyTime1s>900</dutyTime1s>
				<wgs84Lat>37.54472735503</wgs84Lat>
				<wgs84Lon>126.967365498592</wgs84Lon>
			</item>
			<item>
				<dutyName>연세이비인후과의원</dutyName>
				<dutyTel1>02-715-6261</dutyTel1>
				<dutyTime1c>1800</dutyTime1c>
				<dutyTime1s>1000</dutyTime1s>
				<wgs84Lat>37.5513464757785</wgs84Lat>
				<wgs84Lon>126.962568831562</wgs84Lon>
			</item>
			<item>
				<dutyName>연세중앙내과의원</dutyName>
				<dutyTel1>02-794-5017</dutyTel1>
				<dutyTime1c>1800</dutyTime1c>
				<dutyTime1s>900</dutyTime1s>
				<wgs84Lat>37.5253563804068</wgs84Lat>
				<wgs84Lon>126.963066573931</wgs84Lon>
			</item>
			<item>
				<dutyName>연세치과의원</dutyName>
				<dutyTel1>02-792-5311</dutyTel1>
				<dutyTime1c>1800</dutyTime1c>
				<dutyTime1s>1000</dutyTime1s>
				<wgs84Lat>37.5395308132069</wgs84Lat>
				<wgs84Lon>126.989282498514</wgs84Lon>
			</item>
			<item>
				<dutyName>연세티트리의원</dutyName>
				<dutyTel1>02-703-8213</dutyTel1>
				<dutyTime1c>2000</dutyTime1c>
				<dutyTime1s>930</dutyTime1s>
				<wgs84Lat>37.5445555033396</wgs84Lat>
				<wgs84Lon>126.971769618952</wgs84Lon>
			</item>
			<item>
				<dutyName>연세행복치과의원</dutyName>
				<dutyTel1>02-797-2204</dutyTel1>
				<dutyTime1c>1830</dutyTime1c>
				<dutyTime1s>930</dutyTime1s>
				<wgs84Lat>37.5416650874458</wgs84Lat>
				<wgs84Lon>126.971729973896</wgs84Lon>
			</item>
			<item>
				<dutyName>연세휴치과보철과치과의원</dutyName>
				<dutyTel1>02-792-2275</dutyTel1>
				<dutyTime1c>1800</dutyTime1c>
				<dutyTime1s>900</dutyTime1s>
				<wgs84Lat>37.5193858674</wgs84Lat>
				<wgs84Lon>126.975027878</wgs84Lon>
			</item>
			<item>
				<dutyName>연세휴치과의원</dutyName>
				<dutyTel1>02-793-2275</dutyTel1>
				<dutyTime1c>1800</dutyTime1c>
				<dutyTime1s>900</dutyTime1s>
				<wgs84Lat>37.5182511496167</wgs84Lat>
				<wgs84Lon>126.977761166651</wgs84Lon>
			</item>
			<item>
				<dutyName>연소아과의원</dutyName>
				<dutyTel1>02-795-0977</dutyTel1>
				<dutyTime1c>1800</dutyTime1c>
				<dutyTime1s>900</dutyTime1s>
				<wgs84Lat>37.5259946587908</wgs84Lat>
				<wgs84Lon>126.999968323922</wgs84Lon>
			</item>
			<item>
				<dutyName>연치과의원</dutyName>
				<dutyTel1>02-715-7436</dutyTel1>
				<dutyTime1c>1800</dutyTime1c>
				<dutyTime1s>930</dutyTime1s>
				<wgs84Lat>37.5355061603393</wgs84Lat>
				<wgs84Lon>126.960286731696</wgs84Lon>
			</item>
			<item>
				<dutyName>열린보광의원</dutyName>
				<dutyTel1>02-749-8096</dutyTel1>
				<dutyTime1c>1830</dutyTime1c>
				<dutyTime1s>900</dutyTime1s>
				<wgs84Lat>37.5306701592901</wgs84Lat>
				<wgs84Lon>126.996656802644</wgs84Lon>
			</item>
			<item>
				<dutyName>영화당한의원</dutyName>
				<dutyTel1>02-718-9315</dutyTel1>
				<dutyTime1c>1830</dutyTime1c>
				<dutyTime1s>900</dutyTime1s>
				<wgs84Lat>37.5364867838691</wgs84Lat>
				<wgs84Lon>126.961295462317</wgs84Lon>
			</item>
			<item>
				<dutyName>예담피부과의원</dutyName>
				<dutyTel1>02-793-3440</dutyTel1>
				<dutyTime1c>1900</dutyTime1c>
				<dutyTime1s>930</dutyTime1s>
				<wgs84Lat>37.5186438966</wgs84Lat>
				<wgs84Lon>126.9772859555</wgs84Lon>
			</item>
			<item>
				<dutyName>예원의원</dutyName>
				<dutyTel1>02-790-8525</dutyTel1>
				<dutyTime1c>2100</dutyTime1c>
				<dutyTime1s>1000</dutyTime1s>
				<wgs84Lat>37.5384969459</wgs84Lat>
				<wgs84Lon>127.0011314774</wgs84Lon>
			</item>
			<item>
				<dutyName>오월애한의원</dutyName>
				<dutyTel1>02-796-7124</dutyTel1>
				<dutyTime1c>2100</dutyTime1c>
				<dutyTime1s>900</dutyTime1s>
				<wgs84Lat>37.5302756052805</wgs84Lat>
				<wgs84Lon>126.968435247363</wgs84Lon>
			</item>
			<item>
				<dutyName>오치과의원</dutyName>
				<dutyTel1>02-713-5275</dutyTel1>
				<dutyTime1c>1600</dutyTime1c>
				<dutyTime1s>900</dutyTime1s>
				<wgs84Lat>37.5359643847805</wgs84Lat>
				<wgs84Lon>126.96185240031</wgs84Lon>
			</item>
			<item>
				<dutyName>온가족보건의원</dutyName>
				<dutyTel1>02-706-7001</dutyTel1>
				<dutyTime1c>1730</dutyTime1c>
				<dutyTime1s>900</dutyTime1s>
				<wgs84Lat>37.5329192016629</wgs84Lat>
				<wgs84Lon>126.952481512321</wgs84Lon>
			</item>
			<item>
				<dutyName>용강의원</dutyName>
				<dutyTel1>02-793-1061</dutyTel1>
				<dutyTime1c>1800</dutyTime1c>
				<dutyTime1s>900</dutyTime1s>
				<wgs84Lat>37.5259937514254</wgs84Lat>
				<wgs84Lon>127.000351851295</wgs84Lon>
			</item>
			<item>
				<dutyName>용문웰치과의원</dutyName>
				<dutyTel1>02-704-8700</dutyTel1>
				<dutyTime1c>1900</dutyTime1c>
				<dutyTime1s>1000</dutyTime1s>
				<wgs84Lat>37.5371530651313</wgs84Lat>
				<wgs84Lon>126.95991926626</wgs84Lon>
			</item>
			<item>
				<dutyName>용문한의원</dutyName>
				<dutyTel1>02-706-2800</dutyTel1>
				<dutyTime1c>1900</dutyTime1c>
				<dutyTime1s>930</dutyTime1s>
				<wgs84Lat>37.537974889</wgs84Lat>
				<wgs84Lon>126.9602492155</wgs84Lon>
			</item>
			<item>
				<dutyName>용산경희한의원</dutyName>
				<dutyTel1>02-706-5228</dutyTel1>
				<dutyTime1c>1900</dutyTime1c>
				<dutyTime1s>900</dutyTime1s>
				<wgs84Lat>37.5338624607953</wgs84Lat>
				<wgs84Lon>126.950068733049</wgs84Lon>
			</item>
			<item>
				<dutyName>용산구보건소</dutyName>
				<dutyTel1>02-2199-8184</dutyTel1>
				<dutyTime1c>1800</dutyTime1c>
				<dutyTime1s>900</dutyTime1s>
				<wgs84Lat>37.5386173658143</wgs84Lat>
				<wgs84Lon>126.966262706497</wgs84Lon>
			</item>
			<item>
				<dutyName>용산엠치과의원</dutyName>
				<dutyTel1>02-790-0077</dutyTel1>
				<dutyTime1c>1830</dutyTime1c>
				<dutyTime1s>930</dutyTime1s>
				<wgs84Lat>37.5277279308931</wgs84Lat>
				<wgs84Lon>126.966853880555</wgs84Lon>
			</item>
			<item>
				<dutyName>용산원의원</dutyName>
				<dutyTel1>02-794-4438</dutyTel1>
				<dutyTime1c>1800</dutyTime1c>
				<dutyTime1s>1000</dutyTime1s>
				<wgs84Lat>37.5309793570758</wgs84Lat>
				<wgs84Lon>126.972304214806</wgs84Lon>
			</item>
			<item>
				<dutyName>용산원치과의원</dutyName>
				<dutyTel1>02-794-4438</dutyTel1>
				<dutyTime1c>1800</dutyTime1c>
				<dutyTime1s>900</dutyTime1s>
				<wgs84Lat>37.5309793570758</wgs84Lat>
				<wgs84Lon>126.972304214806</wgs84Lon>
			</item>
			<item>
				<dutyName>용산원한의원</dutyName>
				<dutyTel1>02-794-4438</dutyTel1>
				<dutyTime1c>1800</dutyTime1c>
				<dutyTime1s>900</dutyTime1s>
				<wgs84Lat>37.5309793571</wgs84Lat>
				<wgs84Lon>126.9723042148</wgs84Lon>
			</item>
			<item>
				<dutyName>용산의원</dutyName>
				<dutyTel1>02-718-1035</dutyTel1>
				<dutyTime1c>1800</dutyTime1c>
				<dutyTime1s>900</dutyTime1s>
				<wgs84Lat>37.5445555033396</wgs84Lat>
				<wgs84Lon>126.971769618952</wgs84Lon>
			</item>
			<item>
				<dutyName>용훼미리의원</dutyName>
				<dutyTel1>02-793-7676</dutyTel1>
				<dutyTime1c>1800</dutyTime1c>
				<dutyTime1s>900</dutyTime1s>
				<wgs84Lat>37.5272608908401</wgs84Lat>
				<wgs84Lon>127.000367682969</wgs84Lon>
			</item>
			<item>
				<dutyName>우리가정의원</dutyName>
				<dutyTel1>02-319-4041</dutyTel1>
				<dutyTime1c>1800</dutyTime1c>
				<dutyTime1s>900</dutyTime1s>
				<wgs84Lat>37.5464459307963</wgs84Lat>
				<wgs84Lon>126.981550434576</wgs84Lon>
			</item>
			<item>
				<dutyName>우리동네소아청소년과의원</dutyName>
				<dutyTel1>02-798-0100</dutyTel1>
				<dutyTime1c>1830</dutyTime1c>
				<dutyTime1s>830</dutyTime1s>
				<wgs84Lat>37.5201456061</wgs84Lat>
				<wgs84Lon>126.9718783636</wgs84Lon>
			</item>
			<item>
				<dutyName>우리동네효창한의원</dutyName>
				<dutyTel1>02-716-7754</dutyTel1>
				<dutyTime1c>1900</dutyTime1c>
				<dutyTime1s>930</dutyTime1s>
				<wgs84Lat>37.5411289140303</wgs84Lat>
				<wgs84Lon>126.961840717062</wgs84Lon>
			</item>
			<item>
				<dutyName>우리들가정의원</dutyName>
				<dutyTel1>02-793-4163</dutyTel1>
				<dutyTime1c>1800</dutyTime1c>
				<dutyTime1s>845</dutyTime1s>
				<wgs84Lat>37.5432788003</wgs84Lat>
				<wgs84Lon>126.9875303232</wgs84Lon>
			</item>
			<item>
				<dutyName>우리소아청소년과의원</dutyName>
				<dutyTel1>02-707-2007</dutyTel1>
				<dutyTime1c>1900</dutyTime1c>
				<dutyTime1s>900</dutyTime1s>
				<wgs84Lat>37.5394880925055</wgs84Lat>
				<wgs84Lon>126.957244408713</wgs84Lon>
			</item>
			<item>
				<dutyName>우리이비인후과의원</dutyName>
				<dutyTel1>02-704-1588</dutyTel1>
				<dutyTime1c>1830</dutyTime1c>
				<dutyTime1s>930</dutyTime1s>
				<wgs84Lat>37.5350236257</wgs84Lat>
				<wgs84Lon>126.961499875</wgs84Lon>
			</item>
			<item>
				<dutyName>우리치과의원</dutyName>
				<dutyTel1>02-797-7195</dutyTel1>
				<dutyTime1c>1800</dutyTime1c>
				<dutyTime1s>1000</dutyTime1s>
				<wgs84Lat>37.5197325622997</wgs84Lat>
				<wgs84Lon>126.973929746637</wgs84Lon>
			</item>
			<item>
				<dutyName>우태하한승경피부과의원</dutyName>
				<dutyTel1>02-7562-5990</dutyTel1>
				<dutyTime1c>1800</dutyTime1c>
				<dutyTime1s>1000</dutyTime1s>
				<wgs84Lat>37.5460584836</wgs84Lat>
				<wgs84Lon>126.972248847</wgs84Lon>
			</item>
			<item>
				<dutyName>원효로의원</dutyName>
				<dutyTel1>02-712-8204</dutyTel1>
				<dutyTime1c>1900</dutyTime1c>
				<dutyTime1s>900</dutyTime1s>
				<wgs84Lat>37.5368082571697</wgs84Lat>
				<wgs84Lon>126.963549148108</wgs84Lon>
			</item>
			<item>
				<dutyName>원효산부인과의원</dutyName>
				<dutyTel1>02-712-5862</dutyTel1>
				<dutyTime1c>1900</dutyTime1c>
				<dutyTime1s>930</dutyTime1s>
				<wgs84Lat>37.535142237074</wgs84Lat>
				<wgs84Lon>126.960544910537</wgs84Lon>
			</item>
			<item>
				<dutyName>원효연세치과의원</dutyName>
				<dutyTel1>02-717-1237</dutyTel1>
				<dutyTime1c>1800</dutyTime1c>
				<dutyTime1s>1000</dutyTime1s>
				<wgs84Lat>37.5350098279395</wgs84Lat>
				<wgs84Lon>126.961365408359</wgs84Lon>
			</item>
			<item>
				<dutyName>위편장쾌한의원</dutyName>
				<dutyTel1>02-3275-2216</dutyTel1>
				<dutyTime1c>2100</dutyTime1c>
				<dutyTime1s>900</dutyTime1s>
				<wgs84Lat>37.5434383084416</wgs84Lat>
				<wgs84Lon>126.971955614744</wgs84Lon>
			</item>
			<item>
				<dutyName>유디남영치과의원</dutyName>
				<dutyTel1>02-798-0089</dutyTel1>
				<dutyTime1c>1830</dutyTime1c>
				<dutyTime1s>930</dutyTime1s>
				<wgs84Lat>37.5412870841</wgs84Lat>
				<wgs84Lon>126.9735269696</wgs84Lon>
			</item>
			<item>
				<dutyName>유명숙산부인과의원</dutyName>
				<dutyTel1>02-795-2888</dutyTel1>
				<dutyTime1c>1800</dutyTime1c>
				<dutyTime1s>1000</dutyTime1s>
				<wgs84Lat>37.5426608831444</wgs84Lat>
				<wgs84Lon>126.973188068642</wgs84Lon>
			</item>
			<item>
				<dutyName>유상희치과의원</dutyName>
				<dutyTel1>02-2071-8275</dutyTel1>
				<dutyTime1c>1800</dutyTime1c>
				<dutyTime1s>1000</dutyTime1s>
				<wgs84Lat>37.5363357630398</wgs84Lat>
				<wgs84Lon>126.972565909053</wgs84Lon>
			</item>
			<item>
				<dutyName>유에스치과의원</dutyName>
				<dutyTel1>02-553-7512</dutyTel1>
				<dutyTime1c>1830</dutyTime1c>
				<dutyTime1s>930</dutyTime1s>
				<wgs84Lat>37.5234489174094</wgs84Lat>
				<wgs84Lon>126.972883936263</wgs84Lon>
			</item>
			<item>
				<dutyName>유엔빌리지치과의원</dutyName>
				<dutyTel1>02-792-1817</dutyTel1>
				<dutyTime1c>1800</dutyTime1c>
				<dutyTime1s>930</dutyTime1s>
				<wgs84Lat>37.5342834411313</wgs84Lat>
				<wgs84Lon>127.010096735816</wgs84Lon>
			</item>
			<item>
				<dutyName>유엔씨의원</dutyName>
				<dutyTel1>02-706-4357</dutyTel1>
				<dutyTime1c>1820</dutyTime1c>
				<dutyTime1s>930</dutyTime1s>
				<wgs84Lat>37.5383381230501</wgs84Lat>
				<wgs84Lon>126.967161254398</wgs84Lon>
			</item>
			<item>
				<dutyName>유펜아이비치과의원</dutyName>
				<dutyTel1>02-797-7784</dutyTel1>
				<dutyTime1c>2100</dutyTime1c>
				<dutyTime1s>1000</dutyTime1s>
				<wgs84Lat>37.5193858674</wgs84Lat>
				<wgs84Lon>126.975027878</wgs84Lon>
			</item>
			<item>
				<dutyName>윤스한의원</dutyName>
				<dutyTel1>02-790-9577</dutyTel1>
				<dutyTime1c>2030</dutyTime1c>
				<dutyTime1s>830</dutyTime1s>
				<wgs84Lat>37.5395738652347</wgs84Lat>
				<wgs84Lon>126.989610059757</wgs84Lon>
			</item>
			<item>
				<dutyName>윤의원</dutyName>
				<dutyTel1>02-794-4077</dutyTel1>
				<dutyTime1c>1700</dutyTime1c>
				<dutyTime1s>900</dutyTime1s>
				<wgs84Lat>37.5183413509264</wgs84Lat>
				<wgs84Lon>126.978304102889</wgs84Lon>
			</item>
			<item>
				<dutyName>윤치과의원</dutyName>
				<dutyTel1>02-755-6404</dutyTel1>
				<dutyTime1c>1800</dutyTime1c>
				<dutyTime1s>1000</dutyTime1s>
				<wgs84Lat>37.545049501429</wgs84Lat>
				<wgs84Lon>126.972837640745</wgs84Lon>
			</item>
			<item>
				<dutyName>윤혜리정신건강의학과의원</dutyName>
				<dutyTel1>02-2138-7588</dutyTel1>
				<dutyTime1c>1900</dutyTime1c>
				<dutyTime1s>1000</dutyTime1s>
				<wgs84Lat>37.5288190969</wgs84Lat>
				<wgs84Lon>126.9666528833</wgs84Lon>
			</item>
			<item>
				<dutyName>은정형외과의원</dutyName>
				<dutyTel1>02-711-1356</dutyTel1>
				<dutyTime1c>1830</dutyTime1c>
				<dutyTime1s>900</dutyTime1s>
				<wgs84Lat>37.539561003641</wgs84Lat>
				<wgs84Lon>126.961316503184</wgs84Lon>
			</item>
			<item>
				<dutyName>은혜정형외과의원</dutyName>
				<dutyTel1>02-797-8797</dutyTel1>
				<dutyTime1c>1800</dutyTime1c>
				<dutyTime1s>930</dutyTime1s>
				<wgs84Lat>37.5272776851</wgs84Lat>
				<wgs84Lon>126.9996244058</wgs84Lon>
			</item>
			<item>
				<dutyName>의료법인 성석의료재단 보광연세의원</dutyName>
				<dutyTel1>02-798-0022</dutyTel1>
				<dutyTime1c>1900</dutyTime1c>
				<dutyTime1s>900</dutyTime1s>
				<wgs84Lat>37.5277606204983</wgs84Lat>
				<wgs84Lon>126.999271433029</wgs84Lon>
			</item>
			<item>
				<dutyName>이민재의원</dutyName>
				<dutyTel1>02-792-8575</dutyTel1>
				<dutyTime1c>1830</dutyTime1c>
				<dutyTime1s>830</dutyTime1s>
				<wgs84Lat>37.5201035007081</wgs84Lat>
				<wgs84Lon>126.972789370151</wgs84Lon>
			</item>
			<item>
				<dutyName>이병윤치과의원</dutyName>
				<dutyTel1>02-793-4537</dutyTel1>
				<dutyTime1c>1800</dutyTime1c>
				<dutyTime1s>900</dutyTime1s>
				<wgs84Lat>37.5212337135525</wgs84Lat>
				<wgs84Lon>126.967386290054</wgs84Lon>
			</item>
			<item>
				<dutyName>이삭치과의원</dutyName>
				<dutyTel1>02-797-8960</dutyTel1>
				<dutyTime1c>1800</dutyTime1c>
				<dutyTime1s>1000</dutyTime1s>
				<wgs84Lat>37.5185980772711</wgs84Lat>
				<wgs84Lon>126.977450358112</wgs84Lon>
			</item>
			<item>
				<dutyName>이상영치과의원</dutyName>
				<dutyTel1>02-790-2831</dutyTel1>
				<dutyTime1c>1800</dutyTime1c>
				<dutyTime1s>930</dutyTime1s>
				<wgs84Lat>37.5240919456857</wgs84Lat>
				<wgs84Lon>126.959324424534</wgs84Lon>
			</item>
			<item>
				<dutyName>이엔아이치과의원</dutyName>
				<dutyTel1>02-749-1150</dutyTel1>
				<dutyTime1c>1730</dutyTime1c>
				<dutyTime1s>900</dutyTime1s>
				<wgs84Lat>37.5305148391475</wgs84Lat>
				<wgs84Lon>126.991217293247</wgs84Lon>
			</item>
			<item>
				<dutyName>이엔치과의원</dutyName>
				<dutyTel1>02-712-2400</dutyTel1>
				<dutyTime1c>1900</dutyTime1c>
				<dutyTime1s>1000</dutyTime1s>
				<wgs84Lat>37.5368030706765</wgs84Lat>
				<wgs84Lon>127.000018103228</wgs84Lon>
			</item>
			<item>
				<dutyName>이인주정형외과의원</dutyName>
				<dutyTel1>02-749-5221</dutyTel1>
				<dutyTime1c>1800</dutyTime1c>
				<dutyTime1s>900</dutyTime1s>
				<wgs84Lat>37.5209083333333</wgs84Lat>
				<wgs84Lon>126.96925</wgs84Lon>
			</item>
			<item>
				<dutyName>이창우치과의원</dutyName>
				<dutyTel1>02-718-4519</dutyTel1>
				<dutyTime1c>1730</dutyTime1c>
				<dutyTime1s>1000</dutyTime1s>
				<wgs84Lat>37.5450053534802</wgs84Lat>
				<wgs84Lon>126.966773462453</wgs84Lon>
			</item>
			<item>
				<dutyName>이태원의원</dutyName>
				<dutyTel1>02-792-5551</dutyTel1>
				<dutyTime1c>1800</dutyTime1c>
				<dutyTime1s>930</dutyTime1s>
				<wgs84Lat>37.534204511274</wgs84Lat>
				<wgs84Lon>126.995836401985</wgs84Lon>
			</item>
			<item>
				<dutyName>이태원제일의원</dutyName>
				<dutyTel1>02-796-8275</dutyTel1>
				<dutyTime1c>1800</dutyTime1c>
				<dutyTime1s>900</dutyTime1s>
				<wgs84Lat>37.539379425274</wgs84Lat>
				<wgs84Lon>126.989123000601</wgs84Lon>
			</item>
			<item>
				<dutyName>이태원제일한의원</dutyName>
				<dutyTel1>02-790-1075</dutyTel1>
				<dutyTime1c>1900</dutyTime1c>
				<dutyTime1s>930</dutyTime1s>
				<wgs84Lat>37.535177647</wgs84Lat>
				<wgs84Lon>126.9979045968</wgs84Lon>
			</item>
			<item>
				<dutyName>이한주치과의원</dutyName>
				<dutyTel1>02-702-2875</dutyTel1>
				<dutyTime1c>1830</dutyTime1c>
				<dutyTime1s>1000</dutyTime1s>
				<wgs84Lat>37.5331942481001</wgs84Lat>
				<wgs84Lon>126.963864486461</wgs84Lon>
			</item>
			<item>
				<dutyName>이호심내과의원</dutyName>
				<dutyTel1>02-797-5975</dutyTel1>
				<dutyTime1c>1800</dutyTime1c>
				<dutyTime1s>900</dutyTime1s>
				<wgs84Lat>37.5275056334068</wgs84Lat>
				<wgs84Lon>126.999940061078</wgs84Lon>
			</item>
			<item>
				<dutyName>일심의원</dutyName>
				<dutyTel1>02-776-4937</dutyTel1>
				<dutyTime1c>1800</dutyTime1c>
				<dutyTime1s>900</dutyTime1s>
				<wgs84Lat>37.5454668011933</wgs84Lat>
				<wgs84Lon>126.973463275166</wgs84Lon>
			</item>
			<item>
				<dutyName>자연치과의원</dutyName>
				<dutyTel1>02-711-7522</dutyTel1>
				<dutyTime1c>1830</dutyTime1c>
				<dutyTime1s>930</dutyTime1s>
				<wgs84Lat>37.5395970124627</wgs84Lat>
				<wgs84Lon>126.961221439093</wgs84Lon>
			</item>
			<item>
				<dutyName>재단법인아산사회복지재단금강의원</dutyName>
				<dutyTel1>02-799-5170</dutyTel1>
				<dutyTime1c>1800</dutyTime1c>
				<dutyTime1s>900</dutyTime1s>
				<wgs84Lat>37.5189112741816</wgs84Lat>
				<wgs84Lon>126.981154515355</wgs84Lon>
			</item>
			<item>
				<dutyName>전자랜드의원</dutyName>
				<dutyTel1>02-704-9494</dutyTel1>
				<dutyTime1c>1800</dutyTime1c>
				<dutyTime1s>900</dutyTime1s>
				<wgs84Lat>37.5328540881604</wgs84Lat>
				<wgs84Lon>126.959741898179</wgs84Lon>
			</item>
			<item>
				<dutyName>정소아과의원</dutyName>
				<dutyTel1>02-775-8191</dutyTel1>
				<dutyTime1c>1800</dutyTime1c>
				<dutyTime1s>900</dutyTime1s>
				<wgs84Lat>37.5497392249056</wgs84Lat>
				<wgs84Lon>126.977213150566</wgs84Lon>
			</item>
			<item>
				<dutyName>정직한경희한의원</dutyName>
				<dutyTel1>02-718-6000</dutyTel1>
				<dutyTime1c>1830</dutyTime1c>
				<dutyTime1s>930</dutyTime1s>
				<wgs84Lat>37.5384933449</wgs84Lat>
				<wgs84Lon>126.9587327607</wgs84Lon>
			</item>
			<item>
				<dutyName>정진이비인후과의원</dutyName>
				<dutyTel1>02-790-3355</dutyTel1>
				<dutyTime1c>1900</dutyTime1c>
				<dutyTime1s>900</dutyTime1s>
				<wgs84Lat>37.5288190969</wgs84Lat>
				<wgs84Lon>126.9666528833</wgs84Lon>
			</item>
			<item>
				<dutyName>정행남치과의원</dutyName>
				<dutyTel1>02-795-0486</dutyTel1>
				<dutyTime1c>1730</dutyTime1c>
				<dutyTime1s>1000</dutyTime1s>
				<wgs84Lat>37.5259144001893</wgs84Lat>
				<wgs84Lon>126.964451884946</wgs84Lon>
			</item>
			<item>
				<dutyName>제너럴닥터생활협동조합맘튼튼의원</dutyName>
				<dutyTel1>02-322-2651</dutyTel1>
				<dutyTime1c>2200</dutyTime1c>
				<dutyTime1s>1200</dutyTime1s>
				<wgs84Lat>37.5345897818056</wgs84Lat>
				<wgs84Lon>126.989907748558</wgs84Lon>
			</item>
			<item>
				<dutyName>제일성모의원</dutyName>
				<dutyTel1>02-796-4060</dutyTel1>
				<dutyTime1c>1900</dutyTime1c>
				<dutyTime1s>900</dutyTime1s>
				<wgs84Lat>37.5319952091</wgs84Lat>
				<wgs84Lon>127.005344635</wgs84Lon>
			</item>
			<item>
				<dutyName>조셉정형외과의원</dutyName>
				<dutyTel1>02-790-6591</dutyTel1>
				<dutyTime1c>2000</dutyTime1c>
				<dutyTime1s>900</dutyTime1s>
				<wgs84Lat>37.5199479645401</wgs84Lat>
				<wgs84Lon>126.974425893778</wgs84Lon>
			</item>
			<item>
				<dutyName>조승복의원</dutyName>
				<dutyTel1>02-707-0022</dutyTel1>
				<dutyTime1c>1700</dutyTime1c>
				<dutyTime1s>930</dutyTime1s>
				<wgs84Lat>37.5350376507</wgs84Lat>
				<wgs84Lon>126.96031866</wgs84Lon>
			</item>
			<item>
				<dutyName>조은플란트치과의원</dutyName>
				<dutyTel1>02-701-2879</dutyTel1>
				<dutyTime1c>1900</dutyTime1c>
				<dutyTime1s>1000</dutyTime1s>
				<wgs84Lat>37.5422100693999</wgs84Lat>
				<wgs84Lon>126.971893775426</wgs84Lon>
			</item>
			<item>
				<dutyName>조재형한의원</dutyName>
				<dutyTel1>02-757-0675</dutyTel1>
				<dutyTime1c>1800</dutyTime1c>
				<dutyTime1s>900</dutyTime1s>
				<wgs84Lat>37.5487086160073</wgs84Lat>
				<wgs84Lon>126.97794225573</wgs84Lon>
			</item>
			<item>
				<dutyName>조치과의원</dutyName>
				<dutyTel1>02-794-4203</dutyTel1>
				<dutyTime1c>1800</dutyTime1c>
				<dutyTime1s>1000</dutyTime1s>
				<wgs84Lat>37.5455355879769</wgs84Lat>
				<wgs84Lon>126.985724827058</wgs84Lon>
			</item>
			<item>
				<dutyName>주작나무한의원</dutyName>
				<dutyTel1>02-704-9575</dutyTel1>
				<dutyTime1c>1830</dutyTime1c>
				<dutyTime1s>900</dutyTime1s>
				<wgs84Lat>37.5451858213741</wgs84Lat>
				<wgs84Lon>126.970216855692</wgs84Lon>
			</item>
			<item>
				<dutyName>차내과의원</dutyName>
				<dutyTel1>02-756-6858</dutyTel1>
				<dutyTime1c>1800</dutyTime1c>
				<dutyTime1s>900</dutyTime1s>
				<wgs84Lat>37.5461583333333</wgs84Lat>
				<wgs84Lon>126.984941666667</wgs84Lon>
			</item>
			<item>
				<dutyName>참좋은치과의원</dutyName>
				<dutyTel1>02-713-2875</dutyTel1>
				<dutyTime1c>1830</dutyTime1c>
				<dutyTime1s>1000</dutyTime1s>
				<wgs84Lat>37.5397972984892</wgs84Lat>
				<wgs84Lon>126.968127992751</wgs84Lon>
			</item>
			<item>
				<dutyName>참편한치과의원</dutyName>
				<dutyTel1>02-796-2803</dutyTel1>
				<dutyTime1c>1800</dutyTime1c>
				<dutyTime1s>930</dutyTime1s>
				<wgs84Lat>37.5260932067876</wgs84Lat>
				<wgs84Lon>127.001200323618</wgs84Lon>
			</item>
			<item>
				<dutyName>천지인한의원</dutyName>
				<dutyTel1>02-3272-1010</dutyTel1>
				<dutyTime1c>1900</dutyTime1c>
				<dutyTime1s>930</dutyTime1s>
				<wgs84Lat>37.5347386566685</wgs84Lat>
				<wgs84Lon>126.960748778846</wgs84Lon>
			</item>
			<item>
				<dutyName>청담바롬의원</dutyName>
				<dutyTel1>02-3275-7900</dutyTel1>
				<dutyTime1c>1900</dutyTime1c>
				<dutyTime1s>930</dutyTime1s>
				<wgs84Lat>37.5379375928</wgs84Lat>
				<wgs84Lon>126.9679749045</wgs84Lon>
			</item>
			<item>
				<dutyName>청파약손한의원</dutyName>
				<dutyTel1>02-3274-1071</dutyTel1>
				<dutyTime1c>1900</dutyTime1c>
				<dutyTime1s>930</dutyTime1s>
				<wgs84Lat>37.5507717754</wgs84Lat>
				<wgs84Lon>126.9692866696</wgs84Lon>
			</item>
			<item>
				<dutyName>청파치과의원</dutyName>
				<dutyTel1>02-714-3323</dutyTel1>
				<dutyTime1c>1800</dutyTime1c>
				<dutyTime1s>930</dutyTime1s>
				<wgs84Lat>37.5446</wgs84Lat>
				<wgs84Lon>126.967888888889</wgs84Lon>
			</item>
			<item>
				<dutyName>초록한의원</dutyName>
				<dutyTel1>02-713-1075</dutyTel1>
				<dutyTime1c>2000</dutyTime1c>
				<dutyTime1s>930</dutyTime1s>
				<wgs84Lat>37.5395061021724</wgs84Lat>
				<wgs84Lon>126.957217242465</wgs84Lon>
			</item>
			<item>
				<dutyName>초이스내과신경과의원</dutyName>
				<dutyTel1>02-795-1175</dutyTel1>
				<dutyTime1c>1730</dutyTime1c>
				<dutyTime1s>800</dutyTime1s>
				<wgs84Lat>37.5173837458647</wgs84Lat>
				<wgs84Lon>126.985177299078</wgs84Lon>
			</item>
			<item>
				<dutyName>초콜렛치과의원</dutyName>
				<dutyTel1>02-795-2812</dutyTel1>
				<dutyTime1c>1800</dutyTime1c>
				<dutyTime1s>930</dutyTime1s>
				<wgs84Lat>37.533743076</wgs84Lat>
				<wgs84Lon>127.0068065357</wgs84Lon>
			</item>
			<item>
				<dutyName>최내과의원</dutyName>
				<dutyTel1>02-776-4832</dutyTel1>
				<dutyTime1c>1800</dutyTime1c>
				<dutyTime1s>900</dutyTime1s>
				<wgs84Lat>37.5468462633325</wgs84Lat>
				<wgs84Lon>126.978006174292</wgs84Lon>
			</item>
			<item>
				<dutyName>최대균남광호치과의원</dutyName>
				<dutyTel1>02-727-4055</dutyTel1>
				<dutyTime1c>1830</dutyTime1c>
				<dutyTime1s>1000</dutyTime1s>
				<wgs84Lat>37.5534613888</wgs84Lat>
				<wgs84Lon>126.9735634051</wgs84Lon>
			</item>
			<item>
				<dutyName>최석진치과의원</dutyName>
				<dutyTel1>02-795-0628</dutyTel1>
				<dutyTime1c>1800</dutyTime1c>
				<dutyTime1s>1000</dutyTime1s>
				<wgs84Lat>37.5259586149222</wgs84Lat>
				<wgs84Lon>126.999054243266</wgs84Lon>
			</item>
			<item>
				<dutyName>최선원치과의원</dutyName>
				<dutyTel1>02-3272-8160</dutyTel1>
				<dutyTime1c>1800</dutyTime1c>
				<dutyTime1s>1000</dutyTime1s>
				<wgs84Lat>37.5257944444444</wgs84Lat>
				<wgs84Lon>126.954525</wgs84Lon>
			</item>
			<item>
				<dutyName>최세원치과의원</dutyName>
				<dutyTel1>02-797-8833</dutyTel1>
				<dutyTime1c>1800</dutyTime1c>
				<dutyTime1s>930</dutyTime1s>
				<wgs84Lat>37.5341305555556</wgs84Lat>
				<wgs84Lon>126.973</wgs84Lon>
			</item>
			<item>
				<dutyName>최치과의원</dutyName>
				<dutyTel1>02-718-1001</dutyTel1>
				<dutyTime1c>1730</dutyTime1c>
				<dutyTime1s>930</dutyTime1s>
				<wgs84Lat>37.5364083333333</wgs84Lat>
				<wgs84Lon>126.960583333333</wgs84Lon>
			</item>
			<item>
				<dutyName>코어이비인후과의원</dutyName>
				<dutyTel1>02-796-8884</dutyTel1>
				<dutyTime1c>1900</dutyTime1c>
				<dutyTime1s>900</dutyTime1s>
				<wgs84Lat>37.5279912937598</wgs84Lat>
				<wgs84Lon>126.967795008179</wgs84Lon>
			</item>
			<item>
				<dutyName>코코이비인후과의원</dutyName>
				<dutyTel1>02-794-7990</dutyTel1>
				<dutyTime1c>1900</dutyTime1c>
				<dutyTime1s>900</dutyTime1s>
				<wgs84Lat>37.5288190969</wgs84Lat>
				<wgs84Lon>126.9666528833</wgs84Lon>
			</item>
			<item>
				<dutyName>키즈앤쥬니어치과의원</dutyName>
				<dutyTel1>02-793-2801</dutyTel1>
				<dutyTime1c>1800</dutyTime1c>
				<dutyTime1s>1000</dutyTime1s>
				<wgs84Lat>37.5207515896349</wgs84Lat>
				<wgs84Lon>126.970314055697</wgs84Lon>
			</item>
			<item>
				<dutyName>태원치과의원</dutyName>
				<dutyTel1>02-798-2882</dutyTel1>
				<dutyTime1c>1800</dutyTime1c>
				<dutyTime1s>930</dutyTime1s>
				<wgs84Lat>37.5255098301</wgs84Lat>
				<wgs84Lon>126.9639709575</wgs84Lon>
			</item>
			<item>
				<dutyName>트리니티내과의원</dutyName>
				<dutyTel1>02-793-7127</dutyTel1>
				<dutyTime1c>1830</dutyTime1c>
				<dutyTime1s>830</dutyTime1s>
				<wgs84Lat>37.5202573378532</wgs84Lat>
				<wgs84Lon>126.971934902286</wgs84Lon>
			</item>
			<item>
				<dutyName>티아이피재활의학과의원</dutyName>
				<dutyTel1>02-6959-8228</dutyTel1>
				<dutyTime1c>2100</dutyTime1c>
				<dutyTime1s>930</dutyTime1s>
				<wgs84Lat>37.5200045554016</wgs84Lat>
				<wgs84Lon>126.969873933608</wgs84Lon>
			</item>
			<item>
				<dutyName>평강한의원</dutyName>
				<dutyTel1>02-774-1525</dutyTel1>
				<dutyTime1c>1800</dutyTime1c>
				<dutyTime1s>930</dutyTime1s>
				<wgs84Lat>37.5466930392919</wgs84Lat>
				<wgs84Lon>126.98161148014</wgs84Lon>
			</item>
			<item>
				<dutyName>하나이비인후과의원</dutyName>
				<dutyTel1>02-711-9001</dutyTel1>
				<dutyTime1c>1830</dutyTime1c>
				<dutyTime1s>900</dutyTime1s>
				<wgs84Lat>37.5447573065661</wgs84Lat>
				<wgs84Lon>126.971683543389</wgs84Lon>
			</item>
			<item>
				<dutyName>한남웰빙의원</dutyName>
				<dutyTel1>02-795-9042</dutyTel1>
				<dutyTime1c>1800</dutyTime1c>
				<dutyTime1s>900</dutyTime1s>
				<wgs84Lat>37.5325213791</wgs84Lat>
				<wgs84Lon>127.0056614609</wgs84Lon>
			</item>
			<item>
				<dutyName>한마음치과의원</dutyName>
				<dutyTel1>02-713-1100</dutyTel1>
				<dutyTime1c>1900</dutyTime1c>
				<dutyTime1s>930</dutyTime1s>
				<wgs84Lat>37.5507665724</wgs84Lat>
				<wgs84Lon>126.9636555178</wgs84Lon>
			</item>
			<item>
				<dutyName>한빛내과의원</dutyName>
				<dutyTel1>02-3272-7582</dutyTel1>
				<dutyTime1c>1830</dutyTime1c>
				<dutyTime1s>900</dutyTime1s>
				<wgs84Lat>37.5485428006608</wgs84Lat>
				<wgs84Lon>126.963308055788</wgs84Lon>
			</item>
			<item>
				<dutyName>한빛의원</dutyName>
				<dutyTel1>02-778-0656</dutyTel1>
				<dutyTime1c>1800</dutyTime1c>
				<dutyTime1s>900</dutyTime1s>
				<wgs84Lat>37.5505667776056</wgs84Lat>
				<wgs84Lon>126.974942809773</wgs84Lon>
			</item>
			<item>
				<dutyName>한우리한의원</dutyName>
				<dutyTel1>02-790-7748</dutyTel1>
				<dutyTime1c>1900</dutyTime1c>
				<dutyTime1s>900</dutyTime1s>
				<wgs84Lat>37.5402804967595</wgs84Lat>
				<wgs84Lon>126.98986624743</wgs84Lon>
			</item>
			<item>
				<dutyName>한일한의원</dutyName>
				<dutyTel1>02-777-8501</dutyTel1>
				<dutyTime1c>1800</dutyTime1c>
				<dutyTime1s>1000</dutyTime1s>
				<wgs84Lat>37.5541323951428</wgs84Lat>
				<wgs84Lon>126.976741040757</wgs84Lon>
			</item>
			<item>
				<dutyName>한진서울치과의원</dutyName>
				<dutyTel1>02-798-2824</dutyTel1>
				<dutyTime1c>1800</dutyTime1c>
				<dutyTime1s>1000</dutyTime1s>
				<wgs84Lat>37.5394191438446</wgs84Lat>
				<wgs84Lon>126.989902571723</wgs84Lon>
			</item>
			<item>
				<dutyName>한진치과의원</dutyName>
				<dutyTel1>02-755-0843</dutyTel1>
				<dutyTime1c>1700</dutyTime1c>
				<dutyTime1s>1000</dutyTime1s>
				<wgs84Lat>37.55335</wgs84Lat>
				<wgs84Lon>126.974694444444</wgs84Lon>
			</item>
			<item>
				<dutyName>한치과의원</dutyName>
				<dutyTel1>02-754-4909</dutyTel1>
				<dutyTime1c>1800</dutyTime1c>
				<dutyTime1s>1000</dutyTime1s>
				<wgs84Lat>37.5459009237</wgs84Lat>
				<wgs84Lon>126.976974422</wgs84Lon>
			</item>
			<item>
				<dutyName>해바라기내과의원</dutyName>
				<dutyTel1>02-712-0988</dutyTel1>
				<dutyTime1c>1830</dutyTime1c>
				<dutyTime1s>900</dutyTime1s>
				<wgs84Lat>37.5383526202341</wgs84Lat>
				<wgs84Lon>126.967441851312</wgs84Lon>
			</item>
			<item>
				<dutyName>허경선여성의원</dutyName>
				<dutyTel1>02-595-9017</dutyTel1>
				<dutyTime1c>1900</dutyTime1c>
				<dutyTime1s>930</dutyTime1s>
				<wgs84Lat>37.539669316009</wgs84Lat>
				<wgs84Lon>126.960068490241</wgs84Lon>
			</item>
			<item>
				<dutyName>허내과의원</dutyName>
				<dutyTel1>02-792-5575</dutyTel1>
				<dutyTime1c>1900</dutyTime1c>
				<dutyTime1s>900</dutyTime1s>
				<wgs84Lat>37.5395354056105</wgs84Lat>
				<wgs84Lon>126.989324211442</wgs84Lon>
			</item>
			<item>
				<dutyName>허창호이비인후과의원</dutyName>
				<dutyTel1>02-797-6302</dutyTel1>
				<dutyTime1c>1830</dutyTime1c>
				<dutyTime1s>900</dutyTime1s>
				<wgs84Lat>37.5201456061</wgs84Lat>
				<wgs84Lon>126.9718783636</wgs84Lon>
			</item>
			<item>
				<dutyName>형제한의원</dutyName>
				<dutyTel1>02-798-1473</dutyTel1>
				<dutyTime1c>1830</dutyTime1c>
				<dutyTime1s>1000</dutyTime1s>
				<wgs84Lat>37.5310184991795</wgs84Lat>
				<wgs84Lon>126.970263239648</wgs84Lon>
			</item>
			<item>
				<dutyName>혜광의원</dutyName>
				<dutyTel1>02-795-3351</dutyTel1>
				<dutyTime1c>1800</dutyTime1c>
				<dutyTime1s>900</dutyTime1s>
				<wgs84Lat>37.5387054525759</wgs84Lat>
				<wgs84Lon>126.988802868914</wgs84Lon>
			</item>
			<item>
				<dutyName>호수의원</dutyName>
				<dutyTel1>02-792-0506</dutyTel1>
				<dutyTime1c>1900</dutyTime1c>
				<dutyTime1s>1000</dutyTime1s>
				<wgs84Lat>37.5341249028016</wgs84Lat>
				<wgs84Lon>127.009644149924</wgs84Lon>
			</item>
			<item>
				<dutyName>화이트수치과의원</dutyName>
				<dutyTel1>02-792-7528</dutyTel1>
				<dutyTime1c>1830</dutyTime1c>
				<dutyTime1s>1000</dutyTime1s>
				<wgs84Lat>37.520145606127</wgs84Lat>
				<wgs84Lon>126.971878363568</wgs84Lon>
			</item>
			<item>
				<dutyName>황재훈비뇨기과의원</dutyName>
				<dutyTel1>02-703-6300</dutyTel1>
				<dutyTime1c>1830</dutyTime1c>
				<dutyTime1s>930</dutyTime1s>
				<wgs84Lat>37.5356255793</wgs84Lat>
				<wgs84Lon>126.9617620582</wgs84Lon>
			</item>
			<item>
				<dutyName>효전한의원</dutyName>
				<dutyTel1>02-749-7532</dutyTel1>
				<dutyTime1c>1800</dutyTime1c>
				<dutyTime1s>900</dutyTime1s>
				<wgs84Lat>37.5343608234401</wgs84Lat>
				<wgs84Lon>126.99552242567</wgs84Lon>
			</item>
			<item>
				<dutyName>효창치과의원</dutyName>
				<dutyTel1>02-703-7585</dutyTel1>
				<dutyTime1c>1900</dutyTime1c>
				<dutyTime1s>1000</dutyTime1s>
				<wgs84Lat>37.5411043114242</wgs84Lat>
				<wgs84Lon>126.961860003851</wgs84Lon>
			</item>
			<item>
				<dutyName>후암연세치과의원</dutyName>
				<dutyTel1>02-775-2488</dutyTel1>
				<dutyTime1c>1800</dutyTime1c>
				<dutyTime1s>1000</dutyTime1s>
				<wgs84Lat>37.5503851302346</wgs84Lat>
				<wgs84Lon>126.977453721216</wgs84Lon>
			</item>
			<item>
				<dutyName>후암한의원</dutyName>
				<dutyTel1>02-776-8277</dutyTel1>
				<dutyTime1c>1800</dutyTime1c>
				<dutyTime1s>900</dutyTime1s>
				<wgs84Lat>37.5502294178206</wgs84Lat>
				<wgs84Lon>126.977498198941</wgs84Lon>
			</item>
			<item>
				<dutyName>훼미리365의원</dutyName>
				<dutyTel1>02-6205-6560</dutyTel1>
				<dutyTime1c>1830</dutyTime1c>
				<dutyTime1s>900</dutyTime1s>
				<wgs84Lat>37.5288274023664</wgs84Lat>
				<wgs84Lon>126.998760060914</wgs84Lon>
			</item>
			<item>
				<dutyName>히카루치과의원</dutyName>
				<dutyTel1>02-796-2822</dutyTel1>
				<dutyTime1c>1700</dutyTime1c>
				<dutyTime1s>1000</dutyTime1s>
				<wgs84Lat>37.5186448976141</wgs84Lat>
				<wgs84Lon>126.977296504174</wgs84Lon>
			</item>
			<item>
				<dutyName>힐탑치과의원</dutyName>
				<dutyTel1>02-790-8353</dutyTel1>
				<dutyTime1c>1830</dutyTime1c>
				<dutyTime1s>1000</dutyTime1s>
				<wgs84Lat>37.5306861111111</wgs84Lat>
				<wgs84Lon>126.996636111111</wgs84Lon>
			</item>
			<item>
				<dutyName>힘찬세상경희한의원</dutyName>
				<dutyTel1>02-793-1075</dutyTel1>
				<dutyTime1c>1900</dutyTime1c>
				<dutyTime1s>930</dutyTime1s>
				<wgs84Lat>37.5299908126804</wgs84Lat>
				<wgs84Lon>126.968172915032</wgs84Lon>
			</item>
		</items>
	</body>
</response>