<?xml version="1.0" encoding="UTF-8" standalone="yes"?>
<response xmlns:xsi="http://www.w3.org/2001/XMLSchema-instance">
	<body>
		<items>
			<item>
				<dutyName>(의)열린의료재단은평열린의원</dutyName>
				<dutyTel1>02-354-7168</dutyTel1>
				<dutyTime1c>1800</dutyTime1c>
				<dutyTime1s>900</dutyTime1s>
				<wgs84Lat>37.6112857852684</wgs84Lat>
				<wgs84Lon>126.916479086983</wgs84Lon>
			</item>
			<item>
				<dutyName>21C메트로한방병원</dutyName>
				<dutyTel1>02-1522-1076</dutyTel1>
				<dutyTime1c>1830</dutyTime1c>
				<dutyTime1s>930</dutyTime1s>
				<wgs84Lat>37.6000369952622</wgs84Lat>
				<wgs84Lon>126.910426484213</wgs84Lon>
			</item>
			<item>
				<dutyName>365경희솔한의원</dutyName>
				<dutyTel1>02-376-4517</dutyTel1>
				<dutyTime1c>2100</dutyTime1c>
				<dutyTime1s>900</dutyTime1s>
				<wgs84Lat>37.6458511153</wgs84Lat>
				<wgs84Lon>126.9272003501</wgs84Lon>
			</item>
			<item>
				<dutyName>OK(오케이)내과의원</dutyName>
				<dutyTel1>02-383-3393</dutyTel1>
				<dutyTime1c>1300</dutyTime1c>
				<dutyTime1s>830</dutyTime1s>
				<wgs84Lat>37.6104609685727</wgs84Lat>
				<wgs84Lon>126.917902634676</wgs84Lon>
			</item>
			<item>
				<dutyName>OK부부치과의원</dutyName>
				<dutyTel1>02-358-8020</dutyTel1>
				<dutyTime1c>1800</dutyTime1c>
				<dutyTime1s>930</dutyTime1s>
				<wgs84Lat>37.6234728927</wgs84Lat>
				<wgs84Lon>126.9195692265</wgs84Lon>
			</item>
			<item>
				<dutyName>가나다한의원</dutyName>
				<dutyTel1>02-357-9119</dutyTel1>
				<dutyTime1c>2100</dutyTime1c>
				<dutyTime1s>800</dutyTime1s>
				<wgs84Lat>37.6205098256363</wgs84Lat>
				<wgs84Lon>126.924071577996</wgs84Lon>
			</item>
			<item>
				<dutyName>가로세로한의원</dutyName>
				<dutyTel1>02-358-1175</dutyTel1>
				<dutyTime1c>2100</dutyTime1c>
				<dutyTime1s>1000</dutyTime1s>
				<wgs84Lat>37.6205826142</wgs84Lat>
				<wgs84Lon>126.919699205</wgs84Lon>
			</item>
			<item>
				<dutyName>가인치과의원</dutyName>
				<dutyTel1>02-358-2838</dutyTel1>
				<dutyTime1c>1830</dutyTime1c>
				<dutyTime1s>930</dutyTime1s>
				<wgs84Lat>37.6086720962414</wgs84Lat>
				<wgs84Lon>126.926665889759</wgs84Lon>
			</item>
			<item>
				<dutyName>가지런한치과교정과치과의원</dutyName>
				<dutyTel1>02-386-0303</dutyTel1>
				<dutyTime1c>1900</dutyTime1c>
				<dutyTime1s>1500</dutyTime1s>
				<wgs84Lat>37.6004446486</wgs84Lat>
				<wgs84Lon>126.9210933403</wgs84Lon>
			</item>
			<item>
				<dutyName>가톨릭정형외과의원</dutyName>
				<dutyTel1>02-354-9800</dutyTel1>
				<dutyTime1c>1900</dutyTime1c>
				<dutyTime1s>900</dutyTime1s>
				<wgs84Lat>37.5987109837632</wgs84Lat>
				<wgs84Lon>126.921408042025</wgs84Lon>
			</item>
			<item>
				<dutyName>감나무한의원</dutyName>
				<dutyTel1>02-357-6959</dutyTel1>
				<dutyTime1c>1800</dutyTime1c>
				<dutyTime1s>900</dutyTime1s>
				<wgs84Lat>37.6149758035329</wgs84Lat>
				<wgs84Lon>126.916665283036</wgs84Lon>
			</item>
			<item>
				<dutyName>강변내과의원</dutyName>
				<dutyTel1>02-375-9300</dutyTel1>
				<dutyTime1c>1900</dutyTime1c>
				<dutyTime1s>900</dutyTime1s>
				<wgs84Lat>37.5928493167318</wgs84Lat>
				<wgs84Lon>126.913415311814</wgs84Lon>
			</item>
			<item>
				<dutyName>강변정형외과의원</dutyName>
				<dutyTel1>02-307-5400</dutyTel1>
				<dutyTime1c>1900</dutyTime1c>
				<dutyTime1s>900</dutyTime1s>
				<wgs84Lat>37.5928493167</wgs84Lat>
				<wgs84Lon>126.9134153118</wgs84Lon>
			</item>
			<item>
				<dutyName>강북삼성내과의원</dutyName>
				<dutyTel1>02-354-1700</dutyTel1>
				<dutyTime1c>1900</dutyTime1c>
				<dutyTime1s>900</dutyTime1s>
				<wgs84Lat>37.6011350187941</wgs84Lat>
				<wgs84Lon>126.929998001836</wgs84Lon>
			</item>
			<item>
				<dutyName>강북제일외과의원</dutyName>
				<dutyTel1>02-359-9363</dutyTel1>
				<dutyTime1c>1830</dutyTime1c>
				<dutyTime1s>900</dutyTime1s>
				<wgs84Lat>37.6082829248894</wgs84Lat>
				<wgs84Lon>126.920595826861</wgs84Lon>
			</item>
			<item>
				<dutyName>강석경소아과의원</dutyName>
				<dutyTel1>02-389-0969</dutyTel1>
				<dutyTime1c>1830</dutyTime1c>
				<dutyTime1s>930</dutyTime1s>
				<wgs84Lat>37.6118180237715</wgs84Lat>
				<wgs84Lon>126.93148300454</wgs84Lon>
			</item>
			<item>
				<dutyName>강창원내과의원</dutyName>
				<dutyTel1>02-389-2043</dutyTel1>
				<dutyTime1c>1830</dutyTime1c>
				<dutyTime1s>900</dutyTime1s>
				<wgs84Lat>37.6099935190632</wgs84Lat>
				<wgs84Lon>126.92994894857</wgs84Lon>
			</item>
			<item>
				<dutyName>거북이한의원</dutyName>
				<dutyTel1>02-385-0675</dutyTel1>
				<dutyTime1c>1900</dutyTime1c>
				<dutyTime1s>900</dutyTime1s>
				<wgs84Lat>37.6033321175724</wgs84Lat>
				<wgs84Lon>126.910691492288</wgs84Lon>
			</item>
			<item>
				<dutyName>건강그린내과의원</dutyName>
				<dutyTel1>02-358-3355</dutyTel1>
				<dutyTime1c>1900</dutyTime1c>
				<dutyTime1s>830</dutyTime1s>
				<wgs84Lat>37.6176523565687</wgs84Lat>
				<wgs84Lon>126.920132730839</wgs84Lon>
			</item>
			<item>
				<dutyName>건강드림의원</dutyName>
				<dutyTel1>02-382-5575</dutyTel1>
				<dutyTime1c>1900</dutyTime1c>
				<dutyTime1s>900</dutyTime1s>
				<wgs84Lat>37.6470661769403</wgs84Lat>
				<wgs84Lon>126.928073934426</wgs84Lon>
			</item>
			<item>
				<dutyName>경서외과의원</dutyName>
				<dutyTel1>02-354-2350</dutyTel1>
				<dutyTime1c>1800</dutyTime1c>
				<dutyTime1s>930</dutyTime1s>
				<wgs84Lat>37.5972324097492</wgs84Lat>
				<wgs84Lon>126.909505835835</wgs84Lon>
			</item>
			<item>
				<dutyName>경희다솜한의원</dutyName>
				<dutyTel1>02-388-1120</dutyTel1>
				<dutyTime1c>1830</dutyTime1c>
				<dutyTime1s>930</dutyTime1s>
				<wgs84Lat>37.6194267731451</wgs84Lat>
				<wgs84Lon>126.921222800146</wgs84Lon>
			</item>
			<item>
				<dutyName>경희백한의원</dutyName>
				<dutyTel1>02-356-4845</dutyTel1>
				<dutyTime1c>1830</dutyTime1c>
				<dutyTime1s>930</dutyTime1s>
				<wgs84Lat>37.6108395939601</wgs84Lat>
				<wgs84Lon>126.917476270204</wgs84Lon>
			</item>
			<item>
				<dutyName>경희소금빛한의원</dutyName>
				<dutyTel1>02-996-5959</dutyTel1>
				<dutyTime1c>1900</dutyTime1c>
				<dutyTime1s>930</dutyTime1s>
				<wgs84Lat>37.6348217057</wgs84Lat>
				<wgs84Lon>126.9195569956</wgs84Lon>
			</item>
			<item>
				<dutyName>경희솔한의원</dutyName>
				<dutyTel1>02-385-7582</dutyTel1>
				<dutyTime1c>1900</dutyTime1c>
				<dutyTime1s>930</dutyTime1s>
				<wgs84Lat>37.5987633414891</wgs84Lat>
				<wgs84Lon>126.91330427921</wgs84Lon>
			</item>
			<item>
				<dutyName>경희수한의원</dutyName>
				<dutyTel1>02-388-7588</dutyTel1>
				<dutyTime1c>1900</dutyTime1c>
				<dutyTime1s>900</dutyTime1s>
				<wgs84Lat>37.6087844851559</wgs84Lat>
				<wgs84Lon>126.927127790225</wgs84Lon>
			</item>
			<item>
				<dutyName>경희아이한의원</dutyName>
				<dutyTel1>02-379-0003</dutyTel1>
				<dutyTime1c>1800</dutyTime1c>
				<dutyTime1s>1000</dutyTime1s>
				<wgs84Lat>37.6386523687318</wgs84Lat>
				<wgs84Lon>126.919081540105</wgs84Lon>
			</item>
			<item>
				<dutyName>경희약손한의원</dutyName>
				<dutyTel1>02-383-1075</dutyTel1>
				<dutyTime1c>1900</dutyTime1c>
				<dutyTime1s>900</dutyTime1s>
				<wgs84Lat>37.5992549727</wgs84Lat>
				<wgs84Lon>126.9153601408</wgs84Lon>
			</item>
			<item>
				<dutyName>경희우소한의원</dutyName>
				<dutyTel1>02-386-6101</dutyTel1>
				<dutyTime1c>1830</dutyTime1c>
				<dutyTime1s>930</dutyTime1s>
				<wgs84Lat>37.6128057614584</wgs84Lat>
				<wgs84Lon>126.915226994559</wgs84Lon>
			</item>
			<item>
				<dutyName>경희장수한의원</dutyName>
				<dutyTel1>02-374-7933</dutyTel1>
				<dutyTime1c>1900</dutyTime1c>
				<dutyTime1s>1000</dutyTime1s>
				<wgs84Lat>37.588783115459</wgs84Lat>
				<wgs84Lon>126.917151898892</wgs84Lon>
			</item>
			<item>
				<dutyName>경희정한의원</dutyName>
				<dutyTel1>02-304-3255</dutyTel1>
				<dutyTime1c>1800</dutyTime1c>
				<dutyTime1s>900</dutyTime1s>
				<wgs84Lat>37.5912229367393</wgs84Lat>
				<wgs84Lon>126.917054062611</wgs84Lon>
			</item>
			<item>
				<dutyName>경희진한의원</dutyName>
				<dutyTel1>02-358-7575</dutyTel1>
				<dutyTime1c>1800</dutyTime1c>
				<dutyTime1s>900</dutyTime1s>
				<wgs84Lat>37.623481796045</wgs84Lat>
				<wgs84Lon>126.916818886946</wgs84Lon>
			</item>
			<item>
				<dutyName>경희청담한의원</dutyName>
				<dutyTel1>02-384-8275</dutyTel1>
				<dutyTime1c>1900</dutyTime1c>
				<dutyTime1s>930</dutyTime1s>
				<wgs84Lat>37.6161275968249</wgs84Lat>
				<wgs84Lon>126.925072716668</wgs84Lon>
			</item>
			<item>
				<dutyName>경희태초한의원</dutyName>
				<dutyTel1>02-388-0031</dutyTel1>
				<dutyTime1c>1900</dutyTime1c>
				<dutyTime1s>930</dutyTime1s>
				<wgs84Lat>37.6117926854713</wgs84Lat>
				<wgs84Lon>126.931292753224</wgs84Lon>
			</item>
			<item>
				<dutyName>경희튼튼한의원</dutyName>
				<dutyTel1>02-354-1075</dutyTel1>
				<dutyTime1c>1900</dutyTime1c>
				<dutyTime1s>930</dutyTime1s>
				<wgs84Lat>37.6012068303277</wgs84Lat>
				<wgs84Lon>126.930016264232</wgs84Lon>
			</item>
			<item>
				<dutyName>경희한의원</dutyName>
				<dutyTel1>02-352-7588</dutyTel1>
				<dutyTime1c>1900</dutyTime1c>
				<dutyTime1s>930</dutyTime1s>
				<wgs84Lat>37.6176460421609</wgs84Lat>
				<wgs84Lon>126.932877497548</wgs84Lon>
			</item>
			<item>
				<dutyName>경희허준한의원</dutyName>
				<dutyTel1>02-384-8875</dutyTel1>
				<dutyTime1c>1900</dutyTime1c>
				<dutyTime1s>900</dutyTime1s>
				<wgs84Lat>37.6100572561</wgs84Lat>
				<wgs84Lon>126.9280597574</wgs84Lon>
			</item>
			<item>
				<dutyName>경희희망한의원</dutyName>
				<dutyTel1>02-356-9951</dutyTel1>
				<dutyTime1c>1900</dutyTime1c>
				<dutyTime1s>930</dutyTime1s>
				<wgs84Lat>37.6348217057</wgs84Lat>
				<wgs84Lon>126.9195569956</wgs84Lon>
			</item>
			<item>
				<dutyName>고경당한의원</dutyName>
				<dutyTel1>02-382-4060</dutyTel1>
				<dutyTime1c>1900</dutyTime1c>
				<dutyTime1s>915</dutyTime1s>
				<wgs84Lat>37.6144737745202</wgs84Lat>
				<wgs84Lon>126.909543863733</wgs84Lon>
			</item>
			<item>
				<dutyName>고려마취통증의학과의원</dutyName>
				<dutyTel1>02-383-2023</dutyTel1>
				<dutyTime1c>1800</dutyTime1c>
				<dutyTime1s>830</dutyTime1s>
				<wgs84Lat>37.6008167144837</wgs84Lat>
				<wgs84Lon>126.922945863243</wgs84Lon>
			</item>
			<item>
				<dutyName>고른e치과의원</dutyName>
				<dutyTel1>02-388-5522</dutyTel1>
				<dutyTime1c>1900</dutyTime1c>
				<dutyTime1s>1000</dutyTime1s>
				<wgs84Lat>37.6118166666667</wgs84Lat>
				<wgs84Lon>126.929058333333</wgs84Lon>
			</item>
			<item>
				<dutyName>고운치과의원</dutyName>
				<dutyTel1>02-356-8911</dutyTel1>
				<dutyTime1c>1830</dutyTime1c>
				<dutyTime1s>930</dutyTime1s>
				<wgs84Lat>37.6231515083691</wgs84Lat>
				<wgs84Lon>126.919510520456</wgs84Lon>
			</item>
			<item>
				<dutyName>골드플러스치과의원</dutyName>
				<dutyTel1>02-306-2804</dutyTel1>
				<dutyTime1c>1830</dutyTime1c>
				<dutyTime1s>1000</dutyTime1s>
				<wgs84Lat>37.5987647919</wgs84Lat>
				<wgs84Lon>126.9153018118</wgs84Lon>
			</item>
			<item>
				<dutyName>공대부한의원</dutyName>
				<dutyTel1>02-302-2225</dutyTel1>
				<dutyTime1c>1900</dutyTime1c>
				<dutyTime1s>900</dutyTime1s>
				<wgs84Lat>37.5874459707663</wgs84Lat>
				<wgs84Lon>126.91704466734</wgs84Lon>
			</item>
			<item>
				<dutyName>광재의원</dutyName>
				<dutyTel1>02-309-2184</dutyTel1>
				<dutyTime1c>1830</dutyTime1c>
				<dutyTime1s>900</dutyTime1s>
				<wgs84Lat>37.5925891289138</wgs84Lat>
				<wgs84Lon>126.917986041492</wgs84Lon>
			</item>
			<item>
				<dutyName>구민내과의원</dutyName>
				<dutyTel1>02-388-0270</dutyTel1>
				<dutyTime1c>1830</dutyTime1c>
				<dutyTime1s>900</dutyTime1s>
				<wgs84Lat>37.6141687458168</wgs84Lat>
				<wgs84Lon>126.91126581952</wgs84Lon>
			</item>
			<item>
				<dutyName>구산보건지소</dutyName>
				<dutyTel1>02-351-8702</dutyTel1>
				<dutyTime1c>1800</dutyTime1c>
				<dutyTime1s>900</dutyTime1s>
				<wgs84Lat>37.609737015371</wgs84Lat>
				<wgs84Lon>126.912784158139</wgs84Lon>
			</item>
			<item>
				<dutyName>구산한의원</dutyName>
				<dutyTel1>02-383-0804</dutyTel1>
				<dutyTime1c>1900</dutyTime1c>
				<dutyTime1s>900</dutyTime1s>
				<wgs84Lat>37.613516179358</wgs84Lat>
				<wgs84Lon>126.91174691212</wgs84Lon>
			</item>
			<item>
				<dutyName>구세산부인과의원</dutyName>
				<dutyTel1>02-355-7253</dutyTel1>
				<dutyTime1c>1830</dutyTime1c>
				<dutyTime1s>900</dutyTime1s>
				<wgs84Lat>37.6072451717113</wgs84Lat>
				<wgs84Lon>126.932474775599</wgs84Lon>
			</item>
			<item>
				<dutyName>구자성정형외과의원</dutyName>
				<dutyTel1>02-307-9991</dutyTel1>
				<dutyTime1c>1830</dutyTime1c>
				<dutyTime1s>900</dutyTime1s>
				<wgs84Lat>37.5880651580855</wgs84Lat>
				<wgs84Lon>126.916546387359</wgs84Lon>
			</item>
			<item>
				<dutyName>구파발연세내과의원</dutyName>
				<dutyTel1>02-387-7700</dutyTel1>
				<dutyTime1c>1800</dutyTime1c>
				<dutyTime1s>900</dutyTime1s>
				<wgs84Lat>37.6356352390345</wgs84Lat>
				<wgs84Lon>126.919179579913</wgs84Lon>
			</item>
			<item>
				<dutyName>구파발이한의원</dutyName>
				<dutyTel1>02-383-3877</dutyTel1>
				<dutyTime1c>1900</dutyTime1c>
				<dutyTime1s>930</dutyTime1s>
				<wgs84Lat>37.6356352390345</wgs84Lat>
				<wgs84Lon>126.919179579913</wgs84Lon>
			</item>
			<item>
				<dutyName>구파발정형외과의원</dutyName>
				<dutyTel1>02-334-8275</dutyTel1>
				<dutyTime1c>1900</dutyTime1c>
				<dutyTime1s>900</dutyTime1s>
				<wgs84Lat>37.6386523687318</wgs84Lat>
				<wgs84Lon>126.919081540105</wgs84Lon>
			</item>
			<item>
				<dutyName>굿모닝치과의원</dutyName>
				<dutyTel1>02-387-0442</dutyTel1>
				<dutyTime1c>1900</dutyTime1c>
				<dutyTime1s>930</dutyTime1s>
				<wgs84Lat>37.6197643466285</wgs84Lat>
				<wgs84Lon>126.920266352565</wgs84Lon>
			</item>
			<item>
				<dutyName>굿모닝한의원</dutyName>
				<dutyTel1>02-356-8275</dutyTel1>
				<dutyTime1c>1900</dutyTime1c>
				<dutyTime1s>930</dutyTime1s>
				<wgs84Lat>37.6114162444539</wgs84Lat>
				<wgs84Lon>126.928552274386</wgs84Lon>
			</item>
			<item>
				<dutyName>권소아청소년과의원</dutyName>
				<dutyTel1>02-382-0119</dutyTel1>
				<dutyTime1c>1900</dutyTime1c>
				<dutyTime1s>900</dutyTime1s>
				<wgs84Lat>37.5987005253</wgs84Lat>
				<wgs84Lon>126.9213850736</wgs84Lon>
			</item>
			<item>
				<dutyName>그린미소마취통증의학과의원</dutyName>
				<dutyTel1>02-358-7775</dutyTel1>
				<dutyTime1c>1900</dutyTime1c>
				<dutyTime1s>900</dutyTime1s>
				<wgs84Lat>37.6170563516039</wgs84Lat>
				<wgs84Lon>126.92270229812</wgs84Lon>
			</item>
			<item>
				<dutyName>그린치과의원</dutyName>
				<dutyTel1>02-382-0228</dutyTel1>
				<dutyTime1c>1800</dutyTime1c>
				<dutyTime1s>1000</dutyTime1s>
				<wgs84Lat>37.605425</wgs84Lat>
				<wgs84Lon>126.910225</wgs84Lon>
			</item>
			<item>
				<dutyName>금강한의원</dutyName>
				<dutyTel1>02-357-3252</dutyTel1>
				<dutyTime1c>2030</dutyTime1c>
				<dutyTime1s>900</dutyTime1s>
				<wgs84Lat>37.6138557843</wgs84Lat>
				<wgs84Lon>126.9120408812</wgs84Lon>
			</item>
			<item>
				<dutyName>금두꺼비한의원</dutyName>
				<dutyTel1>02-932-9902</dutyTel1>
				<dutyTime1c>1900</dutyTime1c>
				<dutyTime1s>1000</dutyTime1s>
				<wgs84Lat>37.6100115358</wgs84Lat>
				<wgs84Lon>126.9299398504</wgs84Lon>
			</item>
			<item>
				<dutyName>기독한의원</dutyName>
				<dutyTel1>02-383-7588</dutyTel1>
				<dutyTime1c>1830</dutyTime1c>
				<dutyTime1s>930</dutyTime1s>
				<wgs84Lat>37.5981084389868</wgs84Lat>
				<wgs84Lon>126.90985354763</wgs84Lon>
			</item>
			<item>
				<dutyName>기분좋은연세365의원</dutyName>
				<dutyTel1>02-372-0365</dutyTel1>
				<dutyTime1c>2200</dutyTime1c>
				<dutyTime1s>800</dutyTime1s>
				<wgs84Lat>37.5919764130861</wgs84Lat>
				<wgs84Lon>126.917406499674</wgs84Lon>
			</item>
			<item>
				<dutyName>기쁨이샘솟는치과의원</dutyName>
				<dutyTel1>02-737-7522</dutyTel1>
				<dutyTime1c>1830</dutyTime1c>
				<dutyTime1s>930</dutyTime1s>
				<wgs84Lat>37.6430146123461</wgs84Lat>
				<wgs84Lon>126.922353043502</wgs84Lon>
			</item>
			<item>
				<dutyName>김가정의학과의원</dutyName>
				<dutyTel1>02-373-6985</dutyTel1>
				<dutyTime1c>1830</dutyTime1c>
				<dutyTime1s>900</dutyTime1s>
				<wgs84Lat>37.5967672727</wgs84Lat>
				<wgs84Lon>126.9092119859</wgs84Lon>
			</item>
			<item>
				<dutyName>김광회내과의원</dutyName>
				<dutyTel1>02-355-7202</dutyTel1>
				<dutyTime1c>1800</dutyTime1c>
				<dutyTime1s>900</dutyTime1s>
				<wgs84Lat>37.6202434512701</wgs84Lat>
				<wgs84Lon>126.924570264209</wgs84Lon>
			</item>
			<item>
				<dutyName>김근만치과의원</dutyName>
				<dutyTel1>02-359-2885</dutyTel1>
				<dutyTime1c>1830</dutyTime1c>
				<dutyTime1s>1000</dutyTime1s>
				<wgs84Lat>37.6118843478679</wgs84Lat>
				<wgs84Lon>126.91766093444</wgs84Lon>
			</item>
			<item>
				<dutyName>김기창안과의원</dutyName>
				<dutyTel1>02-382-1593</dutyTel1>
				<dutyTime1c>1800</dutyTime1c>
				<dutyTime1s>930</dutyTime1s>
				<wgs84Lat>37.6105517321125</wgs84Lat>
				<wgs84Lon>126.929277944838</wgs84Lon>
			</item>
			<item>
				<dutyName>김두천비뇨기과의원</dutyName>
				<dutyTel1>02-305-8312</dutyTel1>
				<dutyTime1c>1830</dutyTime1c>
				<dutyTime1s>930</dutyTime1s>
				<wgs84Lat>37.5826748390017</wgs84Lat>
				<wgs84Lon>126.895068250537</wgs84Lon>
			</item>
			<item>
				<dutyName>김미경소아과의원</dutyName>
				<dutyTel1>02-355-8234</dutyTel1>
				<dutyTime1c>1830</dutyTime1c>
				<dutyTime1s>900</dutyTime1s>
				<wgs84Lat>37.6086436330171</wgs84Lat>
				<wgs84Lon>126.926643180234</wgs84Lon>
			</item>
			<item>
				<dutyName>김선태치과의원</dutyName>
				<dutyTel1>02-303-0052</dutyTel1>
				<dutyTime1c>1800</dutyTime1c>
				<dutyTime1s>900</dutyTime1s>
				<wgs84Lat>37.5905638888889</wgs84Lat>
				<wgs84Lon>126.917030555556</wgs84Lon>
			</item>
			<item>
				<dutyName>김성우내과의원</dutyName>
				<dutyTel1>02-355-2021</dutyTel1>
				<dutyTime1c>1830</dutyTime1c>
				<dutyTime1s>830</dutyTime1s>
				<wgs84Lat>37.6183481645468</wgs84Lat>
				<wgs84Lon>126.91970162892</wgs84Lon>
			</item>
			<item>
				<dutyName>김성훈가정의학과의원</dutyName>
				<dutyTel1>02-351-3253</dutyTel1>
				<dutyTime1c>1830</dutyTime1c>
				<dutyTime1s>900</dutyTime1s>
				<wgs84Lat>37.6246058375576</wgs84Lat>
				<wgs84Lon>126.916264816528</wgs84Lon>
			</item>
			<item>
				<dutyName>김세영치과의원</dutyName>
				<dutyTel1>02-304-1900</dutyTel1>
				<dutyTime1c>1800</dutyTime1c>
				<dutyTime1s>930</dutyTime1s>
				<wgs84Lat>37.5818977599966</wgs84Lat>
				<wgs84Lon>126.896627136011</wgs84Lon>
			</item>
			<item>
				<dutyName>김앤박마취통증의학과의원</dutyName>
				<dutyTel1>02-382-0782</dutyTel1>
				<dutyTime1c>1900</dutyTime1c>
				<dutyTime1s>900</dutyTime1s>
				<wgs84Lat>37.5985449389096</wgs84Lat>
				<wgs84Lon>126.910405625222</wgs84Lon>
			</item>
			<item>
				<dutyName>김앤유이비인후과가정의학과연합의원</dutyName>
				<dutyTel1>02-383-5511</dutyTel1>
				<dutyTime1c>1900</dutyTime1c>
				<dutyTime1s>900</dutyTime1s>
				<wgs84Lat>37.6433930648131</wgs84Lat>
				<wgs84Lon>126.922416093076</wgs84Lon>
			</item>
			<item>
				<dutyName>김연기소아청소년과의원</dutyName>
				<dutyTel1>02-374-2007</dutyTel1>
				<dutyTime1c>1700</dutyTime1c>
				<dutyTime1s>1000</dutyTime1s>
				<wgs84Lat>37.5830849675</wgs84Lat>
				<wgs84Lon>126.8942525052</wgs84Lon>
			</item>
			<item>
				<dutyName>김영길한의원</dutyName>
				<dutyTel1>02-355-4517</dutyTel1>
				<dutyTime1c>1900</dutyTime1c>
				<dutyTime1s>930</dutyTime1s>
				<wgs84Lat>37.5825543440517</wgs84Lat>
				<wgs84Lon>126.894449274597</wgs84Lon>
			</item>
			<item>
				<dutyName>김영환내과의원</dutyName>
				<dutyTel1>02-358-4794</dutyTel1>
				<dutyTime1c>1900</dutyTime1c>
				<dutyTime1s>900</dutyTime1s>
				<wgs84Lat>37.6014134822742</wgs84Lat>
				<wgs84Lon>126.932072541335</wgs84Lon>
			</item>
			<item>
				<dutyName>김옥진치과의원</dutyName>
				<dutyTel1>02-354-8502</dutyTel1>
				<dutyTime1c>1800</dutyTime1c>
				<dutyTime1s>1100</dutyTime1s>
				<wgs84Lat>37.6085525403797</wgs84Lat>
				<wgs84Lon>126.920269490002</wgs84Lon>
			</item>
			<item>
				<dutyName>김우요내과의원</dutyName>
				<dutyTel1>02-302-6835</dutyTel1>
				<dutyTime1c>1800</dutyTime1c>
				<dutyTime1s>900</dutyTime1s>
				<wgs84Lat>37.5889633360319</wgs84Lat>
				<wgs84Lon>126.917183401869</wgs84Lon>
			</item>
			<item>
				<dutyName>김원중내과의원</dutyName>
				<dutyTel1>02-387-0524</dutyTel1>
				<dutyTime1c>1830</dutyTime1c>
				<dutyTime1s>900</dutyTime1s>
				<wgs84Lat>37.5940024680946</wgs84Lat>
				<wgs84Lon>126.918310134769</wgs84Lon>
			</item>
			<item>
				<dutyName>김일진치과의원</dutyName>
				<dutyTel1>02-356-8227</dutyTel1>
				<dutyTime1c>1830</dutyTime1c>
				<dutyTime1s>930</dutyTime1s>
				<wgs84Lat>37.6011982284675</wgs84Lat>
				<wgs84Lon>126.933762307325</wgs84Lon>
			</item>
			<item>
				<dutyName>김장식치과의원</dutyName>
				<dutyTel1>02-353-2082</dutyTel1>
				<dutyTime1c>1900</dutyTime1c>
				<dutyTime1s>930</dutyTime1s>
				<wgs84Lat>37.6106491970791</wgs84Lat>
				<wgs84Lon>126.930134072447</wgs84Lon>
			</item>
			<item>
				<dutyName>김재만내과의원</dutyName>
				<dutyTel1>02-303-6003</dutyTel1>
				<dutyTime1c>1800</dutyTime1c>
				<dutyTime1s>900</dutyTime1s>
				<wgs84Lat>37.5880543071404</wgs84Lat>
				<wgs84Lon>126.916492053251</wgs84Lon>
			</item>
			<item>
				<dutyName>김정균치과의원</dutyName>
				<dutyTel1>02-385-2045</dutyTel1>
				<dutyTime1c>1700</dutyTime1c>
				<dutyTime1s>900</dutyTime1s>
				<wgs84Lat>37.6007744884295</wgs84Lat>
				<wgs84Lon>126.924495045004</wgs84Lon>
			</item>
			<item>
				<dutyName>김정일안과의원</dutyName>
				<dutyTel1>02-383-8686</dutyTel1>
				<dutyTime1c>1830</dutyTime1c>
				<dutyTime1s>930</dutyTime1s>
				<wgs84Lat>37.611182200293</wgs84Lat>
				<wgs84Lon>126.917806604219</wgs84Lon>
			</item>
			<item>
				<dutyName>김종민치과의원</dutyName>
				<dutyTel1>02-358-5858</dutyTel1>
				<dutyTime1c>1900</dutyTime1c>
				<dutyTime1s>930</dutyTime1s>
				<wgs84Lat>37.6168506073528</wgs84Lat>
				<wgs84Lon>126.922974301105</wgs84Lon>
			</item>
			<item>
				<dutyName>김지천안과의원</dutyName>
				<dutyTel1>02-309-9191</dutyTel1>
				<dutyTime1c>1800</dutyTime1c>
				<dutyTime1s>930</dutyTime1s>
				<wgs84Lat>37.5901272261038</wgs84Lat>
				<wgs84Lon>126.916910370285</wgs84Lon>
			</item>
			<item>
				<dutyName>김진치과의원</dutyName>
				<dutyTel1>02-352-4374</dutyTel1>
				<dutyTime1c>1730</dutyTime1c>
				<dutyTime1s>1000</dutyTime1s>
				<wgs84Lat>37.6109</wgs84Lat>
				<wgs84Lon>126.929805555556</wgs84Lon>
			</item>
			<item>
				<dutyName>김치과의원</dutyName>
				<dutyTel1>02-355-8639</dutyTel1>
				<dutyTime1c>1830</dutyTime1c>
				<dutyTime1s>1000</dutyTime1s>
				<wgs84Lat>37.6176968670098</wgs84Lat>
				<wgs84Lon>126.921985725389</wgs84Lon>
			</item>
			<item>
				<dutyName>김학수정형외과의원</dutyName>
				<dutyTel1>02-352-3988</dutyTel1>
				<dutyTime1c>1900</dutyTime1c>
				<dutyTime1s>900</dutyTime1s>
				<wgs84Lat>37.6005631938578</wgs84Lat>
				<wgs84Lon>126.91045303135</wgs84Lon>
			</item>
			<item>
				<dutyName>김한의원</dutyName>
				<dutyTel1>02-354-5955</dutyTel1>
				<dutyTime1c>1800</dutyTime1c>
				<dutyTime1s>900</dutyTime1s>
				<wgs84Lat>37.6053094987188</wgs84Lat>
				<wgs84Lon>126.910306913494</wgs84Lon>
			</item>
			<item>
				<dutyName>김혁이비인후과의원</dutyName>
				<dutyTel1>02-307-2489</dutyTel1>
				<dutyTime1c>1800</dutyTime1c>
				<dutyTime1s>930</dutyTime1s>
				<wgs84Lat>37.5887290464232</wgs84Lat>
				<wgs84Lon>126.917138371978</wgs84Lon>
			</item>
			<item>
				<dutyName>김혜옥내과의원</dutyName>
				<dutyTel1>02-303-0022</dutyTel1>
				<dutyTime1c>1830</dutyTime1c>
				<dutyTime1s>900</dutyTime1s>
				<wgs84Lat>37.5909635132353</wgs84Lat>
				<wgs84Lon>126.917147217454</wgs84Lon>
			</item>
			<item>
				<dutyName>꿈꾸는한의원</dutyName>
				<dutyTel1>02-352-7541</dutyTel1>
				<dutyTime1c>1900</dutyTime1c>
				<dutyTime1s>1000</dutyTime1s>
				<wgs84Lat>37.640436646122</wgs84Lat>
				<wgs84Lon>126.920624536647</wgs84Lon>
			</item>
			<item>
				<dutyName>꿈나무가정의원</dutyName>
				<dutyTel1>02-358-5089</dutyTel1>
				<dutyTime1c>1830</dutyTime1c>
				<dutyTime1s>900</dutyTime1s>
				<wgs84Lat>37.5991071875484</wgs84Lat>
				<wgs84Lon>126.910445717218</wgs84Lon>
			</item>
			<item>
				<dutyName>나눔한의원</dutyName>
				<dutyTel1>02-355-1075</dutyTel1>
				<dutyTime1c>1830</dutyTime1c>
				<dutyTime1s>900</dutyTime1s>
				<wgs84Lat>37.62064752591</wgs84Lat>
				<wgs84Lon>126.925249488537</wgs84Lon>
			</item>
			<item>
				<dutyName>나비드치과의원</dutyName>
				<dutyTel1>02-309-3196</dutyTel1>
				<dutyTime1c>1830</dutyTime1c>
				<dutyTime1s>930</dutyTime1s>
				<wgs84Lat>37.5878639799996</wgs84Lat>
				<wgs84Lon>126.916971741103</wgs84Lon>
			</item>
			<item>
				<dutyName>나이비인후과의원</dutyName>
				<dutyTel1>02-3157-3008</dutyTel1>
				<dutyTime1c>1900</dutyTime1c>
				<dutyTime1s>900</dutyTime1s>
				<wgs84Lat>37.611542908952</wgs84Lat>
				<wgs84Lon>126.92942650719</wgs84Lon>
			</item>
			<item>
				<dutyName>나인피부과의원</dutyName>
				<dutyTel1>02-353-9990</dutyTel1>
				<dutyTime1c>1900</dutyTime1c>
				<dutyTime1s>1000</dutyTime1s>
				<wgs84Lat>37.619091860653</wgs84Lat>
				<wgs84Lon>126.920263779669</wgs84Lon>
			</item>
			<item>
				<dutyName>노내과의원</dutyName>
				<dutyTel1>02-389-5050</dutyTel1>
				<dutyTime1c>1800</dutyTime1c>
				<dutyTime1s>930</dutyTime1s>
				<wgs84Lat>37.6181043905951</wgs84Lat>
				<wgs84Lon>126.921627451067</wgs84Lon>
			</item>
			<item>
				<dutyName>노블요양병원</dutyName>
				<dutyTel1>02-382-0088</dutyTel1>
				<dutyTime1c>1800</dutyTime1c>
				<dutyTime1s>900</dutyTime1s>
				<wgs84Lat>37.5984661379561</wgs84Lat>
				<wgs84Lon>126.921190550058</wgs84Lon>
			</item>
			<item>
				<dutyName>녹십자의원</dutyName>
				<dutyTel1>02-355-1487</dutyTel1>
				<dutyTime1c>1800</dutyTime1c>
				<dutyTime1s>900</dutyTime1s>
				<wgs84Lat>37.6099139251191</wgs84Lat>
				<wgs84Lon>126.930016990086</wgs84Lon>
			</item>
			<item>
				<dutyName>뉴타운경희한의원</dutyName>
				<dutyTel1>02-356-8020</dutyTel1>
				<dutyTime1c>1900</dutyTime1c>
				<dutyTime1s>930</dutyTime1s>
				<wgs84Lat>37.6433424519119</wgs84Lat>
				<wgs84Lon>126.92218047106</wgs84Lon>
			</item>
			<item>
				<dutyName>뉴타운드림유비뇨기과의원</dutyName>
				<dutyTel1>02-6952-0188</dutyTel1>
				<dutyTime1c>2100</dutyTime1c>
				<dutyTime1s>900</dutyTime1s>
				<wgs84Lat>37.6342588011</wgs84Lat>
				<wgs84Lon>126.9185515628</wgs84Lon>
			</item>
			<item>
				<dutyName>늘편한내과의원</dutyName>
				<dutyTel1>02-383-9138</dutyTel1>
				<dutyTime1c>1830</dutyTime1c>
				<dutyTime1s>900</dutyTime1s>
				<wgs84Lat>37.5986332531136</wgs84Lat>
				<wgs84Lon>126.910428167065</wgs84Lon>
			</item>
			<item>
				<dutyName>다솜마취통증의학과의원</dutyName>
				<dutyTel1>02-358-7577</dutyTel1>
				<dutyTime1c>1830</dutyTime1c>
				<dutyTime1s>900</dutyTime1s>
				<wgs84Lat>37.6108395962867</wgs84Lat>
				<wgs84Lon>126.917476249433</wgs84Lon>
			</item>
			<item>
				<dutyName>다온여성의원</dutyName>
				<dutyTel1>02-6351-0070</dutyTel1>
				<dutyTime1c>1900</dutyTime1c>
				<dutyTime1s>930</dutyTime1s>
				<wgs84Lat>37.6108153089</wgs84Lat>
				<wgs84Lon>126.9300931262</wgs84Lon>
			</item>
			<item>
				<dutyName>다인치과의원</dutyName>
				<dutyTel1>02-306-9285</dutyTel1>
				<dutyTime1c>1900</dutyTime1c>
				<dutyTime1s>1000</dutyTime1s>
				<wgs84Lat>37.5919407866475</wgs84Lat>
				<wgs84Lon>126.913530126065</wgs84Lon>
			</item>
			<item>
				<dutyName>닥터나인의원</dutyName>
				<dutyTel1>02-358-9909</dutyTel1>
				<dutyTime1c>1900</dutyTime1c>
				<dutyTime1s>930</dutyTime1s>
				<wgs84Lat>37.6005530512504</wgs84Lat>
				<wgs84Lon>126.921519014315</wgs84Lon>
			</item>
			<item>
				<dutyName>닥터박고은치과의원</dutyName>
				<dutyTel1>02-389-2804</dutyTel1>
				<dutyTime1c>1830</dutyTime1c>
				<dutyTime1s>930</dutyTime1s>
				<wgs84Lat>37.6055870170657</wgs84Lat>
				<wgs84Lon>126.910324700154</wgs84Lon>
			</item>
			<item>
				<dutyName>닥터정이비인후과의원</dutyName>
				<dutyTel1>02-358-5155</dutyTel1>
				<dutyTime1c>1900</dutyTime1c>
				<dutyTime1s>900</dutyTime1s>
				<wgs84Lat>37.6343087322795</wgs84Lat>
				<wgs84Lon>126.923144420353</wgs84Lon>
			</item>
			<item>
				<dutyName>단전한의원</dutyName>
				<dutyTel1>02-387-3367</dutyTel1>
				<dutyTime1c>1800</dutyTime1c>
				<dutyTime1s>1300</dutyTime1s>
				<wgs84Lat>37.6220743234</wgs84Lat>
				<wgs84Lon>126.9192218486</wgs84Lon>
			</item>
			<item>
				<dutyName>대림본한의원</dutyName>
				<dutyTel1>02-309-0075</dutyTel1>
				<dutyTime1c>1900</dutyTime1c>
				<dutyTime1s>900</dutyTime1s>
				<wgs84Lat>37.5880449565409</wgs84Lat>
				<wgs84Lon>126.918090200729</wgs84Lon>
			</item>
			<item>
				<dutyName>대림한의원</dutyName>
				<dutyTel1>02-303-8689</dutyTel1>
				<dutyTime1c>1900</dutyTime1c>
				<dutyTime1s>900</dutyTime1s>
				<wgs84Lat>37.5855584163497</wgs84Lat>
				<wgs84Lon>126.918378236997</wgs84Lon>
			</item>
			<item>
				<dutyName>대조신한의원</dutyName>
				<dutyTel1>02-359-6250</dutyTel1>
				<dutyTime1c>1830</dutyTime1c>
				<dutyTime1s>930</dutyTime1s>
				<wgs84Lat>37.6154828300765</wgs84Lat>
				<wgs84Lon>126.919419284281</wgs84Lon>
			</item>
			<item>
				<dutyName>대조한의원</dutyName>
				<dutyTel1>02-355-8858</dutyTel1>
				<dutyTime1c>1900</dutyTime1c>
				<dutyTime1s>900</dutyTime1s>
				<wgs84Lat>37.6121571649262</wgs84Lat>
				<wgs84Lon>126.915390844834</wgs84Lon>
			</item>
			<item>
				<dutyName>대학한의원</dutyName>
				<dutyTel1>02-383-3035</dutyTel1>
				<dutyTime1c>1900</dutyTime1c>
				<dutyTime1s>930</dutyTime1s>
				<wgs84Lat>37.6215404000574</wgs84Lat>
				<wgs84Lon>126.919285745137</wgs84Lon>
			</item>
			<item>
				<dutyName>더바른마취통증의학과의원</dutyName>
				<dutyTel1>02-373-7583</dutyTel1>
				<dutyTime1c>1900</dutyTime1c>
				<dutyTime1s>900</dutyTime1s>
				<wgs84Lat>37.5871215946</wgs84Lat>
				<wgs84Lon>126.9170178542</wgs84Lon>
			</item>
			<item>
				<dutyName>더편한이비인후과의원</dutyName>
				<dutyTel1>02-384-2000</dutyTel1>
				<dutyTime1c>1900</dutyTime1c>
				<dutyTime1s>900</dutyTime1s>
				<wgs84Lat>37.6389153285</wgs84Lat>
				<wgs84Lon>126.9188954432</wgs84Lon>
			</item>
			<item>
				<dutyName>더힐즈의원</dutyName>
				<dutyTel1>02-385-0202</dutyTel1>
				<dutyTime1c>1830</dutyTime1c>
				<dutyTime1s>1000</dutyTime1s>
				<wgs84Lat>37.6348541597</wgs84Lat>
				<wgs84Lon>126.9195841511</wgs84Lon>
			</item>
			<item>
				<dutyName>동서의원</dutyName>
				<dutyTel1>02-385-7057</dutyTel1>
				<dutyTime1c>1800</dutyTime1c>
				<dutyTime1s>930</dutyTime1s>
				<wgs84Lat>37.6111174305575</wgs84Lat>
				<wgs84Lon>126.929073545403</wgs84Lon>
			</item>
			<item>
				<dutyName>동양당한의원</dutyName>
				<dutyTel1>02-376-1075</dutyTel1>
				<dutyTime1c>1900</dutyTime1c>
				<dutyTime1s>900</dutyTime1s>
				<wgs84Lat>37.5880622330303</wgs84Lat>
				<wgs84Lon>126.917025888493</wgs84Lon>
			</item>
			<item>
				<dutyName>동의보감한의원</dutyName>
				<dutyTel1>02-352-5292</dutyTel1>
				<dutyTime1c>1900</dutyTime1c>
				<dutyTime1s>900</dutyTime1s>
				<wgs84Lat>37.598164708245</wgs84Lat>
				<wgs84Lon>126.910389095449</wgs84Lon>
			</item>
			<item>
				<dutyName>동춘당한의원</dutyName>
				<dutyTel1>02-309-9647</dutyTel1>
				<dutyTime1c>1930</dutyTime1c>
				<dutyTime1s>1000</dutyTime1s>
				<wgs84Lat>37.5890829084014</wgs84Lat>
				<wgs84Lon>126.918102650197</wgs84Lon>
			</item>
			<item>
				<dutyName>두오안과의원</dutyName>
				<dutyTel1>02-382-0025</dutyTel1>
				<dutyTime1c>1900</dutyTime1c>
				<dutyTime1s>900</dutyTime1s>
				<wgs84Lat>37.6357434700181</wgs84Lat>
				<wgs84Lon>126.919342603957</wgs84Lon>
			</item>
			<item>
				<dutyName>드림성모안과의원</dutyName>
				<dutyTel1>02-383-8066</dutyTel1>
				<dutyTime1c>1900</dutyTime1c>
				<dutyTime1s>900</dutyTime1s>
				<wgs84Lat>37.6003015721267</wgs84Lat>
				<wgs84Lon>126.923277066696</wgs84Lon>
			</item>
			<item>
				<dutyName>드림유비뇨기과의원</dutyName>
				<dutyTel1>02-3151-0304</dutyTel1>
				<dutyTime1c>2100</dutyTime1c>
				<dutyTime1s>900</dutyTime1s>
				<wgs84Lat>37.5928493167318</wgs84Lat>
				<wgs84Lon>126.913415311814</wgs84Lon>
			</item>
			<item>
				<dutyName>라온정형외과신경외과의원</dutyName>
				<dutyTel1>02-372-1004</dutyTel1>
				<dutyTime1c>1900</dutyTime1c>
				<dutyTime1s>900</dutyTime1s>
				<wgs84Lat>37.6013673378</wgs84Lat>
				<wgs84Lon>126.9212056087</wgs84Lon>
			</item>
			<item>
				<dutyName>라인치과의원</dutyName>
				<dutyTel1>02-382-2288</dutyTel1>
				<dutyTime1c>1830</dutyTime1c>
				<dutyTime1s>930</dutyTime1s>
				<wgs84Lat>37.6108041356809</wgs84Lat>
				<wgs84Lon>126.930084091615</wgs84Lon>
			</item>
			<item>
				<dutyName>라임비뇨기과의원</dutyName>
				<dutyTel1>02-356-1476</dutyTel1>
				<dutyTime1c>1830</dutyTime1c>
				<dutyTime1s>900</dutyTime1s>
				<wgs84Lat>37.6004446486</wgs84Lat>
				<wgs84Lon>126.9210933403</wgs84Lon>
			</item>
			<item>
				<dutyName>로쉬여성의원</dutyName>
				<dutyTel1>02-303-9313</dutyTel1>
				<dutyTime1c>1830</dutyTime1c>
				<dutyTime1s>930</dutyTime1s>
				<wgs84Lat>37.5906749427215</wgs84Lat>
				<wgs84Lon>126.916787476603</wgs84Lon>
			</item>
			<item>
				<dutyName>로제성형외과의원</dutyName>
				<dutyTel1>02-359-1255</dutyTel1>
				<dutyTime1c>1900</dutyTime1c>
				<dutyTime1s>1000</dutyTime1s>
				<wgs84Lat>37.6196172209848</wgs84Lat>
				<wgs84Lon>126.920388948894</wgs84Lon>
			</item>
			<item>
				<dutyName>로즈마리힐치과의원</dutyName>
				<dutyTel1>02-308-2882</dutyTel1>
				<dutyTime1c>1830</dutyTime1c>
				<dutyTime1s>930</dutyTime1s>
				<wgs84Lat>37.5920997540537</wgs84Lat>
				<wgs84Lon>126.92439981604</wgs84Lon>
			</item>
			<item>
				<dutyName>로하스은평효요양병원</dutyName>
				<dutyTel1>02-385-2700</dutyTel1>
				<dutyTime1c>1800</dutyTime1c>
				<dutyTime1s>900</dutyTime1s>
				<wgs84Lat>37.6173132380738</wgs84Lat>
				<wgs84Lon>126.918832830298</wgs84Lon>
			</item>
			<item>
				<dutyName>류비뇨기과의원</dutyName>
				<dutyTel1>02-354-8834</dutyTel1>
				<dutyTime1c>1830</dutyTime1c>
				<dutyTime1s>900</dutyTime1s>
				<wgs84Lat>37.6110404053909</wgs84Lat>
				<wgs84Lon>126.916787541107</wgs84Lon>
			</item>
			<item>
				<dutyName>류영묵의원</dutyName>
				<dutyTel1>02-359-8996</dutyTel1>
				<dutyTime1c>1800</dutyTime1c>
				<dutyTime1s>930</dutyTime1s>
				<wgs84Lat>37.608631296582</wgs84Lat>
				<wgs84Lon>126.930072540361</wgs84Lon>
			</item>
			<item>
				<dutyName>류종상내과의원</dutyName>
				<dutyTel1>02-388-1388</dutyTel1>
				<dutyTime1c>1800</dutyTime1c>
				<dutyTime1s>930</dutyTime1s>
				<wgs84Lat>37.6114918011283</wgs84Lat>
				<wgs84Lon>126.928343806997</wgs84Lon>
			</item>
			<item>
				<dutyName>리드힐병원</dutyName>
				<dutyTel1>02-382-7700</dutyTel1>
				<dutyTime1c>1800</dutyTime1c>
				<dutyTime1s>900</dutyTime1s>
				<wgs84Lat>37.5998751899136</wgs84Lat>
				<wgs84Lon>126.91645142594</wgs84Lon>
			</item>
			<item>
				<dutyName>마루의료생협마루의원</dutyName>
				<dutyTel1>02-352-8223</dutyTel1>
				<dutyTime1c>2030</dutyTime1c>
				<dutyTime1s>900</dutyTime1s>
				<wgs84Lat>37.6011350187941</wgs84Lat>
				<wgs84Lon>126.929998001836</wgs84Lon>
			</item>
			<item>
				<dutyName>마이디피부과의원</dutyName>
				<dutyTel1>02-355-5533</dutyTel1>
				<dutyTime1c>1900</dutyTime1c>
				<dutyTime1s>1000</dutyTime1s>
				<wgs84Lat>37.6117618144937</wgs84Lat>
				<wgs84Lon>126.917661072021</wgs84Lon>
			</item>
			<item>
				<dutyName>맑은숲한의원</dutyName>
				<dutyTel1>02-373-1075</dutyTel1>
				<dutyTime1c>2100</dutyTime1c>
				<dutyTime1s>900</dutyTime1s>
				<wgs84Lat>37.6219817399215</wgs84Lat>
				<wgs84Lon>126.926444306561</wgs84Lon>
			</item>
			<item>
				<dutyName>맑은청담한의원</dutyName>
				<dutyTel1>02-306-9123</dutyTel1>
				<dutyTime1c>1830</dutyTime1c>
				<dutyTime1s>900</dutyTime1s>
				<wgs84Lat>37.5879145314909</wgs84Lat>
				<wgs84Lon>126.917579139077</wgs84Lon>
			</item>
			<item>
				<dutyName>맘스미산부인과의원</dutyName>
				<dutyTel1>02-388-5855</dutyTel1>
				<dutyTime1c>2000</dutyTime1c>
				<dutyTime1s>900</dutyTime1s>
				<wgs84Lat>37.6109950151802</wgs84Lat>
				<wgs84Lon>126.91812393108</wgs84Lon>
			</item>
			<item>
				<dutyName>명성한의원</dutyName>
				<dutyTel1>02-382-2277</dutyTel1>
				<dutyTime1c>1900</dutyTime1c>
				<dutyTime1s>930</dutyTime1s>
				<wgs84Lat>37.6190492759911</wgs84Lat>
				<wgs84Lon>126.922609619188</wgs84Lon>
			</item>
			<item>
				<dutyName>명인의원</dutyName>
				<dutyTel1>02-384-0166</dutyTel1>
				<dutyTime1c>1900</dutyTime1c>
				<dutyTime1s>900</dutyTime1s>
				<wgs84Lat>37.6160211811593</wgs84Lat>
				<wgs84Lon>126.933137369575</wgs84Lon>
			</item>
			<item>
				<dutyName>명인한의원</dutyName>
				<dutyTel1>02-373-0181</dutyTel1>
				<dutyTime1c>1900</dutyTime1c>
				<dutyTime1s>900</dutyTime1s>
				<wgs84Lat>37.5847988785356</wgs84Lat>
				<wgs84Lon>126.909711094923</wgs84Lon>
			</item>
			<item>
				<dutyName>모아가정의학과의원</dutyName>
				<dutyTel1>02-357-1475</dutyTel1>
				<dutyTime1c>1800</dutyTime1c>
				<dutyTime1s>900</dutyTime1s>
				<wgs84Lat>37.6112570246786</wgs84Lat>
				<wgs84Lon>126.921847561887</wgs84Lon>
			</item>
			<item>
				<dutyName>무림한의원</dutyName>
				<dutyTel1>02-302-1075</dutyTel1>
				<dutyTime1c>1900</dutyTime1c>
				<dutyTime1s>930</dutyTime1s>
				<wgs84Lat>37.5885770679693</wgs84Lat>
				<wgs84Lon>126.912543932058</wgs84Lon>
			</item>
			<item>
				<dutyName>문병철정형외과의원</dutyName>
				<dutyTel1>02-352-5119</dutyTel1>
				<dutyTime1c>1800</dutyTime1c>
				<dutyTime1s>900</dutyTime1s>
				<wgs84Lat>37.6117654151974</wgs84Lat>
				<wgs84Lon>126.91765653767</wgs84Lon>
			</item>
			<item>
				<dutyName>문성준치과의원</dutyName>
				<dutyTel1>02-387-2080</dutyTel1>
				<dutyTime1c>1830</dutyTime1c>
				<dutyTime1s>900</dutyTime1s>
				<wgs84Lat>37.642837673232</wgs84Lat>
				<wgs84Lon>126.921836561149</wgs84Lon>
			</item>
			<item>
				<dutyName>문치과병원</dutyName>
				<dutyTel1>02-355-7355</dutyTel1>
				<dutyTime1c>1830</dutyTime1c>
				<dutyTime1s>930</dutyTime1s>
				<wgs84Lat>37.616134409609</wgs84Lat>
				<wgs84Lon>126.92373170095</wgs84Lon>
			</item>
			<item>
				<dutyName>문평한의원</dutyName>
				<dutyTel1>02-388-6060</dutyTel1>
				<dutyTime1c>1900</dutyTime1c>
				<dutyTime1s>930</dutyTime1s>
				<wgs84Lat>37.5990888093</wgs84Lat>
				<wgs84Lon>126.9148303686</wgs84Lon>
			</item>
			<item>
				<dutyName>문화신경정신과의원</dutyName>
				<dutyTel1>02-382-0885</dutyTel1>
				<dutyTime1c>1800</dutyTime1c>
				<dutyTime1s>1400</dutyTime1s>
				<wgs84Lat>37.6012596534496</wgs84Lat>
				<wgs84Lon>126.927511096182</wgs84Lon>
			</item>
			<item>
				<dutyName>문화한의원</dutyName>
				<dutyTel1>02-355-8870</dutyTel1>
				<dutyTime1c>1900</dutyTime1c>
				<dutyTime1s>900</dutyTime1s>
				<wgs84Lat>37.6173127793821</wgs84Lat>
				<wgs84Lon>126.918968725373</wgs84Lon>
			</item>
			<item>
				<dutyName>물댄동산치과의원</dutyName>
				<dutyTel1>02-355-7528</dutyTel1>
				<dutyTime1c>1830</dutyTime1c>
				<dutyTime1s>1000</dutyTime1s>
				<wgs84Lat>37.6029587691711</wgs84Lat>
				<wgs84Lon>126.918961673914</wgs84Lon>
			</item>
			<item>
				<dutyName>미소가득치과의원</dutyName>
				<dutyTel1>02-384-1275</dutyTel1>
				<dutyTime1c>1800</dutyTime1c>
				<dutyTime1s>930</dutyTime1s>
				<wgs84Lat>37.6063020315</wgs84Lat>
				<wgs84Lon>126.9225231676</wgs84Lon>
			</item>
			<item>
				<dutyName>미소가인피부과의원</dutyName>
				<dutyTel1>02-387-7579</dutyTel1>
				<dutyTime1c>2000</dutyTime1c>
				<dutyTime1s>1000</dutyTime1s>
				<wgs84Lat>37.6392351331</wgs84Lat>
				<wgs84Lon>126.9175309599</wgs84Lon>
			</item>
			<item>
				<dutyName>미소샘치과의원</dutyName>
				<dutyTel1>02-389-2872</dutyTel1>
				<dutyTime1c>1900</dutyTime1c>
				<dutyTime1s>1000</dutyTime1s>
				<wgs84Lat>37.6386523687318</wgs84Lat>
				<wgs84Lon>126.919081540105</wgs84Lon>
			</item>
			<item>
				<dutyName>미소야치과의원</dutyName>
				<dutyTel1>02-353-2282</dutyTel1>
				<dutyTime1c>1900</dutyTime1c>
				<dutyTime1s>1000</dutyTime1s>
				<wgs84Lat>37.6186546898773</wgs84Lat>
				<wgs84Lon>126.919977655006</wgs84Lon>
			</item>
			<item>
				<dutyName>미소지앤의원</dutyName>
				<dutyTel1>02-376-7572</dutyTel1>
				<dutyTime1c>2000</dutyTime1c>
				<dutyTime1s>1000</dutyTime1s>
				<wgs84Lat>37.6109226775377</wgs84Lat>
				<wgs84Lon>126.928838134303</wgs84Lon>
			</item>
			<item>
				<dutyName>미소치과의원</dutyName>
				<dutyTel1>02-355-2972</dutyTel1>
				<dutyTime1c>1830</dutyTime1c>
				<dutyTime1s>930</dutyTime1s>
				<wgs84Lat>37.5982521547224</wgs84Lat>
				<wgs84Lon>126.909944399201</wgs84Lon>
			</item>
			<item>
				<dutyName>미즈의원</dutyName>
				<dutyTel1>02-358-3535</dutyTel1>
				<dutyTime1c>1800</dutyTime1c>
				<dutyTime1s>900</dutyTime1s>
				<wgs84Lat>37.6190492759911</wgs84Lat>
				<wgs84Lon>126.922609619188</wgs84Lon>
			</item>
			<item>
				<dutyName>미즈플러스치과의원</dutyName>
				<dutyTel1>02-354-2804</dutyTel1>
				<dutyTime1c>1830</dutyTime1c>
				<dutyTime1s>930</dutyTime1s>
				<wgs84Lat>37.6110111111111</wgs84Lat>
				<wgs84Lon>126.918002777778</wgs84Lon>
			</item>
			<item>
				<dutyName>민마취통증의학과의원</dutyName>
				<dutyTel1>02-357-9003</dutyTel1>
				<dutyTime1c>1830</dutyTime1c>
				<dutyTime1s>900</dutyTime1s>
				<wgs84Lat>37.6108326091439</wgs84Lat>
				<wgs84Lon>126.928892604353</wgs84Lon>
			</item>
			<item>
				<dutyName>민정형외과의원</dutyName>
				<dutyTel1>02-382-7975</dutyTel1>
				<dutyTime1c>1900</dutyTime1c>
				<dutyTime1s>900</dutyTime1s>
				<wgs84Lat>37.6181504078588</wgs84Lat>
				<wgs84Lon>126.920381451417</wgs84Lon>
			</item>
			<item>
				<dutyName>민트치과의원</dutyName>
				<dutyTel1>02-3157-2075</dutyTel1>
				<dutyTime1c>1830</dutyTime1c>
				<dutyTime1s>1000</dutyTime1s>
				<wgs84Lat>37.6002305555556</wgs84Lat>
				<wgs84Lon>126.917783333333</wgs84Lon>
			</item>
			<item>
				<dutyName>바른성모정형외과의원</dutyName>
				<dutyTel1>02-306-7575</dutyTel1>
				<dutyTime1c>1900</dutyTime1c>
				<dutyTime1s>900</dutyTime1s>
				<wgs84Lat>37.6348541597</wgs84Lat>
				<wgs84Lon>126.9195841511</wgs84Lon>
			</item>
			<item>
				<dutyName>바른우리치과의원</dutyName>
				<dutyTel1>02-6380-2828</dutyTel1>
				<dutyTime1c>2030</dutyTime1c>
				<dutyTime1s>930</dutyTime1s>
				<wgs84Lat>37.5992870548</wgs84Lat>
				<wgs84Lon>126.9100106612</wgs84Lon>
			</item>
			<item>
				<dutyName>바른정형외과의원</dutyName>
				<dutyTel1>02-376-7575</dutyTel1>
				<dutyTime1c>1830</dutyTime1c>
				<dutyTime1s>800</dutyTime1s>
				<wgs84Lat>37.5930288877863</wgs84Lat>
				<wgs84Lon>126.917577467178</wgs84Lon>
			</item>
			<item>
				<dutyName>바른치과의원</dutyName>
				<dutyTel1>02-353-2875</dutyTel1>
				<dutyTime1c>1830</dutyTime1c>
				<dutyTime1s>930</dutyTime1s>
				<wgs84Lat>37.6209392000336</wgs84Lat>
				<wgs84Lon>126.92485951818</wgs84Lon>
			</item>
			<item>
				<dutyName>바를정치과의원</dutyName>
				<dutyTel1>02-354-2275</dutyTel1>
				<dutyTime1c>2000</dutyTime1c>
				<dutyTime1s>1000</dutyTime1s>
				<wgs84Lat>37.6000367993839</wgs84Lat>
				<wgs84Lon>126.915667621763</wgs84Lon>
			</item>
			<item>
				<dutyName>박근태내과의원</dutyName>
				<dutyTel1>02-385-0066</dutyTel1>
				<dutyTime1c>1830</dutyTime1c>
				<dutyTime1s>830</dutyTime1s>
				<wgs84Lat>37.5982676446641</wgs84Lat>
				<wgs84Lon>126.910982056804</wgs84Lon>
			</item>
			<item>
				<dutyName>박미숙산부인과의원</dutyName>
				<dutyTel1>02-355-2229</dutyTel1>
				<dutyTime1c>1900</dutyTime1c>
				<dutyTime1s>900</dutyTime1s>
				<wgs84Lat>37.6056409653687</wgs84Lat>
				<wgs84Lon>126.915049418074</wgs84Lon>
			</item>
			<item>
				<dutyName>박병섭내과의원</dutyName>
				<dutyTel1>02-389-6600</dutyTel1>
				<dutyTime1c>1800</dutyTime1c>
				<dutyTime1s>900</dutyTime1s>
				<wgs84Lat>37.6234728927</wgs84Lat>
				<wgs84Lon>126.9195692265</wgs84Lon>
			</item>
			<item>
				<dutyName>박정신건강의학과의원</dutyName>
				<dutyTel1>02-385-2319</dutyTel1>
				<dutyTime1c>1800</dutyTime1c>
				<dutyTime1s>1000</dutyTime1s>
				<wgs84Lat>37.6114158996209</wgs84Lat>
				<wgs84Lon>126.928606632986</wgs84Lon>
			</item>
			<item>
				<dutyName>박제상재활의학과의원</dutyName>
				<dutyTel1>02-353-4419</dutyTel1>
				<dutyTime1c>1900</dutyTime1c>
				<dutyTime1s>900</dutyTime1s>
				<wgs84Lat>37.6123353233343</wgs84Lat>
				<wgs84Lon>126.92866463383</wgs84Lon>
			</item>
			<item>
				<dutyName>박한의원</dutyName>
				<dutyTel1>02-353-3828</dutyTel1>
				<dutyTime1c>1900</dutyTime1c>
				<dutyTime1s>930</dutyTime1s>
				<wgs84Lat>37.621080020558</wgs84Lat>
				<wgs84Lon>126.926059907307</wgs84Lon>
			</item>
			<item>
				<dutyName>박해문의원</dutyName>
				<dutyTel1>02-388-8123</dutyTel1>
				<dutyTime1c>1830</dutyTime1c>
				<dutyTime1s>1000</dutyTime1s>
				<wgs84Lat>37.6112552911657</wgs84Lat>
				<wgs84Lon>126.930604660639</wgs84Lon>
			</item>
			<item>
				<dutyName>박행렬내과의원</dutyName>
				<dutyTel1>02-355-1194</dutyTel1>
				<dutyTime1c>1800</dutyTime1c>
				<dutyTime1s>900</dutyTime1s>
				<wgs84Lat>37.608181221115</wgs84Lat>
				<wgs84Lon>126.924885944901</wgs84Lon>
			</item>
			<item>
				<dutyName>밝은내일안과의원</dutyName>
				<dutyTel1>02-387-9999</dutyTel1>
				<dutyTime1c>1830</dutyTime1c>
				<dutyTime1s>900</dutyTime1s>
				<wgs84Lat>37.6178006492118</wgs84Lat>
				<wgs84Lon>126.920119022353</wgs84Lon>
			</item>
			<item>
				<dutyName>밝은빛안과의원</dutyName>
				<dutyTel1>02-306-5554</dutyTel1>
				<dutyTime1c>1830</dutyTime1c>
				<dutyTime1s>900</dutyTime1s>
				<wgs84Lat>37.5884403719182</wgs84Lat>
				<wgs84Lon>126.916631451772</wgs84Lon>
			</item>
			<item>
				<dutyName>밝은소리이비인후과의원</dutyName>
				<dutyTel1>02-388-2080</dutyTel1>
				<dutyTime1c>1900</dutyTime1c>
				<dutyTime1s>900</dutyTime1s>
				<wgs84Lat>37.6012085080338</wgs84Lat>
				<wgs84Lon>126.926904380824</wgs84Lon>
			</item>
			<item>
				<dutyName>밝은홍안과의원</dutyName>
				<dutyTel1>02-355-8966</dutyTel1>
				<dutyTime1c>1830</dutyTime1c>
				<dutyTime1s>900</dutyTime1s>
				<wgs84Lat>37.6108077313782</wgs84Lat>
				<wgs84Lon>126.930070497426</wgs84Lon>
			</item>
			<item>
				<dutyName>배형일한의원</dutyName>
				<dutyTel1>02-307-1551</dutyTel1>
				<dutyTime1c>1830</dutyTime1c>
				<dutyTime1s>930</dutyTime1s>
				<wgs84Lat>37.5909769498</wgs84Lat>
				<wgs84Lon>126.9157590175</wgs84Lon>
			</item>
			<item>
				<dutyName>백세내과의원</dutyName>
				<dutyTel1>02-354-1088</dutyTel1>
				<dutyTime1c>1800</dutyTime1c>
				<dutyTime1s>830</dutyTime1s>
				<wgs84Lat>37.6100572561</wgs84Lat>
				<wgs84Lon>126.9280597574</wgs84Lon>
			</item>
			<item>
				<dutyName>백세한의원</dutyName>
				<dutyTel1>02-304-0300</dutyTel1>
				<dutyTime1c>1830</dutyTime1c>
				<dutyTime1s>930</dutyTime1s>
				<wgs84Lat>37.5931415526276</wgs84Lat>
				<wgs84Lon>126.913845248694</wgs84Lon>
			</item>
			<item>
				<dutyName>백소아과의원</dutyName>
				<dutyTel1>02-354-0500</dutyTel1>
				<dutyTime1c>1800</dutyTime1c>
				<dutyTime1s>830</dutyTime1s>
				<wgs84Lat>37.6106486895347</wgs84Lat>
				<wgs84Lon>126.928693426491</wgs84Lon>
			</item>
			<item>
				<dutyName>백수진가정의학과의원</dutyName>
				<dutyTel1>02-373-3210</dutyTel1>
				<dutyTime1c>1830</dutyTime1c>
				<dutyTime1s>900</dutyTime1s>
				<wgs84Lat>37.5862827905055</wgs84Lat>
				<wgs84Lon>126.90027656905</wgs84Lon>
			</item>
			<item>
				<dutyName>밸런스미의원</dutyName>
				<dutyTel1>02-388-9975</dutyTel1>
				<dutyTime1c>1900</dutyTime1c>
				<dutyTime1s>1000</dutyTime1s>
				<wgs84Lat>37.59971223</wgs84Lat>
				<wgs84Lon>126.9198847069</wgs84Lon>
			</item>
			<item>
				<dutyName>보스톤연합치과의원</dutyName>
				<dutyTel1>02-306-2075</dutyTel1>
				<dutyTime1c>1830</dutyTime1c>
				<dutyTime1s>930</dutyTime1s>
				<wgs84Lat>37.5782507450246</wgs84Lat>
				<wgs84Lon>126.901074452924</wgs84Lon>
			</item>
			<item>
				<dutyName>보스톤유니온치과의원</dutyName>
				<dutyTel1>02-388-2839</dutyTel1>
				<dutyTime1c>1830</dutyTime1c>
				<dutyTime1s>1000</dutyTime1s>
				<wgs84Lat>37.6191444444444</wgs84Lat>
				<wgs84Lon>126.922527777778</wgs84Lon>
			</item>
			<item>
				<dutyName>보스톤탑치과의원</dutyName>
				<dutyTel1>02-3517-2080</dutyTel1>
				<dutyTime1c>1830</dutyTime1c>
				<dutyTime1s>930</dutyTime1s>
				<wgs84Lat>37.617906238537</wgs84Lat>
				<wgs84Lon>126.921722783334</wgs84Lon>
			</item>
			<item>
				<dutyName>보원한의원</dutyName>
				<dutyTel1>02-374-0075</dutyTel1>
				<dutyTime1c>1900</dutyTime1c>
				<dutyTime1s>900</dutyTime1s>
				<wgs84Lat>37.5871431576715</wgs84Lat>
				<wgs84Lon>126.916936331661</wgs84Lon>
			</item>
			<item>
				<dutyName>본서부병원</dutyName>
				<dutyTel1>02-3156-5000</dutyTel1>
				<dutyTime1c>1800</dutyTime1c>
				<dutyTime1s>900</dutyTime1s>
				<wgs84Lat>37.6007516140695</wgs84Lat>
				<wgs84Lon>126.922601679065</wgs84Lon>
			</item>
			<item>
				<dutyName>부부의원</dutyName>
				<dutyTel1>02-355-1374</dutyTel1>
				<dutyTime1c>1830</dutyTime1c>
				<dutyTime1s>1000</dutyTime1s>
				<wgs84Lat>37.608642202291</wgs84Lat>
				<wgs84Lon>126.930231085597</wgs84Lon>
			</item>
			<item>
				<dutyName>부부한의원</dutyName>
				<dutyTel1>02-309-2488</dutyTel1>
				<dutyTime1c>1830</dutyTime1c>
				<dutyTime1s>830</dutyTime1s>
				<wgs84Lat>37.5877734843001</wgs84Lat>
				<wgs84Lon>126.916414808849</wgs84Lon>
			</item>
			<item>
				<dutyName>부용한의원</dutyName>
				<dutyTel1>02-383-3305</dutyTel1>
				<dutyTime1c>2100</dutyTime1c>
				<dutyTime1s>1000</dutyTime1s>
				<wgs84Lat>37.6005310192838</wgs84Lat>
				<wgs84Lon>126.920907532886</wgs84Lon>
			</item>
			<item>
				<dutyName>불광신광한의원</dutyName>
				<dutyTel1>02-350-8775</dutyTel1>
				<dutyTime1c>1800</dutyTime1c>
				<dutyTime1s>830</dutyTime1s>
				<wgs84Lat>37.6097415715989</wgs84Lat>
				<wgs84Lon>126.928988756989</wgs84Lon>
			</item>
			<item>
				<dutyName>불광연세가정의학과의원</dutyName>
				<dutyTel1>02-356-8807</dutyTel1>
				<dutyTime1c>1900</dutyTime1c>
				<dutyTime1s>930</dutyTime1s>
				<wgs84Lat>37.609332587418</wgs84Lat>
				<wgs84Lon>126.927616516782</wgs84Lon>
			</item>
			<item>
				<dutyName>불광치과의원</dutyName>
				<dutyTel1>02-358-7127</dutyTel1>
				<dutyTime1c>1800</dutyTime1c>
				<dutyTime1s>930</dutyTime1s>
				<wgs84Lat>37.6112615507064</wgs84Lat>
				<wgs84Lon>126.929617035542</wgs84Lon>
			</item>
			<item>
				<dutyName>불광한의원</dutyName>
				<dutyTel1>02-355-2448</dutyTel1>
				<dutyTime1c>1730</dutyTime1c>
				<dutyTime1s>1000</dutyTime1s>
				<wgs84Lat>37.6117540258685</wgs84Lat>
				<wgs84Lon>126.928404715049</wgs84Lon>
			</item>
			<item>
				<dutyName>비비드의원</dutyName>
				<dutyTel1>02-356-0301</dutyTel1>
				<dutyTime1c>2100</dutyTime1c>
				<dutyTime1s>1030</dutyTime1s>
				<wgs84Lat>37.6117359159</wgs84Lat>
				<wgs84Lon>126.9159666548</wgs84Lon>
			</item>
			<item>
				<dutyName>빛나리치과의원</dutyName>
				<dutyTel1>02-353-2811</dutyTel1>
				<dutyTime1c>1800</dutyTime1c>
				<dutyTime1s>1000</dutyTime1s>
				<wgs84Lat>37.6112464631658</wgs84Lat>
				<wgs84Lon>126.917675241478</wgs84Lon>
			</item>
			<item>
				<dutyName>빛샘안과의원</dutyName>
				<dutyTel1>02-388-4225</dutyTel1>
				<dutyTime1c>1830</dutyTime1c>
				<dutyTime1s>930</dutyTime1s>
				<wgs84Lat>37.5985557444511</wgs84Lat>
				<wgs84Lon>126.910401103461</wgs84Lon>
			</item>
			<item>
				<dutyName>뿌리사랑치과의원</dutyName>
				<dutyTel1>02-358-2828</dutyTel1>
				<dutyTime1c>1830</dutyTime1c>
				<dutyTime1s>930</dutyTime1s>
				<wgs84Lat>37.6118272438</wgs84Lat>
				<wgs84Lon>126.9177107362</wgs84Lon>
			</item>
			<item>
				<dutyName>사계절치과의원</dutyName>
				<dutyTel1>02-3157-2876</dutyTel1>
				<dutyTime1c>1900</dutyTime1c>
				<dutyTime1s>1000</dutyTime1s>
				<wgs84Lat>37.6212833333333</wgs84Lat>
				<wgs84Lon>126.918866666667</wgs84Lon>
			</item>
			<item>
				<dutyName>사과나무치과의원</dutyName>
				<dutyTel1>02-383-0333</dutyTel1>
				<dutyTime1c>2100</dutyTime1c>
				<dutyTime1s>930</dutyTime1s>
				<wgs84Lat>37.6348541597</wgs84Lat>
				<wgs84Lon>126.9195841511</wgs84Lon>
			</item>
			<item>
				<dutyName>사람사랑치과의원</dutyName>
				<dutyTel1>02-385-2275</dutyTel1>
				<dutyTime1c>1830</dutyTime1c>
				<dutyTime1s>930</dutyTime1s>
				<wgs84Lat>37.6100352651161</wgs84Lat>
				<wgs84Lon>126.928073416802</wgs84Lon>
			</item>
			<item>
				<dutyName>사랑이가득한치과의원</dutyName>
				<dutyTel1>02-389-2828</dutyTel1>
				<dutyTime1c>1800</dutyTime1c>
				<dutyTime1s>1000</dutyTime1s>
				<wgs84Lat>37.601203574374</wgs84Lat>
				<wgs84Lon>126.924829798052</wgs84Lon>
			</item>
			<item>
				<dutyName>사랑이꽃피는치과의원</dutyName>
				<dutyTel1>02-359-2804</dutyTel1>
				<dutyTime1c>1830</dutyTime1c>
				<dutyTime1s>930</dutyTime1s>
				<wgs84Lat>37.6108681679</wgs84Lat>
				<wgs84Lon>126.9280952186</wgs84Lon>
			</item>
			<item>
				<dutyName>사암한의원</dutyName>
				<dutyTel1>1644-1035</dutyTel1>
				<dutyTime1c>1900</dutyTime1c>
				<dutyTime1s>800</dutyTime1s>
				<wgs84Lat>37.6096906570627</wgs84Lat>
				<wgs84Lon>126.930307135482</wgs84Lon>
			</item>
			<item>
				<dutyName>살림의료복지사회적협동조합살림의원</dutyName>
				<dutyTel1>02-6014-9949</dutyTel1>
				<dutyTime1c>1800</dutyTime1c>
				<dutyTime1s>900</dutyTime1s>
				<wgs84Lat>37.6115919317553</wgs84Lat>
				<wgs84Lon>126.916211454896</wgs84Lon>
			</item>
			<item>
				<dutyName>살림의료복지사회적협동조합살림치과의원</dutyName>
				<dutyTel1>02-6014-9949</dutyTel1>
				<dutyTime1c>1800</dutyTime1c>
				<dutyTime1s>1000</dutyTime1s>
				<wgs84Lat>37.6115919318</wgs84Lat>
				<wgs84Lon>126.9162114549</wgs84Lon>
			</item>
			<item>
				<dutyName>삼성레이디여성의원</dutyName>
				<dutyTel1>02-355-7119</dutyTel1>
				<dutyTime1c>1830</dutyTime1c>
				<dutyTime1s>930</dutyTime1s>
				<wgs84Lat>37.6382939757014</wgs84Lat>
				<wgs84Lon>126.917830666363</wgs84Lon>
			</item>
			<item>
				<dutyName>삼성바른신경외과의원</dutyName>
				<dutyTel1>02-386-8788</dutyTel1>
				<dutyTime1c>1900</dutyTime1c>
				<dutyTime1s>900</dutyTime1s>
				<wgs84Lat>37.6389153285</wgs84Lat>
				<wgs84Lon>126.9188954432</wgs84Lon>
			</item>
			<item>
				<dutyName>삼성서울키즈소아청소년과의원</dutyName>
				<dutyTel1>02-305-5535</dutyTel1>
				<dutyTime1c>1900</dutyTime1c>
				<dutyTime1s>900</dutyTime1s>
				<wgs84Lat>37.5930218559075</wgs84Lat>
				<wgs84Lon>126.923628905411</wgs84Lon>
			</item>
			<item>
				<dutyName>삼성속편한의원</dutyName>
				<dutyTel1>02-307-7577</dutyTel1>
				<dutyTime1c>1900</dutyTime1c>
				<dutyTime1s>900</dutyTime1s>
				<wgs84Lat>37.5914497445626</wgs84Lat>
				<wgs84Lon>126.917226430129</wgs84Lon>
			</item>
			<item>
				<dutyName>삼성키즈소아청소년과의원</dutyName>
				<dutyTel1>02-356-1275</dutyTel1>
				<dutyTime1c>1900</dutyTime1c>
				<dutyTime1s>900</dutyTime1s>
				<wgs84Lat>37.6343479324349</wgs84Lat>
				<wgs84Lon>126.923436246299</wgs84Lon>
			</item>
			<item>
				<dutyName>삼성한의원</dutyName>
				<dutyTel1>02-356-2075</dutyTel1>
				<dutyTime1c>1900</dutyTime1c>
				<dutyTime1s>930</dutyTime1s>
				<wgs84Lat>37.6070080307428</wgs84Lat>
				<wgs84Lon>126.921951648191</wgs84Lon>
			</item>
			<item>
				<dutyName>삼정치과의원</dutyName>
				<dutyTel1>02-355-2875</dutyTel1>
				<dutyTime1c>1800</dutyTime1c>
				<dutyTime1s>930</dutyTime1s>
				<wgs84Lat>37.6169671915954</wgs84Lat>
				<wgs84Lon>126.919526374089</wgs84Lon>
			</item>
			<item>
				<dutyName>삼화한의원</dutyName>
				<dutyTel1>02-359-0982</dutyTel1>
				<dutyTime1c>1700</dutyTime1c>
				<dutyTime1s>1000</dutyTime1s>
				<wgs84Lat>37.6183757867094</wgs84Lat>
				<wgs84Lon>126.920577165845</wgs84Lon>
			</item>
			<item>
				<dutyName>상하치과의원</dutyName>
				<dutyTel1>02-359-2275</dutyTel1>
				<dutyTime1c>1900</dutyTime1c>
				<dutyTime1s>1000</dutyTime1s>
				<wgs84Lat>37.6056334888</wgs84Lat>
				<wgs84Lon>126.9146734181</wgs84Lon>
			</item>
			<item>
				<dutyName>새서울정형외과의원</dutyName>
				<dutyTel1>02-388-7580</dutyTel1>
				<dutyTime1c>1900</dutyTime1c>
				<dutyTime1s>900</dutyTime1s>
				<wgs84Lat>37.6004446486</wgs84Lat>
				<wgs84Lon>126.9210933403</wgs84Lon>
			</item>
			<item>
				<dutyName>새연세재활의학과의원</dutyName>
				<dutyTel1>02-355-0303</dutyTel1>
				<dutyTime1c>1900</dutyTime1c>
				<dutyTime1s>900</dutyTime1s>
				<wgs84Lat>37.6052665398256</wgs84Lat>
				<wgs84Lon>126.910687480901</wgs84Lon>
			</item>
			<item>
				<dutyName>새은치과의원</dutyName>
				<dutyTel1>02-383-5545</dutyTel1>
				<dutyTime1c>1830</dutyTime1c>
				<dutyTime1s>1000</dutyTime1s>
				<wgs84Lat>37.6178204067</wgs84Lat>
				<wgs84Lon>126.9227286914</wgs84Lon>
			</item>
			<item>
				<dutyName>새이치과의원</dutyName>
				<dutyTel1>02-308-7528</dutyTel1>
				<dutyTime1c>1800</dutyTime1c>
				<dutyTime1s>930</dutyTime1s>
				<wgs84Lat>37.5880903921662</wgs84Lat>
				<wgs84Lon>126.91655541642</wgs84Lon>
			</item>
			<item>
				<dutyName>새하얀피부과의원</dutyName>
				<dutyTel1>02-353-5600</dutyTel1>
				<dutyTime1c>2000</dutyTime1c>
				<dutyTime1s>1000</dutyTime1s>
				<wgs84Lat>37.6011350187941</wgs84Lat>
				<wgs84Lon>126.929998001836</wgs84Lon>
			</item>
			<item>
				<dutyName>새한세이프치과의원</dutyName>
				<dutyTel1>02-384-4927</dutyTel1>
				<dutyTime1c>1830</dutyTime1c>
				<dutyTime1s>930</dutyTime1s>
				<wgs84Lat>37.6011635859072</wgs84Lat>
				<wgs84Lon>126.930020835283</wgs84Lon>
			</item>
			<item>
				<dutyName>생록한의원</dutyName>
				<dutyTel1>02-376-1275</dutyTel1>
				<dutyTime1c>1900</dutyTime1c>
				<dutyTime1s>930</dutyTime1s>
				<wgs84Lat>37.5988188516413</wgs84Lat>
				<wgs84Lon>126.915306300837</wgs84Lon>
			</item>
			<item>
				<dutyName>서내과의원</dutyName>
				<dutyTel1>02-387-3512</dutyTel1>
				<dutyTime1c>1900</dutyTime1c>
				<dutyTime1s>900</dutyTime1s>
				<wgs84Lat>37.6059905816944</wgs84Lat>
				<wgs84Lon>126.91509432042</wgs84Lon>
			</item>
			<item>
				<dutyName>서부성모의원</dutyName>
				<dutyTel1>02-385-9730</dutyTel1>
				<dutyTime1c>1830</dutyTime1c>
				<dutyTime1s>900</dutyTime1s>
				<wgs84Lat>37.6122292462094</wgs84Lat>
				<wgs84Lon>126.93212594026</wgs84Lon>
			</item>
			<item>
				<dutyName>서부성심의원</dutyName>
				<dutyTel1>02-386-1070</dutyTel1>
				<dutyTime1c>1900</dutyTime1c>
				<dutyTime1s>900</dutyTime1s>
				<wgs84Lat>37.6050221998829</wgs84Lat>
				<wgs84Lon>126.921876714139</wgs84Lon>
			</item>
			<item>
				<dutyName>서부이비인후과의원</dutyName>
				<dutyTel1>02-383-2091</dutyTel1>
				<dutyTime1c>1830</dutyTime1c>
				<dutyTime1s>900</dutyTime1s>
				<wgs84Lat>37.6008170717714</wgs84Lat>
				<wgs84Lon>126.922936547835</wgs84Lon>
			</item>
			<item>
				<dutyName>서부치과의원</dutyName>
				<dutyTel1>02-385-4675</dutyTel1>
				<dutyTime1c>1800</dutyTime1c>
				<dutyTime1s>1000</dutyTime1s>
				<wgs84Lat>37.6009390214565</wgs84Lat>
				<wgs84Lon>126.922606010772</wgs84Lon>
			</item>
			<item>
				<dutyName>서부한의원</dutyName>
				<dutyTel1>02-357-1263</dutyTel1>
				<dutyTime1c>1900</dutyTime1c>
				<dutyTime1s>930</dutyTime1s>
				<wgs84Lat>37.6008381511612</wgs84Lat>
				<wgs84Lon>126.922103043831</wgs84Lon>
			</item>
			<item>
				<dutyName>서울고운누리치과의원</dutyName>
				<dutyTel1>02-352-7528</dutyTel1>
				<dutyTime1c>1900</dutyTime1c>
				<dutyTime1s>1000</dutyTime1s>
				<wgs84Lat>37.6184990835043</wgs84Lat>
				<wgs84Lon>126.919850903528</wgs84Lon>
			</item>
			<item>
				<dutyName>서울금플란트치과의원</dutyName>
				<dutyTel1>02-386-2727</dutyTel1>
				<dutyTime1c>1830</dutyTime1c>
				<dutyTime1s>930</dutyTime1s>
				<wgs84Lat>37.6117359159001</wgs84Lat>
				<wgs84Lon>126.915966654843</wgs84Lon>
			</item>
			<item>
				<dutyName>서울나무치과의원</dutyName>
				<dutyTel1>02-382-2879</dutyTel1>
				<dutyTime1c>1800</dutyTime1c>
				<dutyTime1s>900</dutyTime1s>
				<wgs84Lat>37.6345886057129</wgs84Lat>
				<wgs84Lon>126.922253222594</wgs84Lon>
			</item>
			<item>
				<dutyName>서울다나의원</dutyName>
				<dutyTel1>02-355-5416</dutyTel1>
				<dutyTime1c>2030</dutyTime1c>
				<dutyTime1s>900</dutyTime1s>
				<wgs84Lat>37.6005945661</wgs84Lat>
				<wgs84Lon>126.918955179</wgs84Lon>
			</item>
			<item>
				<dutyName>서울다조은치과의원</dutyName>
				<dutyTel1>02-355-1597</dutyTel1>
				<dutyTime1c>1900</dutyTime1c>
				<dutyTime1s>1000</dutyTime1s>
				<wgs84Lat>37.6001008447717</wgs84Lat>
				<wgs84Lon>126.919576593294</wgs84Lon>
			</item>
			<item>
				<dutyName>서울닥터굿치과의원</dutyName>
				<dutyTel1>02-357-7522</dutyTel1>
				<dutyTime1c>1830</dutyTime1c>
				<dutyTime1s>930</dutyTime1s>
				<wgs84Lat>37.6125177634245</wgs84Lat>
				<wgs84Lon>126.915671299723</wgs84Lon>
			</item>
			<item>
				<dutyName>서울덴치과의원</dutyName>
				<dutyTel1>02-354-4232</dutyTel1>
				<dutyTime1c>1800</dutyTime1c>
				<dutyTime1s>930</dutyTime1s>
				<wgs84Lat>37.6128343876967</wgs84Lat>
				<wgs84Lon>126.914941546268</wgs84Lon>
			</item>
			<item>
				<dutyName>서울리더스치과의원</dutyName>
				<dutyTel1>02-3151-0228</dutyTel1>
				<dutyTime1c>1830</dutyTime1c>
				<dutyTime1s>1000</dutyTime1s>
				<wgs84Lat>37.5892772881548</wgs84Lat>
				<wgs84Lon>126.923106940927</wgs84Lon>
			</item>
			<item>
				<dutyName>서울미치과의원</dutyName>
				<dutyTel1>02-303-6464</dutyTel1>
				<dutyTime1c>1830</dutyTime1c>
				<dutyTime1s>1000</dutyTime1s>
				<wgs84Lat>37.621057886277</wgs84Lat>
				<wgs84Lon>126.919041712034</wgs84Lon>
			</item>
			<item>
				<dutyName>서울박치과의원</dutyName>
				<dutyTel1>02-383-2828</dutyTel1>
				<dutyTime1c>1830</dutyTime1c>
				<dutyTime1s>930</dutyTime1s>
				<wgs84Lat>37.6118603938906</wgs84Lat>
				<wgs84Lon>126.931523738826</wgs84Lon>
			</item>
			<item>
				<dutyName>서울방사선가정의학과의원</dutyName>
				<dutyTel1>02-355-3505</dutyTel1>
				<dutyTime1c>1700</dutyTime1c>
				<dutyTime1s>900</dutyTime1s>
				<wgs84Lat>37.6200242066391</wgs84Lat>
				<wgs84Lon>126.920003393027</wgs84Lon>
			</item>
			<item>
				<dutyName>서울병원</dutyName>
				<dutyTel1>02-357-0515</dutyTel1>
				<dutyTime1c>1800</dutyTime1c>
				<dutyTime1s>900</dutyTime1s>
				<wgs84Lat>37.6088299092482</wgs84Lat>
				<wgs84Lon>126.930738268197</wgs84Lon>
			</item>
			<item>
				<dutyName>서울본치과의원</dutyName>
				<dutyTel1>02-384-2890</dutyTel1>
				<dutyTime1c>1830</dutyTime1c>
				<dutyTime1s>930</dutyTime1s>
				<wgs84Lat>37.601175</wgs84Lat>
				<wgs84Lon>126.924083333333</wgs84Lon>
			</item>
			<item>
				<dutyName>서울비뇨기과의원</dutyName>
				<dutyTel1>02-359-0035</dutyTel1>
				<dutyTime1c>1830</dutyTime1c>
				<dutyTime1s>900</dutyTime1s>
				<wgs84Lat>37.6182327622725</wgs84Lat>
				<wgs84Lon>126.920385817429</wgs84Lon>
			</item>
			<item>
				<dutyName>서울사랑치과의원</dutyName>
				<dutyTel1>02-354-7528</dutyTel1>
				<dutyTime1c>1830</dutyTime1c>
				<dutyTime1s>930</dutyTime1s>
				<wgs84Lat>37.6194567267577</wgs84Lat>
				<wgs84Lon>126.922921822844</wgs84Lon>
			</item>
			<item>
				<dutyName>서울삼성내과의원</dutyName>
				<dutyTel1>02-353-1011</dutyTel1>
				<dutyTime1c>1830</dutyTime1c>
				<dutyTime1s>900</dutyTime1s>
				<wgs84Lat>37.6137900408198</wgs84Lat>
				<wgs84Lon>126.910881179789</wgs84Lon>
			</item>
			<item>
				<dutyName>서울삼성치과의원</dutyName>
				<dutyTel1>02-384-2275</dutyTel1>
				<dutyTime1c>1830</dutyTime1c>
				<dutyTime1s>930</dutyTime1s>
				<wgs84Lat>37.6137972474941</wgs84Lat>
				<wgs84Lon>126.910876619945</wgs84Lon>
			</item>
			<item>
				<dutyName>서울성모내과의원</dutyName>
				<dutyTel1>02-358-0501</dutyTel1>
				<dutyTime1c>1900</dutyTime1c>
				<dutyTime1s>830</dutyTime1s>
				<wgs84Lat>37.6118272438091</wgs84Lat>
				<wgs84Lon>126.917710736223</wgs84Lon>
			</item>
			<item>
				<dutyName>서울수치과의원</dutyName>
				<dutyTel1>02-304-0072</dutyTel1>
				<dutyTime1c>1830</dutyTime1c>
				<dutyTime1s>930</dutyTime1s>
				<wgs84Lat>37.5870960110308</wgs84Lat>
				<wgs84Lon>126.916982254971</wgs84Lon>
			</item>
			<item>
				<dutyName>서울아산재활의학과의원</dutyName>
				<dutyTel1>02-357-2060</dutyTel1>
				<dutyTime1c>1900</dutyTime1c>
				<dutyTime1s>900</dutyTime1s>
				<wgs84Lat>37.6158746933064</wgs84Lat>
				<wgs84Lon>126.92410796689</wgs84Lon>
			</item>
			<item>
				<dutyName>서울어린이치과의원</dutyName>
				<dutyTel1>02-384-8148</dutyTel1>
				<dutyTime1c>1800</dutyTime1c>
				<dutyTime1s>1000</dutyTime1s>
				<wgs84Lat>37.6191119999651</wgs84Lat>
				<wgs84Lon>126.920212693419</wgs84Lon>
			</item>
			<item>
				<dutyName>서울에스치과의원</dutyName>
				<dutyTel1>02-6352-2828</dutyTel1>
				<dutyTime1c>2100</dutyTime1c>
				<dutyTime1s>1000</dutyTime1s>
				<wgs84Lat>37.6386523687318</wgs84Lat>
				<wgs84Lon>126.919081540105</wgs84Lon>
			</item>
			<item>
				<dutyName>서울엔도내과의원</dutyName>
				<dutyTel1>02-305-8575</dutyTel1>
				<dutyTime1c>1800</dutyTime1c>
				<dutyTime1s>900</dutyTime1s>
				<wgs84Lat>37.5871594657093</wgs84Lat>
				<wgs84Lon>126.91705970407</wgs84Lon>
			</item>
			<item>
				<dutyName>서울연신내한의원</dutyName>
				<dutyTel1>02-358-8808</dutyTel1>
				<dutyTime1c>1900</dutyTime1c>
				<dutyTime1s>930</dutyTime1s>
				<wgs84Lat>37.6198205119728</wgs84Lat>
				<wgs84Lon>126.922595227266</wgs84Lon>
			</item>
			<item>
				<dutyName>서울오거리치과의원</dutyName>
				<dutyTel1>02-305-2877</dutyTel1>
				<dutyTime1c>2000</dutyTime1c>
				<dutyTime1s>1000</dutyTime1s>
				<wgs84Lat>37.5899649200633</wgs84Lat>
				<wgs84Lon>126.916724840058</wgs84Lon>
			</item>
			<item>
				<dutyName>서울우리치과의원</dutyName>
				<dutyTel1>02-359-7528</dutyTel1>
				<dutyTime1c>1900</dutyTime1c>
				<dutyTime1s>1000</dutyTime1s>
				<wgs84Lat>37.5998770412187</wgs84Lat>
				<wgs84Lon>126.918466757953</wgs84Lon>
			</item>
			<item>
				<dutyName>서울웰치과의원</dutyName>
				<dutyTel1>02-357-1275</dutyTel1>
				<dutyTime1c>1800</dutyTime1c>
				<dutyTime1s>930</dutyTime1s>
				<wgs84Lat>37.618550960701</wgs84Lat>
				<wgs84Lon>126.932790745908</wgs84Lon>
			</item>
			<item>
				<dutyName>서울의원</dutyName>
				<dutyTel1>02-353-6410</dutyTel1>
				<dutyTime1c>1900</dutyTime1c>
				<dutyTime1s>900</dutyTime1s>
				<wgs84Lat>37.6157383280429</wgs84Lat>
				<wgs84Lon>126.913778429386</wgs84Lon>
			</item>
			<item>
				<dutyName>서울이레안과의원</dutyName>
				<dutyTel1>02-385-8200</dutyTel1>
				<dutyTime1c>1830</dutyTime1c>
				<dutyTime1s>900</dutyTime1s>
				<wgs84Lat>37.6113070826878</wgs84Lat>
				<wgs84Lon>126.91676911745</wgs84Lon>
			</item>
			<item>
				<dutyName>서울이비인후과의원</dutyName>
				<dutyTel1>02-386-5575</dutyTel1>
				<dutyTime1c>1900</dutyTime1c>
				<dutyTime1s>900</dutyTime1s>
				<wgs84Lat>37.6357477538433</wgs84Lat>
				<wgs84Lon>126.919315811893</wgs84Lon>
			</item>
			<item>
				<dutyName>서울이웃치과의원</dutyName>
				<dutyTel1>02-3152-2875</dutyTel1>
				<dutyTime1c>1900</dutyTime1c>
				<dutyTime1s>1000</dutyTime1s>
				<wgs84Lat>37.5925107398684</wgs84Lat>
				<wgs84Lon>126.913682925525</wgs84Lon>
			</item>
			<item>
				<dutyName>서울장문외과의원</dutyName>
				<dutyTel1>02-389-5005</dutyTel1>
				<dutyTime1c>1830</dutyTime1c>
				<dutyTime1s>900</dutyTime1s>
				<wgs84Lat>37.6197864768385</wgs84Lat>
				<wgs84Lon>126.920193921875</wgs84Lon>
			</item>
			<item>
				<dutyName>서울재활병원</dutyName>
				<dutyTel1>02-6020-3000</dutyTel1>
				<dutyTime1c>1730</dutyTime1c>
				<dutyTime1s>830</dutyTime1s>
				<wgs84Lat>37.6052491175518</wgs84Lat>
				<wgs84Lon>126.90756214884</wgs84Lon>
			</item>
			<item>
				<dutyName>서울제일한의원</dutyName>
				<dutyTel1>02-3157-1700</dutyTel1>
				<dutyTime1c>2000</dutyTime1c>
				<dutyTime1s>1000</dutyTime1s>
				<wgs84Lat>37.6386523687318</wgs84Lat>
				<wgs84Lon>126.919081540105</wgs84Lon>
			</item>
			<item>
				<dutyName>서울주치과의원</dutyName>
				<dutyTel1>02-384-7775</dutyTel1>
				<dutyTime1c>1800</dutyTime1c>
				<dutyTime1s>1000</dutyTime1s>
				<wgs84Lat>37.6138557842864</wgs84Lat>
				<wgs84Lon>126.912040881213</wgs84Lon>
			</item>
			<item>
				<dutyName>서울탑의원</dutyName>
				<dutyTel1>02-351-9114</dutyTel1>
				<dutyTime1c>1820</dutyTime1c>
				<dutyTime1s>900</dutyTime1s>
				<wgs84Lat>37.611998755492</wgs84Lat>
				<wgs84Lon>126.915617521467</wgs84Lon>
			</item>
			<item>
				<dutyName>서울특별시서북병원</dutyName>
				<dutyTel1>02-3156-3064</dutyTel1>
				<dutyTime1c>1800</dutyTime1c>
				<dutyTime1s>900</dutyTime1s>
				<wgs84Lat>37.6042329559168</wgs84Lat>
				<wgs84Lon>126.904736444399</wgs84Lon>
			</item>
			<item>
				<dutyName>서울특별시은평병원</dutyName>
				<dutyTel1>02-300-8053</dutyTel1>
				<dutyTime1c>1800</dutyTime1c>
				<dutyTime1s>900</dutyTime1s>
				<wgs84Lat>37.5939697215966</wgs84Lat>
				<wgs84Lon>126.923210815381</wgs84Lon>
			</item>
			<item>
				<dutyName>서울티플란트치과의원</dutyName>
				<dutyTel1>02-352-2828</dutyTel1>
				<dutyTime1c>1830</dutyTime1c>
				<dutyTime1s>930</dutyTime1s>
				<wgs84Lat>37.6191233565537</wgs84Lat>
				<wgs84Lon>126.920203692261</wgs84Lon>
			</item>
			<item>
				<dutyName>서울플랜트치과의원</dutyName>
				<dutyTel1>02-389-8335</dutyTel1>
				<dutyTime1c>1900</dutyTime1c>
				<dutyTime1s>1000</dutyTime1s>
				<wgs84Lat>37.6004446486</wgs84Lat>
				<wgs84Lon>126.9210933403</wgs84Lon>
			</item>
			<item>
				<dutyName>서울필치과의원</dutyName>
				<dutyTel1>02-359-2833</dutyTel1>
				<dutyTime1c>1830</dutyTime1c>
				<dutyTime1s>1000</dutyTime1s>
				<wgs84Lat>37.60850915314</wgs84Lat>
				<wgs84Lon>126.931282235677</wgs84Lon>
			</item>
			<item>
				<dutyName>서울하이안치과의원</dutyName>
				<dutyTel1>02-357-2879</dutyTel1>
				<dutyTime1c>1830</dutyTime1c>
				<dutyTime1s>1000</dutyTime1s>
				<wgs84Lat>37.6120075303302</wgs84Lat>
				<wgs84Lon>126.928941298875</wgs84Lon>
			</item>
			<item>
				<dutyName>서울해치과의원</dutyName>
				<dutyTel1>02-737-7185</dutyTel1>
				<dutyTime1c>1830</dutyTime1c>
				<dutyTime1s>930</dutyTime1s>
				<wgs84Lat>37.6002621327</wgs84Lat>
				<wgs84Lon>126.9230412814</wgs84Lon>
			</item>
			<item>
				<dutyName>선동규안과의원</dutyName>
				<dutyTel1>02-386-2881</dutyTel1>
				<dutyTime1c>1800</dutyTime1c>
				<dutyTime1s>930</dutyTime1s>
				<wgs84Lat>37.6176649190038</wgs84Lat>
				<wgs84Lon>126.921945061541</wgs84Lon>
			</item>
			<item>
				<dutyName>선린한의원</dutyName>
				<dutyTel1>02-353-7588</dutyTel1>
				<dutyTime1c>1900</dutyTime1c>
				<dutyTime1s>900</dutyTime1s>
				<wgs84Lat>37.6098174574131</wgs84Lat>
				<wgs84Lon>126.924952273534</wgs84Lon>
			</item>
			<item>
				<dutyName>성누가의원</dutyName>
				<dutyTel1>02-303-8591</dutyTel1>
				<dutyTime1c>1800</dutyTime1c>
				<dutyTime1s>900</dutyTime1s>
				<wgs84Lat>37.5876953688</wgs84Lat>
				<wgs84Lon>126.9180815053</wgs84Lon>
			</item>
			<item>
				<dutyName>성도치과의원</dutyName>
				<dutyTel1>02-386-2875</dutyTel1>
				<dutyTime1c>1700</dutyTime1c>
				<dutyTime1s>930</dutyTime1s>
				<wgs84Lat>37.6056409277353</wgs84Lat>
				<wgs84Lon>126.910868509322</wgs84Lon>
			</item>
			<item>
				<dutyName>성모의원</dutyName>
				<dutyTel1>02-355-0203</dutyTel1>
				<dutyTime1c>1830</dutyTime1c>
				<dutyTime1s>900</dutyTime1s>
				<wgs84Lat>37.6119565981964</wgs84Lat>
				<wgs84Lon>126.928157616418</wgs84Lon>
			</item>
			<item>
				<dutyName>성모치과의원</dutyName>
				<dutyTel1>02-353-2822</dutyTel1>
				<dutyTime1c>1800</dutyTime1c>
				<dutyTime1s>1000</dutyTime1s>
				<wgs84Lat>37.6199805555556</wgs84Lat>
				<wgs84Lon>126.922641666667</wgs84Lon>
			</item>
			<item>
				<dutyName>성보한의원</dutyName>
				<dutyTel1>02-359-0358</dutyTel1>
				<dutyTime1c>1900</dutyTime1c>
				<dutyTime1s>930</dutyTime1s>
				<wgs84Lat>37.6055903598001</wgs84Lat>
				<wgs84Lon>126.909984969152</wgs84Lon>
			</item>
			<item>
				<dutyName>세련치과의원</dutyName>
				<dutyTel1>02-384-0028</dutyTel1>
				<dutyTime1c>1800</dutyTime1c>
				<dutyTime1s>1000</dutyTime1s>
				<wgs84Lat>37.5981660144361</wgs84Lat>
				<wgs84Lon>126.910401982533</wgs84Lon>
			</item>
			<item>
				<dutyName>세브란스의원</dutyName>
				<dutyTel1>02-309-9111</dutyTel1>
				<dutyTime1c>1900</dutyTime1c>
				<dutyTime1s>900</dutyTime1s>
				<wgs84Lat>37.5882096413786</wgs84Lat>
				<wgs84Lon>126.916518465487</wgs84Lon>
			</item>
			<item>
				<dutyName>세실치과의원</dutyName>
				<dutyTel1>02-3152-2833</dutyTel1>
				<dutyTime1c>2000</dutyTime1c>
				<dutyTime1s>1200</dutyTime1s>
				<wgs84Lat>37.5794883818318</wgs84Lat>
				<wgs84Lon>126.899144624743</wgs84Lon>
			</item>
			<item>
				<dutyName>세종한의원</dutyName>
				<dutyTel1>02-356-7533</dutyTel1>
				<dutyTime1c>1830</dutyTime1c>
				<dutyTime1s>900</dutyTime1s>
				<wgs84Lat>37.5947050305071</wgs84Lat>
				<wgs84Lon>126.918005902987</wgs84Lon>
			</item>
			<item>
				<dutyName>세화산부인과의원</dutyName>
				<dutyTel1>02-388-5501</dutyTel1>
				<dutyTime1c>1900</dutyTime1c>
				<dutyTime1s>900</dutyTime1s>
				<wgs84Lat>37.6179386750949</wgs84Lat>
				<wgs84Lon>126.921727300834</wgs84Lon>
			</item>
			<item>
				<dutyName>센트럴여성의원</dutyName>
				<dutyTel1>02-354-3004</dutyTel1>
				<dutyTime1c>1900</dutyTime1c>
				<dutyTime1s>930</dutyTime1s>
				<wgs84Lat>37.6185761505388</wgs84Lat>
				<wgs84Lon>126.92108777489</wgs84Lon>
			</item>
			<item>
				<dutyName>센트럴치과의원</dutyName>
				<dutyTel1>02-386-7528</dutyTel1>
				<dutyTime1c>1830</dutyTime1c>
				<dutyTime1s>930</dutyTime1s>
				<wgs84Lat>37.61221806899</wgs84Lat>
				<wgs84Lon>126.932085147545</wgs84Lon>
			</item>
			<item>
				<dutyName>소영한의원</dutyName>
				<dutyTel1>02-387-0220</dutyTel1>
				<dutyTime1c>2030</dutyTime1c>
				<dutyTime1s>930</dutyTime1s>
				<wgs84Lat>37.5998479277115</wgs84Lat>
				<wgs84Lon>126.91865736489</wgs84Lon>
			</item>
			<item>
				<dutyName>소천안과의원</dutyName>
				<dutyTel1>02-355-5579</dutyTel1>
				<dutyTime1c>1830</dutyTime1c>
				<dutyTime1s>930</dutyTime1s>
				<wgs84Lat>37.6156083112857</wgs84Lat>
				<wgs84Lon>126.924579419295</wgs84Lon>
			</item>
			<item>
				<dutyName>솔빛정신건강의학과의원</dutyName>
				<dutyTel1>02-386-0342</dutyTel1>
				<dutyTime1c>1900</dutyTime1c>
				<dutyTime1s>1000</dutyTime1s>
				<wgs84Lat>37.6175573815989</wgs84Lat>
				<wgs84Lon>126.922828659722</wgs84Lon>
			</item>
			<item>
				<dutyName>솔치과의원</dutyName>
				<dutyTel1>02-306-1990</dutyTel1>
				<dutyTime1c>1830</dutyTime1c>
				<dutyTime1s>930</dutyTime1s>
				<wgs84Lat>37.5933765076625</wgs84Lat>
				<wgs84Lon>126.920453571553</wgs84Lon>
			</item>
			<item>
				<dutyName>송근한의원</dutyName>
				<dutyTel1>02-356-1075</dutyTel1>
				<dutyTime1c>1800</dutyTime1c>
				<dutyTime1s>1000</dutyTime1s>
				<wgs84Lat>37.6129400897573</wgs84Lat>
				<wgs84Lon>126.928170228552</wgs84Lon>
			</item>
			<item>
				<dutyName>송내과의원</dutyName>
				<dutyTel1>02-374-7897</dutyTel1>
				<dutyTime1c>1900</dutyTime1c>
				<dutyTime1s>900</dutyTime1s>
				<wgs84Lat>37.590026296018</wgs84Lat>
				<wgs84Lon>126.916878758581</wgs84Lon>
			</item>
			<item>
				<dutyName>수내과의원</dutyName>
				<dutyTel1>02-359-7557</dutyTel1>
				<dutyTime1c>1830</dutyTime1c>
				<dutyTime1s>830</dutyTime1s>
				<wgs84Lat>37.6005530513</wgs84Lat>
				<wgs84Lon>126.9215190143</wgs84Lon>
			</item>
			<item>
				<dutyName>수사랑한방병원</dutyName>
				<dutyTel1>02-382-0075</dutyTel1>
				<dutyTime1c>1800</dutyTime1c>
				<dutyTime1s>900</dutyTime1s>
				<wgs84Lat>37.6238913748931</wgs84Lat>
				<wgs84Lon>126.920194064748</wgs84Lon>
			</item>
			<item>
				<dutyName>수색신경외과의원</dutyName>
				<dutyTel1>02-305-4463</dutyTel1>
				<dutyTime1c>1800</dutyTime1c>
				<dutyTime1s>900</dutyTime1s>
				<wgs84Lat>37.5820696717831</wgs84Lat>
				<wgs84Lon>126.89603453461</wgs84Lon>
			</item>
			<item>
				<dutyName>수색연세치과의원</dutyName>
				<dutyTel1>02-372-2822</dutyTel1>
				<dutyTime1c>1800</dutyTime1c>
				<dutyTime1s>930</dutyTime1s>
				<wgs84Lat>37.5822083333333</wgs84Lat>
				<wgs84Lon>126.895866666667</wgs84Lon>
			</item>
			<item>
				<dutyName>수색치과</dutyName>
				<dutyTel1>02-305-0032</dutyTel1>
				<dutyTime1c>1830</dutyTime1c>
				<dutyTime1s>930</dutyTime1s>
				<wgs84Lat>37.5825920036804</wgs84Lat>
				<wgs84Lon>126.895127217582</wgs84Lon>
			</item>
			<item>
				<dutyName>수앤미치과의원</dutyName>
				<dutyTel1>02-383-2275</dutyTel1>
				<dutyTime1c>1830</dutyTime1c>
				<dutyTime1s>930</dutyTime1s>
				<wgs84Lat>37.614175</wgs84Lat>
				<wgs84Lon>126.911366666667</wgs84Lon>
			</item>
			<item>
				<dutyName>수연세재활의학과의원</dutyName>
				<dutyTel1>02-353-8275</dutyTel1>
				<dutyTime1c>1900</dutyTime1c>
				<dutyTime1s>900</dutyTime1s>
				<wgs84Lat>37.6191496722084</wgs84Lat>
				<wgs84Lon>126.922618483726</wgs84Lon>
			</item>
			<item>
				<dutyName>수지정형외과의원</dutyName>
				<dutyTel1>02-734-5114</dutyTel1>
				<dutyTime1c>1830</dutyTime1c>
				<dutyTime1s>900</dutyTime1s>
				<wgs84Lat>37.6084452434</wgs84Lat>
				<wgs84Lon>126.9263670363</wgs84Lon>
			</item>
			<item>
				<dutyName>수한의원</dutyName>
				<dutyTel1>02-386-1075</dutyTel1>
				<dutyTime1c>1900</dutyTime1c>
				<dutyTime1s>930</dutyTime1s>
				<wgs84Lat>37.6448657079107</wgs84Lat>
				<wgs84Lon>126.925845495677</wgs84Lon>
			</item>
			<item>
				<dutyName>숭실한의원</dutyName>
				<dutyTel1>02-376-8875</dutyTel1>
				<dutyTime1c>1700</dutyTime1c>
				<dutyTime1s>800</dutyTime1s>
				<wgs84Lat>37.5891394095728</wgs84Lat>
				<wgs84Lon>126.911499345858</wgs84Lon>
			</item>
			<item>
				<dutyName>신사연세치과의원</dutyName>
				<dutyTel1>02-382-2162</dutyTel1>
				<dutyTime1c>1800</dutyTime1c>
				<dutyTime1s>930</dutyTime1s>
				<wgs84Lat>37.5991174974443</wgs84Lat>
				<wgs84Lon>126.910459706309</wgs84Lon>
			</item>
			<item>
				<dutyName>신사중앙의원</dutyName>
				<dutyTel1>02-3151-0911</dutyTel1>
				<dutyTime1c>1900</dutyTime1c>
				<dutyTime1s>900</dutyTime1s>
				<wgs84Lat>37.5963490539331</wgs84Lat>
				<wgs84Lon>126.90965685151</wgs84Lon>
			</item>
			<item>
				<dutyName>신사호이비인후과의원</dutyName>
				<dutyTel1>02-373-9119</dutyTel1>
				<dutyTime1c>1830</dutyTime1c>
				<dutyTime1s>900</dutyTime1s>
				<wgs84Lat>37.5962552909315</wgs84Lat>
				<wgs84Lon>126.908931805603</wgs84Lon>
			</item>
			<item>
				<dutyName>신성한의원</dutyName>
				<dutyTel1>02-309-1075</dutyTel1>
				<dutyTime1c>1900</dutyTime1c>
				<dutyTime1s>930</dutyTime1s>
				<wgs84Lat>37.5821813210202</wgs84Lat>
				<wgs84Lon>126.895952863843</wgs84Lon>
			</item>
			<item>
				<dutyName>신세계한의원</dutyName>
				<dutyTel1>02-306-7588</dutyTel1>
				<dutyTime1c>1900</dutyTime1c>
				<dutyTime1s>930</dutyTime1s>
				<wgs84Lat>37.5786206537679</wgs84Lat>
				<wgs84Lon>126.899534329568</wgs84Lon>
			</item>
			<item>
				<dutyName>신재활의학과의원</dutyName>
				<dutyTel1>02-6235-4700</dutyTel1>
				<dutyTime1c>1830</dutyTime1c>
				<dutyTime1s>830</dutyTime1s>
				<wgs84Lat>37.6133548351357</wgs84Lat>
				<wgs84Lon>126.912041471252</wgs84Lon>
			</item>
			<item>
				<dutyName>신치과의원</dutyName>
				<dutyTel1>02-302-1629</dutyTel1>
				<dutyTime1c>1800</dutyTime1c>
				<dutyTime1s>1000</dutyTime1s>
				<wgs84Lat>37.5962583333333</wgs84Lat>
				<wgs84Lon>126.908866666667</wgs84Lon>
			</item>
			<item>
				<dutyName>아남이천경한의원</dutyName>
				<dutyTel1>02-388-1407</dutyTel1>
				<dutyTime1c>1800</dutyTime1c>
				<dutyTime1s>1000</dutyTime1s>
				<wgs84Lat>37.6160297972321</wgs84Lat>
				<wgs84Lon>126.918204471531</wgs84Lon>
			</item>
			<item>
				<dutyName>아름다운성형외과의원</dutyName>
				<dutyTel1>02-355-4888</dutyTel1>
				<dutyTime1c>1900</dutyTime1c>
				<dutyTime1s>930</dutyTime1s>
				<wgs84Lat>37.6190600502327</wgs84Lat>
				<wgs84Lon>126.92255525936</wgs84Lon>
			</item>
			<item>
				<dutyName>아벨피부과의원</dutyName>
				<dutyTel1>02-3474-7779</dutyTel1>
				<dutyTime1c>1900</dutyTime1c>
				<dutyTime1s>1000</dutyTime1s>
				<wgs84Lat>37.6386523687318</wgs84Lat>
				<wgs84Lon>126.919081540105</wgs84Lon>
			</item>
			<item>
				<dutyName>아산키즈소아청소년과의원</dutyName>
				<dutyTel1>02-388-3375</dutyTel1>
				<dutyTime1c>1800</dutyTime1c>
				<dutyTime1s>900</dutyTime1s>
				<wgs84Lat>37.6110130341202</wgs84Lat>
				<wgs84Lon>126.918119360258</wgs84Lon>
			</item>
			<item>
				<dutyName>아이러브치과의원</dutyName>
				<dutyTel1>02-352-3023</dutyTel1>
				<dutyTime1c>1830</dutyTime1c>
				<dutyTime1s>1000</dutyTime1s>
				<wgs84Lat>37.6003410877074</wgs84Lat>
				<wgs84Lon>126.917836957675</wgs84Lon>
			</item>
			<item>
				<dutyName>아이엠유의원</dutyName>
				<dutyTel1>02-2088-7525</dutyTel1>
				<dutyTime1c>2200</dutyTime1c>
				<dutyTime1s>900</dutyTime1s>
				<wgs84Lat>37.5771630559</wgs84Lat>
				<wgs84Lon>126.9019272023</wgs84Lon>
			</item>
			<item>
				<dutyName>아이제일산부인과의원</dutyName>
				<dutyTel1>02-355-8113</dutyTel1>
				<dutyTime1c>1800</dutyTime1c>
				<dutyTime1s>900</dutyTime1s>
				<wgs84Lat>37.607447428453</wgs84Lat>
				<wgs84Lon>126.921525382035</wgs84Lon>
			</item>
			<item>
				<dutyName>아카시아치과의원</dutyName>
				<dutyTel1>02-355-5196</dutyTel1>
				<dutyTime1c>1800</dutyTime1c>
				<dutyTime1s>1000</dutyTime1s>
				<wgs84Lat>37.6011819566802</wgs84Lat>
				<wgs84Lon>126.924838879573</wgs84Lon>
			</item>
			<item>
				<dutyName>약손부부한의원</dutyName>
				<dutyTel1>02-388-7510</dutyTel1>
				<dutyTime1c>2030</dutyTime1c>
				<dutyTime1s>930</dutyTime1s>
				<wgs84Lat>37.6120075303</wgs84Lat>
				<wgs84Lon>126.9289412989</wgs84Lon>
			</item>
			<item>
				<dutyName>양생의원</dutyName>
				<dutyTel1>02-372-6363</dutyTel1>
				<dutyTime1c>1800</dutyTime1c>
				<dutyTime1s>930</dutyTime1s>
				<wgs84Lat>37.583149414045</wgs84Lat>
				<wgs84Lon>126.894434425185</wgs84Lon>
			</item>
			<item>
				<dutyName>양전호내과의원</dutyName>
				<dutyTel1>02-385-2600</dutyTel1>
				<dutyTime1c>1830</dutyTime1c>
				<dutyTime1s>830</dutyTime1s>
				<wgs84Lat>37.6200242066391</wgs84Lat>
				<wgs84Lon>126.920003393027</wgs84Lon>
			</item>
			<item>
				<dutyName>어깨동무한의원</dutyName>
				<dutyTel1>02-386-5014</dutyTel1>
				<dutyTime1c>1900</dutyTime1c>
				<dutyTime1s>930</dutyTime1s>
				<wgs84Lat>37.6108153089482</wgs84Lat>
				<wgs84Lon>126.930093126211</wgs84Lon>
			</item>
			<item>
				<dutyName>엄대식이비인후과의원</dutyName>
				<dutyTel1>02-358-5133</dutyTel1>
				<dutyTime1c>1820</dutyTime1c>
				<dutyTime1s>900</dutyTime1s>
				<wgs84Lat>37.6113622620974</wgs84Lat>
				<wgs84Lon>126.917611602283</wgs84Lon>
			</item>
			<item>
				<dutyName>엄마사랑한의원</dutyName>
				<dutyTel1>02-354-8887</dutyTel1>
				<dutyTime1c>1900</dutyTime1c>
				<dutyTime1s>900</dutyTime1s>
				<wgs84Lat>37.6102952471</wgs84Lat>
				<wgs84Lon>126.9172593986</wgs84Lon>
			</item>
			<item>
				<dutyName>엄마한의원</dutyName>
				<dutyTel1>02-387-1075</dutyTel1>
				<dutyTime1c>1830</dutyTime1c>
				<dutyTime1s>900</dutyTime1s>
				<wgs84Lat>37.6232912784989</wgs84Lat>
				<wgs84Lon>126.917516859217</wgs84Lon>
			</item>
			<item>
				<dutyName>에이스치과의원</dutyName>
				<dutyTel1>02-357-0975</dutyTel1>
				<dutyTime1c>1830</dutyTime1c>
				<dutyTime1s>930</dutyTime1s>
				<wgs84Lat>37.6012774549</wgs84Lat>
				<wgs84Lon>126.9332456697</wgs84Lon>
			</item>
			<item>
				<dutyName>에이플러스치과의원</dutyName>
				<dutyTel1>02-3446-2728</dutyTel1>
				<dutyTime1c>2100</dutyTime1c>
				<dutyTime1s>1000</dutyTime1s>
				<wgs84Lat>37.6002935760146</wgs84Lat>
				<wgs84Lon>126.920190401071</wgs84Lon>
			</item>
			<item>
				<dutyName>엔유성형외과의원</dutyName>
				<dutyTel1>02-359-0120</dutyTel1>
				<dutyTime1c>1800</dutyTime1c>
				<dutyTime1s>1000</dutyTime1s>
				<wgs84Lat>37.6004446486</wgs84Lat>
				<wgs84Lon>126.9210933403</wgs84Lon>
			</item>
			<item>
				<dutyName>엘비뇨기과의원</dutyName>
				<dutyTel1>02-373-7071</dutyTel1>
				<dutyTime1c>1900</dutyTime1c>
				<dutyTime1s>930</dutyTime1s>
				<wgs84Lat>37.5880725493869</wgs84Lat>
				<wgs84Lon>126.916323896259</wgs84Lon>
			</item>
			<item>
				<dutyName>연강한의원</dutyName>
				<dutyTel1>02-389-1075</dutyTel1>
				<dutyTime1c>1900</dutyTime1c>
				<dutyTime1s>930</dutyTime1s>
				<wgs84Lat>37.6019962161</wgs84Lat>
				<wgs84Lon>126.9185323916</wgs84Lon>
			</item>
			<item>
				<dutyName>연당한의원</dutyName>
				<dutyTel1>02-357-1075</dutyTel1>
				<dutyTime1c>1900</dutyTime1c>
				<dutyTime1s>930</dutyTime1s>
				<wgs84Lat>37.6203638435349</wgs84Lat>
				<wgs84Lon>126.91606117534</wgs84Lon>
			</item>
			<item>
				<dutyName>연서정형외과의원</dutyName>
				<dutyTel1>02-3157-0119</dutyTel1>
				<dutyTime1c>2000</dutyTime1c>
				<dutyTime1s>900</dutyTime1s>
				<wgs84Lat>37.6201558305</wgs84Lat>
				<wgs84Lon>126.9228259532</wgs84Lon>
			</item>
			<item>
				<dutyName>연세SM재활의학과의원</dutyName>
				<dutyTel1>02-357-0216</dutyTel1>
				<dutyTime1c>1900</dutyTime1c>
				<dutyTime1s>900</dutyTime1s>
				<wgs84Lat>37.6108153089482</wgs84Lat>
				<wgs84Lon>126.930093126211</wgs84Lon>
			</item>
			<item>
				<dutyName>연세가정의원</dutyName>
				<dutyTel1>02-306-8112</dutyTel1>
				<dutyTime1c>1830</dutyTime1c>
				<dutyTime1s>930</dutyTime1s>
				<wgs84Lat>37.5808349033082</wgs84Lat>
				<wgs84Lon>126.905613109364</wgs84Lon>
			</item>
			<item>
				<dutyName>연세가정의학과의원</dutyName>
				<dutyTel1>02-356-5325</dutyTel1>
				<dutyTime1c>2000</dutyTime1c>
				<dutyTime1s>900</dutyTime1s>
				<wgs84Lat>37.599305402505</wgs84Lat>
				<wgs84Lon>126.915328397266</wgs84Lon>
			</item>
			<item>
				<dutyName>연세가족사랑의원</dutyName>
				<dutyTel1>02-385-2075</dutyTel1>
				<dutyTime1c>1900</dutyTime1c>
				<dutyTime1s>900</dutyTime1s>
				<wgs84Lat>37.6052773491012</wgs84Lat>
				<wgs84Lon>126.910687488733</wgs84Lon>
			</item>
			<item>
				<dutyName>연세김치과의원</dutyName>
				<dutyTel1>02-308-6560</dutyTel1>
				<dutyTime1c>1830</dutyTime1c>
				<dutyTime1s>1000</dutyTime1s>
				<wgs84Lat>37.583125</wgs84Lat>
				<wgs84Lon>126.906280555556</wgs84Lon>
			</item>
			<item>
				<dutyName>연세내과의원</dutyName>
				<dutyTel1>02-6052-0475</dutyTel1>
				<dutyTime1c>1800</dutyTime1c>
				<dutyTime1s>900</dutyTime1s>
				<wgs84Lat>37.6123335361</wgs84Lat>
				<wgs84Lon>126.9317362328</wgs84Lon>
			</item>
			<item>
				<dutyName>연세노블병원</dutyName>
				<dutyTel1>02-384-0009</dutyTel1>
				<dutyTime1c>1800</dutyTime1c>
				<dutyTime1s>900</dutyTime1s>
				<wgs84Lat>37.6040399946779</wgs84Lat>
				<wgs84Lon>126.924450711057</wgs84Lon>
			</item>
			<item>
				<dutyName>연세드림치과의원</dutyName>
				<dutyTel1>02-357-2822</dutyTel1>
				<dutyTime1c>1900</dutyTime1c>
				<dutyTime1s>1000</dutyTime1s>
				<wgs84Lat>37.6108318766651</wgs84Lat>
				<wgs84Lon>126.917485436338</wgs84Lon>
			</item>
			<item>
				<dutyName>연세맘소아청소년과의원</dutyName>
				<dutyTel1>02-357-3388</dutyTel1>
				<dutyTime1c>1830</dutyTime1c>
				<dutyTime1s>900</dutyTime1s>
				<wgs84Lat>37.6428593486671</wgs84Lat>
				<wgs84Lon>126.921913585318</wgs84Lon>
			</item>
			<item>
				<dutyName>연세메트로마취통증의학과의원</dutyName>
				<dutyTel1>02-383-8277</dutyTel1>
				<dutyTime1c>1900</dutyTime1c>
				<dutyTime1s>830</dutyTime1s>
				<wgs84Lat>37.6196215855862</wgs84Lat>
				<wgs84Lon>126.921521628811</wgs84Lon>
			</item>
			<item>
				<dutyName>연세미래연합소아청소년과의원</dutyName>
				<dutyTel1>070-7327-8275</dutyTel1>
				<dutyTime1c>2000</dutyTime1c>
				<dutyTime1s>900</dutyTime1s>
				<wgs84Lat>37.599524292629</wgs84Lat>
				<wgs84Lon>126.919105816826</wgs84Lon>
			</item>
			<item>
				<dutyName>연세미치과의원</dutyName>
				<dutyTel1>02-385-7912</dutyTel1>
				<dutyTime1c>1730</dutyTime1c>
				<dutyTime1s>1000</dutyTime1s>
				<wgs84Lat>37.6136785391561</wgs84Lat>
				<wgs84Lon>126.911171241552</wgs84Lon>
			</item>
			<item>
				<dutyName>연세바른치과의원</dutyName>
				<dutyTel1>02-389-8147</dutyTel1>
				<dutyTime1c>1830</dutyTime1c>
				<dutyTime1s>930</dutyTime1s>
				<wgs84Lat>37.6127511228562</wgs84Lat>
				<wgs84Lon>126.91520450204</wgs84Lon>
			</item>
			<item>
				<dutyName>연세봄정신건강의학과의원</dutyName>
				<dutyTel1>02-354-5511</dutyTel1>
				<dutyTime1c>1830</dutyTime1c>
				<dutyTime1s>1000</dutyTime1s>
				<wgs84Lat>37.619588385198</wgs84Lat>
				<wgs84Lon>126.920379897212</wgs84Lon>
			</item>
			<item>
				<dutyName>연세봄치과의원</dutyName>
				<dutyTel1>02-372-2882</dutyTel1>
				<dutyTime1c>1830</dutyTime1c>
				<dutyTime1s>930</dutyTime1s>
				<wgs84Lat>37.5905634334003</wgs84Lat>
				<wgs84Lon>126.91708649794</wgs84Lon>
			</item>
			<item>
				<dutyName>연세사랑의원</dutyName>
				<dutyTel1>02-375-7585</dutyTel1>
				<dutyTime1c>1900</dutyTime1c>
				<dutyTime1s>900</dutyTime1s>
				<wgs84Lat>37.5932799452368</wgs84Lat>
				<wgs84Lon>126.921060142748</wgs84Lon>
			</item>
			<item>
				<dutyName>연세세브란스치과의원</dutyName>
				<dutyTel1>02-356-2638</dutyTel1>
				<dutyTime1c>1800</dutyTime1c>
				<dutyTime1s>930</dutyTime1s>
				<wgs84Lat>37.6112899243211</wgs84Lat>
				<wgs84Lon>126.92886951216</wgs84Lon>
			</item>
			<item>
				<dutyName>연세속편안내과의원</dutyName>
				<dutyTel1>02-386-7588</dutyTel1>
				<dutyTime1c>1900</dutyTime1c>
				<dutyTime1s>800</dutyTime1s>
				<wgs84Lat>37.6010897468</wgs84Lat>
				<wgs84Lon>126.9266641868</wgs84Lon>
			</item>
			<item>
				<dutyName>연세수내과의원</dutyName>
				<dutyTel1>02-384-7574</dutyTel1>
				<dutyTime1c>1830</dutyTime1c>
				<dutyTime1s>900</dutyTime1s>
				<wgs84Lat>37.6181504078588</wgs84Lat>
				<wgs84Lon>126.920381451417</wgs84Lon>
			</item>
			<item>
				<dutyName>연세수치과의원</dutyName>
				<dutyTel1>02-353-2897</dutyTel1>
				<dutyTime1c>1830</dutyTime1c>
				<dutyTime1s>930</dutyTime1s>
				<wgs84Lat>37.6105369682816</wgs84Lat>
				<wgs84Lon>126.929300616739</wgs84Lon>
			</item>
			<item>
				<dutyName>연세숲정신건강의학과의원</dutyName>
				<dutyTel1>02-352-1872</dutyTel1>
				<dutyTime1c>1830</dutyTime1c>
				<dutyTime1s>1000</dutyTime1s>
				<wgs84Lat>37.6386523687318</wgs84Lat>
				<wgs84Lon>126.919081540105</wgs84Lon>
			</item>
			<item>
				<dutyName>연세안과의원</dutyName>
				<dutyTel1>02-386-6755</dutyTel1>
				<dutyTime1c>1800</dutyTime1c>
				<dutyTime1s>900</dutyTime1s>
				<wgs84Lat>37.6190600502327</wgs84Lat>
				<wgs84Lon>126.92255525936</wgs84Lon>
			</item>
			<item>
				<dutyName>연세알찬정형외과의원</dutyName>
				<dutyTel1>02-359-9500</dutyTel1>
				<dutyTime1c>1900</dutyTime1c>
				<dutyTime1s>900</dutyTime1s>
				<wgs84Lat>37.6106665685</wgs84Lat>
				<wgs84Lon>126.9174220773</wgs84Lon>
			</item>
			<item>
				<dutyName>연세에덴요양병원</dutyName>
				<dutyTel1>1577-5046</dutyTel1>
				<dutyTime1c>1800</dutyTime1c>
				<dutyTime1s>900</dutyTime1s>
				<wgs84Lat>37.6061104376037</wgs84Lat>
				<wgs84Lon>126.933372721039</wgs84Lon>
			</item>
			<item>
				<dutyName>연세여우치과의원</dutyName>
				<dutyTel1>02-353-2879</dutyTel1>
				<dutyTime1c>1900</dutyTime1c>
				<dutyTime1s>1000</dutyTime1s>
				<wgs84Lat>37.618135994</wgs84Lat>
				<wgs84Lon>126.920381446</wgs84Lon>
			</item>
			<item>
				<dutyName>연세연우치과의원</dutyName>
				<dutyTel1>02-388-2875</dutyTel1>
				<dutyTime1c>1830</dutyTime1c>
				<dutyTime1s>900</dutyTime1s>
				<wgs84Lat>37.6204527777778</wgs84Lat>
				<wgs84Lon>126.919780555556</wgs84Lon>
			</item>
			<item>
				<dutyName>연세열린의원</dutyName>
				<dutyTel1>02-306-3007</dutyTel1>
				<dutyTime1c>1830</dutyTime1c>
				<dutyTime1s>900</dutyTime1s>
				<wgs84Lat>37.5838538674789</wgs84Lat>
				<wgs84Lon>126.909232931018</wgs84Lon>
			</item>
			<item>
				<dutyName>연세영피부과의원</dutyName>
				<dutyTel1>02-355-7582</dutyTel1>
				<dutyTime1c>2000</dutyTime1c>
				<dutyTime1s>930</dutyTime1s>
				<wgs84Lat>37.6001892737</wgs84Lat>
				<wgs84Lon>126.92185459</wgs84Lon>
			</item>
			<item>
				<dutyName>연세예일의원</dutyName>
				<dutyTel1>02-357-6867</dutyTel1>
				<dutyTime1c>1900</dutyTime1c>
				<dutyTime1s>900</dutyTime1s>
				<wgs84Lat>37.611182200293</wgs84Lat>
				<wgs84Lon>126.917806604219</wgs84Lon>
			</item>
			<item>
				<dutyName>연세우리내과의원</dutyName>
				<dutyTel1>02-357-8279</dutyTel1>
				<dutyTime1c>1900</dutyTime1c>
				<dutyTime1s>830</dutyTime1s>
				<wgs84Lat>37.6113617243005</wgs84Lat>
				<wgs84Lon>126.917584506423</wgs84Lon>
			</item>
			<item>
				<dutyName>연세우리치과의원</dutyName>
				<dutyTel1>02-354-2080</dutyTel1>
				<dutyTime1c>1800</dutyTime1c>
				<dutyTime1s>1000</dutyTime1s>
				<wgs84Lat>37.634262408197</wgs84Lat>
				<wgs84Lon>126.918556090619</wgs84Lon>
			</item>
			<item>
				<dutyName>연세유의원</dutyName>
				<dutyTel1>02-357-7575</dutyTel1>
				<dutyTime1c>1900</dutyTime1c>
				<dutyTime1s>1000</dutyTime1s>
				<wgs84Lat>37.5997122299667</wgs84Lat>
				<wgs84Lon>126.919884706922</wgs84Lon>
			</item>
			<item>
				<dutyName>연세윤내과의원</dutyName>
				<dutyTel1>02-351-9600</dutyTel1>
				<dutyTime1c>1900</dutyTime1c>
				<dutyTime1s>900</dutyTime1s>
				<wgs84Lat>37.6389153284713</wgs84Lat>
				<wgs84Lon>126.918895443206</wgs84Lon>
			</item>
			<item>
				<dutyName>연세이비인후과의원</dutyName>
				<dutyTel1>02-386-3332</dutyTel1>
				<dutyTime1c>1830</dutyTime1c>
				<dutyTime1s>930</dutyTime1s>
				<wgs84Lat>37.6108005262719</wgs84Lat>
				<wgs84Lon>126.930075034568</wgs84Lon>
			</item>
			<item>
				<dutyName>연세인스마일치과의원</dutyName>
				<dutyTel1>1644-2030</dutyTel1>
				<dutyTime1c>1900</dutyTime1c>
				<dutyTime1s>1000</dutyTime1s>
				<wgs84Lat>37.6357405646</wgs84Lat>
				<wgs84Lon>126.9193430105</wgs84Lon>
			</item>
			<item>
				<dutyName>연세인스마일키즈인소아치과의원</dutyName>
				<dutyTel1>02-1644-2030</dutyTel1>
				<dutyTime1c>1900</dutyTime1c>
				<dutyTime1s>1000</dutyTime1s>
				<wgs84Lat>37.6356469055288</wgs84Lat>
				<wgs84Lon>126.919406556825</wgs84Lon>
			</item>
			<item>
				<dutyName>연세정형외과의원</dutyName>
				<dutyTel1>02-388-0775</dutyTel1>
				<dutyTime1c>1900</dutyTime1c>
				<dutyTime1s>900</dutyTime1s>
				<wgs84Lat>37.6008761950071</wgs84Lat>
				<wgs84Lon>126.925201308357</wgs84Lon>
			</item>
			<item>
				<dutyName>연세제일의원</dutyName>
				<dutyTel1>02-354-0956</dutyTel1>
				<dutyTime1c>2100</dutyTime1c>
				<dutyTime1s>900</dutyTime1s>
				<wgs84Lat>37.6000984485</wgs84Lat>
				<wgs84Lon>126.9155675486</wgs84Lon>
			</item>
			<item>
				<dutyName>연세좋은내과의원</dutyName>
				<dutyTel1>02-388-7979</dutyTel1>
				<dutyTime1c>1830</dutyTime1c>
				<dutyTime1s>900</dutyTime1s>
				<wgs84Lat>37.6175059054694</wgs84Lat>
				<wgs84Lon>126.932950260857</wgs84Lon>
			</item>
			<item>
				<dutyName>연세치과의원</dutyName>
				<dutyTel1>02-386-7192</dutyTel1>
				<dutyTime1c>1800</dutyTime1c>
				<dutyTime1s>1000</dutyTime1s>
				<wgs84Lat>37.5940702496224</wgs84Lat>
				<wgs84Lon>126.917848508992</wgs84Lon>
			</item>
			<item>
				<dutyName>연세큰숲내과의원</dutyName>
				<dutyTel1>02-2038-8270</dutyTel1>
				<dutyTime1c>1800</dutyTime1c>
				<dutyTime1s>900</dutyTime1s>
				<wgs84Lat>37.6109226775377</wgs84Lat>
				<wgs84Lon>126.928838134303</wgs84Lon>
			</item>
			<item>
				<dutyName>연세팜스의원</dutyName>
				<dutyTel1>02-387-2755</dutyTel1>
				<dutyTime1c>1900</dutyTime1c>
				<dutyTime1s>930</dutyTime1s>
				<wgs84Lat>37.6100572561301</wgs84Lat>
				<wgs84Lon>126.928059757362</wgs84Lon>
			</item>
			<item>
				<dutyName>연세푸른의원</dutyName>
				<dutyTel1>02-304-7329</dutyTel1>
				<dutyTime1c>1830</dutyTime1c>
				<dutyTime1s>900</dutyTime1s>
				<wgs84Lat>37.5963920134</wgs84Lat>
				<wgs84Lon>126.908632677</wgs84Lon>
			</item>
			<item>
				<dutyName>연세플러스마취통증의학과의원</dutyName>
				<dutyTel1>02-307-0566</dutyTel1>
				<dutyTime1c>1830</dutyTime1c>
				<dutyTime1s>900</dutyTime1s>
				<wgs84Lat>37.5851187137</wgs84Lat>
				<wgs84Lon>126.9183469953</wgs84Lon>
			</item>
			<item>
				<dutyName>연세하늘치과의원</dutyName>
				<dutyTel1>02-382-8875</dutyTel1>
				<dutyTime1c>1900</dutyTime1c>
				<dutyTime1s>1000</dutyTime1s>
				<wgs84Lat>37.6182273493858</wgs84Lat>
				<wgs84Lon>126.922266135115</wgs84Lon>
			</item>
			<item>
				<dutyName>연세학문외과의원</dutyName>
				<dutyTel1>02-387-6427</dutyTel1>
				<dutyTime1c>1830</dutyTime1c>
				<dutyTime1s>900</dutyTime1s>
				<wgs84Lat>37.6115348766666</wgs84Lat>
				<wgs84Lon>126.928683531835</wgs84Lon>
			</item>
			<item>
				<dutyName>연세호치과의원</dutyName>
				<dutyTel1>02-357-2882</dutyTel1>
				<dutyTime1c>1830</dutyTime1c>
				<dutyTime1s>930</dutyTime1s>
				<wgs84Lat>37.6389153285</wgs84Lat>
				<wgs84Lon>126.9188954432</wgs84Lon>
			</item>
			<item>
				<dutyName>연신내경희한의원</dutyName>
				<dutyTel1>02-353-0010</dutyTel1>
				<dutyTime1c>1900</dutyTime1c>
				<dutyTime1s>900</dutyTime1s>
				<wgs84Lat>37.6209392000336</wgs84Lat>
				<wgs84Lon>126.92485951818</wgs84Lon>
			</item>
			<item>
				<dutyName>연신내메이퓨어의원</dutyName>
				<dutyTel1>02-389-9980</dutyTel1>
				<dutyTime1c>2030</dutyTime1c>
				<dutyTime1s>1030</dutyTime1s>
				<wgs84Lat>37.6180732332822</wgs84Lat>
				<wgs84Lon>126.918197702298</wgs84Lon>
			</item>
			<item>
				<dutyName>연신내정형외과의원</dutyName>
				<dutyTel1>02-357-8872</dutyTel1>
				<dutyTime1c>1830</dutyTime1c>
				<dutyTime1s>900</dutyTime1s>
				<wgs84Lat>37.6203626289725</wgs84Lat>
				<wgs84Lon>126.924955246664</wgs84Lon>
			</item>
			<item>
				<dutyName>연신내치과의원</dutyName>
				<dutyTel1>02-313-2875</dutyTel1>
				<dutyTime1c>1800</dutyTime1c>
				<dutyTime1s>930</dutyTime1s>
				<wgs84Lat>37.619682499</wgs84Lat>
				<wgs84Lon>126.9209914582</wgs84Lon>
			</item>
			<item>
				<dutyName>열린이비인후과의원</dutyName>
				<dutyTel1>02-353-4748</dutyTel1>
				<dutyTime1c>1830</dutyTime1c>
				<dutyTime1s>900</dutyTime1s>
				<wgs84Lat>37.59398445451</wgs84Lat>
				<wgs84Lon>126.918314662998</wgs84Lon>
			</item>
			<item>
				<dutyName>영소아과의원</dutyName>
				<dutyTel1>02-354-5584</dutyTel1>
				<dutyTime1c>1800</dutyTime1c>
				<dutyTime1s>930</dutyTime1s>
				<wgs84Lat>37.5972324097492</wgs84Lat>
				<wgs84Lon>126.909505835835</wgs84Lon>
			</item>
			<item>
				<dutyName>영신치과의원</dutyName>
				<dutyTel1>02-359-2875</dutyTel1>
				<dutyTime1c>1800</dutyTime1c>
				<dutyTime1s>900</dutyTime1s>
				<wgs84Lat>37.6212</wgs84Lat>
				<wgs84Lon>126.925113888889</wgs84Lon>
			</item>
			<item>
				<dutyName>영주한의원</dutyName>
				<dutyTel1>02-373-7300</dutyTel1>
				<dutyTime1c>1900</dutyTime1c>
				<dutyTime1s>1000</dutyTime1s>
				<wgs84Lat>37.5960393631361</wgs84Lat>
				<wgs84Lon>126.909330634416</wgs84Lon>
			</item>
			<item>
				<dutyName>영진정형외과의원</dutyName>
				<dutyTel1>02-359-2770</dutyTel1>
				<dutyTime1c>1830</dutyTime1c>
				<dutyTime1s>900</dutyTime1s>
				<wgs84Lat>37.6002422431458</wgs84Lat>
				<wgs84Lon>126.915694563362</wgs84Lon>
			</item>
			<item>
				<dutyName>예니어린이치과의원</dutyName>
				<dutyTel1>02-385-2810</dutyTel1>
				<dutyTime1c>1800</dutyTime1c>
				<dutyTime1s>1000</dutyTime1s>
				<wgs84Lat>37.6012143920498</wgs84Lat>
				<wgs84Lon>126.924838846284</wgs84Lon>
			</item>
			<item>
				<dutyName>예담한의원</dutyName>
				<dutyTel1>02-355-3339</dutyTel1>
				<dutyTime1c>1900</dutyTime1c>
				<dutyTime1s>930</dutyTime1s>
				<wgs84Lat>37.619682499</wgs84Lat>
				<wgs84Lon>126.9209914582</wgs84Lon>
			</item>
			<item>
				<dutyName>예당한의원</dutyName>
				<dutyTel1>02-386-1096</dutyTel1>
				<dutyTime1c>1900</dutyTime1c>
				<dutyTime1s>930</dutyTime1s>
				<wgs84Lat>37.6105517321125</wgs84Lat>
				<wgs84Lon>126.929277944838</wgs84Lon>
			</item>
			<item>
				<dutyName>예뻐지는의원</dutyName>
				<dutyTel1>02-372-2816</dutyTel1>
				<dutyTime1c>1730</dutyTime1c>
				<dutyTime1s>930</dutyTime1s>
				<wgs84Lat>37.5892809977293</wgs84Lat>
				<wgs84Lon>126.917912195207</wgs84Lon>
			</item>
			<item>
				<dutyName>예일가정의학과의원</dutyName>
				<dutyTel1>02-382-6109</dutyTel1>
				<dutyTime1c>1830</dutyTime1c>
				<dutyTime1s>900</dutyTime1s>
				<wgs84Lat>37.6112530921221</wgs84Lat>
				<wgs84Lon>126.916864314523</wgs84Lon>
			</item>
			<item>
				<dutyName>예일성모내과의원</dutyName>
				<dutyTel1>02-376-8275</dutyTel1>
				<dutyTime1c>1800</dutyTime1c>
				<dutyTime1s>900</dutyTime1s>
				<wgs84Lat>37.5984351339633</wgs84Lat>
				<wgs84Lon>126.913604010316</wgs84Lon>
			</item>
			<item>
				<dutyName>예일소아청소년과의원</dutyName>
				<dutyTel1>02-384-8400</dutyTel1>
				<dutyTime1c>1840</dutyTime1c>
				<dutyTime1s>900</dutyTime1s>
				<wgs84Lat>37.6117400799236</wgs84Lat>
				<wgs84Lon>126.917720459244</wgs84Lon>
			</item>
			<item>
				<dutyName>예일치과의원</dutyName>
				<dutyTel1>02-359-0188</dutyTel1>
				<dutyTime1c>1700</dutyTime1c>
				<dutyTime1s>1000</dutyTime1s>
				<wgs84Lat>37.6110801363003</wgs84Lat>
				<wgs84Lon>126.916909813219</wgs84Lon>
			</item>
			<item>
				<dutyName>예일한의원</dutyName>
				<dutyTel1>02-375-7582</dutyTel1>
				<dutyTime1c>1830</dutyTime1c>
				<dutyTime1s>900</dutyTime1s>
				<wgs84Lat>37.6111635068216</wgs84Lat>
				<wgs84Lon>126.916841648381</wgs84Lon>
			</item>
			<item>
				<dutyName>예지소아청소년과의원</dutyName>
				<dutyTel1>02-308-1725</dutyTel1>
				<dutyTime1c>1830</dutyTime1c>
				<dutyTime1s>830</dutyTime1s>
				<wgs84Lat>37.6138557843</wgs84Lat>
				<wgs84Lon>126.9120408812</wgs84Lon>
			</item>
			<item>
				<dutyName>오라클피부과의원</dutyName>
				<dutyTel1>02-352-2100</dutyTel1>
				<dutyTime1c>2030</dutyTime1c>
				<dutyTime1s>1000</dutyTime1s>
				<wgs84Lat>37.619951703554</wgs84Lat>
				<wgs84Lon>126.92019818661</wgs84Lon>
			</item>
			<item>
				<dutyName>오엘치과의원</dutyName>
				<dutyTel1>02-353-7590</dutyTel1>
				<dutyTime1c>1800</dutyTime1c>
				<dutyTime1s>1000</dutyTime1s>
				<wgs84Lat>37.6195878481471</wgs84Lat>
				<wgs84Lon>126.920402468107</wgs84Lon>
			</item>
			<item>
				<dutyName>오천석치과의원</dutyName>
				<dutyTel1>02-304-2877</dutyTel1>
				<dutyTime1c>1830</dutyTime1c>
				<dutyTime1s>900</dutyTime1s>
				<wgs84Lat>37.5928957211131</wgs84Lat>
				<wgs84Lon>126.913384068605</wgs84Lon>
			</item>
			<item>
				<dutyName>오춘근한의원</dutyName>
				<dutyTel1>02-389-4978</dutyTel1>
				<dutyTime1c>1900</dutyTime1c>
				<dutyTime1s>900</dutyTime1s>
				<wgs84Lat>37.5986059831728</wgs84Lat>
				<wgs84Lon>126.920139568444</wgs84Lon>
			</item>
			<item>
				<dutyName>온누리한의원</dutyName>
				<dutyTel1>02-382-2325</dutyTel1>
				<dutyTime1c>1900</dutyTime1c>
				<dutyTime1s>930</dutyTime1s>
				<wgs84Lat>37.5978195845993</wgs84Lat>
				<wgs84Lon>126.909818104384</wgs84Lon>
			</item>
			<item>
				<dutyName>온유치과의원</dutyName>
				<dutyTel1>02-353-7528</dutyTel1>
				<dutyTime1c>1900</dutyTime1c>
				<dutyTime1s>1000</dutyTime1s>
				<wgs84Lat>37.6343089331334</wgs84Lat>
				<wgs84Lon>126.924415129136</wgs84Lon>
			</item>
			<item>
				<dutyName>올곧은치과의원</dutyName>
				<dutyTel1>02-6975-5422</dutyTel1>
				<dutyTime1c>2100</dutyTime1c>
				<dutyTime1s>1030</dutyTime1s>
				<wgs84Lat>37.6375379352</wgs84Lat>
				<wgs84Lon>126.9178999205</wgs84Lon>
			</item>
			<item>
				<dutyName>용한의원</dutyName>
				<dutyTel1>02-308-2341</dutyTel1>
				<dutyTime1c>1900</dutyTime1c>
				<dutyTime1s>900</dutyTime1s>
				<wgs84Lat>37.5937101979801</wgs84Lat>
				<wgs84Lon>126.91780315753</wgs84Lon>
			</item>
			<item>
				<dutyName>우리가정의원</dutyName>
				<dutyTel1>02-383-0502</dutyTel1>
				<dutyTime1c>1830</dutyTime1c>
				<dutyTime1s>930</dutyTime1s>
				<wgs84Lat>37.6008482827</wgs84Lat>
				<wgs84Lon>126.9327160803</wgs84Lon>
			</item>
			<item>
				<dutyName>우리눈안과의원</dutyName>
				<dutyTel1>02-372-8822</dutyTel1>
